t_s,phase,subphase,ias_ms,vapp_ms,spd_err_ms,agl_m,vs_ms,pitch_deg,aoa_deg,hdg_deg,bank_deg,thr_cmd,thr_cur,thr_intg,at_gain,at_tau_s,at_a_up,at_a_dn,at_kp_thr,at_ki_spd,at_thr_slew,aa_hdg_cmd_deg,aa_fpa_cmd_deg,aa_fbw,aa_dir,actual_fpa_deg,ftf_hdg_err_deg,ftf_fix_idx,kos_steer_pit_deg,kos_steer_hdg_deg,aa_dir_vx,aa_dir_vy,aa_dir_vz,aa_dir_pitch_deg,aa_dir_hdg_deg,ils_loc_m,ils_gs_m,ils_dist_km,loc_corr_deg,gs_corr_deg,flare_fpa_cmd,flare_tgt_vs,flare_frac,steer_hdg_deg,steer_blend,ro_loc_corr_deg,ro_hdg_err_deg,ro_yaw_tgt,ro_yaw_scale,ro_yaw_gate,yaw_cmd,roll_cmd,pitch_cmd,ro_pitch_tgt_deg,ro_pitch_err_deg,ro_pitch_ff,ro_roll_assist,flaps_cur,flaps_tgt,asc_j_ab,asc_j_rk,asc_validity,asc_q_pa,asc_q_raw_pa,asc_mach,asc_apo_m,asc_drag_n,asc_w_prop,asc_edot_aero,asc_edot_orb,asc_pitch_bias,asc_blend,asc_spooling,asc_ab_thr_ratio,asc_ab_t_now,asc_ab_t_avail,asc_ab_ign_on,asc_ab_flameouts,asc_rk_t_now,asc_rk_t_avail,asc_rk_ign_on,asc_rk_flameouts,ship_thrust,ship_avail_thrust,ship_ign_on,ship_flameouts,ifc_raw_dt_s,ifc_dt_s,ifc_loop_n,ifc_hz_est,ifc_raw_dt_max_s,ifc_raw_dt_min_s,phase_el_s,status
1.24,APPROACH,FLY_TO_FIX,240.89,150.8,-90.09,1235.68,-4.6,3.82,5.17,267.09,-4.202,0,0,0,1,0.6,0.9,0.75,0.35,0.0168,0.4,255.64,0.528,1,0,-1.08,11.45,0,-0.02,90,0.7402,-0.246,0.6257,5.42,255.64,0,0,54.298,0,0,0,0,0,267.25,0,0,0,0,0,0,0,0,0,0,0,0,0,0,0,0,0,VALID,0,0,0,0,0,1,0,0,0,0,0,0,0,0,0,0,0,0,0,0,279.11,3857.9,6,0,0.94,0.5,1,1.89,0.94,0.02,1.28,FLYING
2,APPROACH,FLY_TO_FIX,240.53,151.6,-88.93,1232.1,-4.53,3.61,4.79,266.58,-4.14,0,0,0,1,0.6,1.398,0.75,0.35,0.0168,0.4,255.55,0.546,0,1,-0.97,11.03,0,5.44,255.64,0.7438,-0.2477,0.6208,5.09,255.55,0,0,54.108,0,0,0,0,0,267.25,0,0,0,0,0,0,0,0,0,0,0,0,0,0,0,0,0,VALID,0,0,0,0,0,1,0,0,0,0,0,0,0,0,0,0,0,0,0,0,211.71,3853.96,6,0,0.72,0.5,2,1.32,0.94,0.72,2.04,FLYING
2.78,APPROACH,FLY_TO_FIX,240.22,152.4,-87.82,1228.84,-4.27,3.84,5.09,264.76,-4.204,0,0,0,1,0.6,2.014,0.75,0.35,0.0168,0.4,255.46,0.562,0,1,-1.04,9.31,0,5.11,255.55,0.7387,-0.249,0.6263,5.53,255.46,0,0,53.913,0,0,0,0,0,267.25,0,0,0,0,0,0,0,0,0,0,0,0,0,0,0,0,0,VALID,0,0,0,0,0,1,0,0,0,0,0,0,0,0,0,0,0,0,0,0,160.66,3850.89,6,0,0.78,0.5,3,1.28,0.78,0.72,2.82,FLYING
3.54,APPROACH,FLY_TO_FIX,239.8,153.2,-86.6,1226.1,-3.68,4,5.38,263.11,-4.293,0,0,0,1,0.6,2.579,0.75,0.35,0.0168,0.4,255.37,0.577,0,1,-0.94,7.75,0,5.55,255.46,0.7358,-0.2504,0.6292,5.78,255.37,0,0,53.723,0,0,0,0,0,267.25,0,0,0,0,0,0,0,0,0,0,0,0,0,0,0,0,0,VALID,0,0,0,0,0,1,0,0,0,0,0,0,0,0,0,0,0,0,0,0,121.9,3846.44,6,0,0.76,0.5,4,1.32,0.78,0.76,3.58,FLYING
4.3,APPROACH,FLY_TO_FIX,239.1,154,-85.1,1224.55,-2.25,4.76,6.1,261.84,-4.38,0,0,0,1,0.6,3.098,0.75,0.35,0.0168,0.4,255.28,0.586,0,1,-0.71,6.56,0,5.8,255.37,0.728,-0.2514,0.6378,6.46,255.28,0,0,53.534,0,0,0,0,0,267.25,0,0,0,0,0,0,0,0,0,0,0,0,0,0,0,0,0,VALID,0,0,0,0,0,1,0,0,0,0,0,0,0,0,0,0,0,0,0,0,92.44,3838.76,6,0,0.76,0.5,5,1.32,0.76,0.76,4.34,FLYING
5.06,APPROACH,FLY_TO_FIX,237.98,154.8,-83.18,1224.53,0.17,5.8,6.6,260.92,-4.404,0,0,-20,1,0.6,3.573,0.75,0.35,0.0168,0.4,255.19,0.588,0,1,-0.22,5.73,0,6.48,255.28,0.7215,-0.2525,0.6447,7.02,255.19,0,0,53.345,0,0,0,0,0,267.25,0,0,0,0,0,0,0,0,0,0,0,0,0,0,0,0,0,VALID,0,0,0,0,0,1,0,0,0,0,0,0,0,0,0,0,0,0,0,0,69.51,3825.86,6,0,0.76,0.5,6,1.32,0.76,0.76,5.1,FLYING
5.82,APPROACH,FLY_TO_FIX,236.57,155.6,-80.97,1226.52,3.08,6.84,6.92,260.42,-4.346,0,0,-19.9,1,0.6,4.007,0.75,0.35,0.0168,0.4,255.11,0.581,0,1,0.43,5.32,0,7.03,255.19,0.7171,-0.2537,0.6492,7.39,255.11,0,0,53.158,0,0,0,0,0,267.25,0,0,0,0,0,0,0,0,0,0,0,0,0,0,0,0,0,VALID,0,0,0,0,0,1,0,0,0,0,0,0,0,0,0,0,0,0,0,0,52.99,3810.15,6,0,0.76,0.5,7,1.32,0.76,0.76,5.86,FLYING
6.58,APPROACH,FLY_TO_FIX,234.9,156.4,-78.5,1230.59,6.07,7.71,6.8,260.04,-3.81,0,0,-19.8,1,0.6,4.403,0.76,0.35,0.0168,0.4,255.02,0.563,0,1,1.16,5.02,0,7.41,255.11,0.7166,-0.255,0.6492,7.43,255.02,0,0,52.971,0,0,0,0,0,267.25,0,0,0,0,0,0,0,0,0,0,0,0,0,0,0,0,0,VALID,0,0,0,0,0,1,0,0,0,0,0,0,0,0,0,0,0,0,0,0,40.08,3790.93,6,0,0.76,0.5,8,1.32,0.76,0.76,6.62,FLYING
7.34,APPROACH,FLY_TO_FIX,233.23,157.2,-76.03,1236.5,8.59,8.25,6.42,259.95,-1.445,0.0743,0,-20,1,0.6,4.5,0.818,0.35,0.0168,0.4,254.94,0.535,0,1,1.85,5,0,7.45,255.02,0.7203,-0.2566,0.6444,7.09,254.94,0,0,52.786,0,0,0,0,0,267.25,0,0,0,0,0,0,0,0,0,0,0,0,0,0,0,0,0,VALID,0,0,0,0,0,1,0,0,0,0,0,0,0,0,0,0,0,0,0,0,30.09,3770.9,6,0,0.76,0.5,9,1.32,0.76,0.76,7.38,FLYING
8.12,APPROACH,FLY_TO_FIX,231.61,158,-73.61,1243.96,10.42,8.4,5.96,259.88,-0.666,0.1461,0,-20,1,0.6,4.5,0.884,0.35,0.0168,0.4,254.86,0.499,0,1,2.39,5.02,0,7.11,254.94,0.7257,-0.2583,0.6377,6.61,254.86,0,0,52.597,0,0,0,0,0,267.25,0,0,0,0,0,0,0,0,0,0,0,0,0,0,0,0,0,VALID,0,0,0,0,0,1,0,0,0,0,0,0,0,0,0,0,0,0,0,0,64.9,3751.87,6,0,0.78,0.5,10,1.28,0.78,0.76,8.16,FLYING
8.88,APPROACH,FLY_TO_FIX,230.26,158.8,-71.46,1252,11.29,8.15,5.37,259.69,-0.502,0.1798,0,-20,1,0.6,4.5,0.884,0.35,0.0168,0.4,254.78,0.46,0,1,2.72,4.9,0,6.63,254.86,0.7328,-0.26,0.6288,5.98,254.78,0,0,52.414,0,0,0,0,0,267.25,0,0,0,0,0,0,0,0,0,0,0,0,0,0,0,0,0,VALID,0,0,0,0,0,1,0,0,0,0,0,0,0,0,0,0,0,0,0,0,130.04,3736.2,6,0,0.76,0.5,11,1.32,0.78,0.76,8.92,FLYING
9.62,APPROACH,FLY_TO_FIX,229.21,159,-70.21,1260.18,11.25,7.67,4.75,259.49,-0.129,0.1627,0,-20,1,0.6,4.5,0.884,0.35,0.0168,0.4,254.71,0.419,0,1,2.84,4.78,0,6,254.78,0.7403,-0.2618,0.6192,5.29,254.71,0,0,52.232,0,0,0,0,0,267.25,0,0,0,0,0,0,0,0,0,0,0,0,0,0,0,0,0,VALID,0,0,0,0,0,1,0,0,0,0,0,0,0,0,0,0,0,0,0,0,205.45,3723.2,6,0,0.76,0.5,12,1.32,0.76,0.76,9.68,FLYING
10.38,APPROACH,FLY_TO_FIX,228.5,159,-69.5,1267.86,10.34,6.96,4.16,259.26,0.119,0.1051,0,-20,1,0.6,4.5,0.884,0.35,0.0168,0.4,254.63,0.379,0,1,2.71,4.63,0,5.31,254.71,0.7473,-0.2634,0.61,4.65,254.63,0,0,52.051,0,0,0,0,0,267.25,0,0,0,0,0,0,0,0,0,0,0,0,0,0,0,0,0,VALID,0,0,0,0,0,1,0,0,0,0,0,0,0,0,0,0,0,0,0,0,261.59,3714.08,6,0,0.76,0.5,13,1.32,0.76,0.76,10.44,FLYING
11.14,APPROACH,FLY_TO_FIX,228.06,159,-69.06,1274.45,8.61,6.13,3.67,259.02,0.235,0.02,0,-20,1,0.6,4.5,0.884,0.35,0.0168,0.4,254.55,0.345,0,1,2.38,4.46,0,4.66,254.63,0.7532,-0.265,0.602,4.09,254.55,0,0,51.87,0,0,0,0,0,267.25,0,0,0,0,0,0,0,0,0,0,0,0,0,0,0,0,0,VALID,0,0,0,0,0,1,0,0,0,0,0,0,0,0,0,0,0,0,0,0,280.05,3708.11,6,0,0.76,0.5,14,1.32,0.76,0.76,11.2,FLYING
11.92,APPROACH,FLY_TO_FIX,227.79,159,-68.79,1279.56,6.32,5.26,3.41,258.76,0.345,0,0,-19.9,1,0.6,4.5,0.921,0.35,0.0168,0.4,254.48,0.318,0,1,1.86,4.28,0,4.11,254.55,0.7566,-0.2664,0.5971,3.77,254.48,0,0,51.689,0,0,0,0,0,267.25,0,0,0,0,0,0,0,0,0,0,0,0,0,0,0,0,0,VALID,0,0,0,0,0,1,0,0,0,0,0,0,0,0,0,0,0,0,0,0,231.68,3704.24,6,0,0.76,0.5,15,1.32,0.76,0.76,11.96,FLYING
12.68,APPROACH,FLY_TO_FIX,227.53,159,-68.53,1282.88,3.77,4.53,3.34,258.49,0.274,0,0,-19.8,1,0.6,4.5,0.946,0.35,0.0168,0.4,254.41,0.299,0,1,1.24,4.08,0,3.78,254.48,0.7581,-0.2677,0.5946,3.62,254.41,0,0,51.509,0,0,0,0,0,267.25,0,0,0,0,0,0,0,0,0,0,0,0,0,0,0,0,0,VALID,0,0,0,0,0,1,0,0,0,0,0,0,0,0,0,0,0,0,0,0,176.13,3700.77,6,0,0.76,0.5,16,1.32,0.76,0.76,12.72,FLYING
13.44,APPROACH,FLY_TO_FIX,227.27,159,-68.27,1284.4,1.28,3.94,3.44,258.22,0.307,0,0,-19.701,1,0.6,4.5,0.962,0.35,0.0168,0.4,254.33,0.289,0,1,0.59,3.88,0,3.63,254.41,0.7573,-0.2689,0.5951,3.68,254.33,0,0,51.329,0,0,0,0,0,267.25,0,0,0,0,0,0,0,0,0,0,0,0,0,0,0,0,0,VALID,0,0,0,0,0,1,0,0,0,0,0,0,0,0,0,0,0,0,0,0,133.63,3697.51,6,0,0.76,0.5,17,1.32,0.76,0.76,13.48,FLYING
14.2,APPROACH,FLY_TO_FIX,227.01,159,-68.01,1284.3,-0.95,3.6,3.72,257.95,0.274,0,0,-19.603,1,0.6,4.5,0.972,0.35,0.0168,0.4,254.26,0.288,0,1,0,3.69,0,3.7,254.33,0.7546,-0.27,0.598,3.92,254.26,0,0,51.149,0,0,0,0,0,267.25,0,0,0,0,0,0,0,0,0,0,0,0,0,0,0,0,0,VALID,0,0,0,0,0,1,0,0,0,0,0,0,0,0,0,0,0,0,0,0,101.41,3694.35,6,0,0.76,0.5,18,1.32,0.76,0.76,14.24,FLYING
14.96,APPROACH,FLY_TO_FIX,226.71,159,-67.71,1282.81,-2.77,3.45,4.12,257.7,0.326,0,0,-19.505,1,0.6,4.5,0.977,0.35,0.0168,0.4,254.19,0.294,0,1,-0.51,3.51,0,3.94,254.26,0.7506,-0.271,0.6027,4.29,254.19,0,0,50.969,0,0,0,0,0,267.25,0,0,0,0,0,0,0,0,0,0,0,0,0,0,0,0,0,VALID,0,0,0,0,0,1,0,0,0,0,0,0,0,0,0,0,0,0,0,0,76.97,3691.07,6,0,0.76,0.5,19,1.32,0.76,0.76,15,FLYING
15.72,APPROACH,FLY_TO_FIX,226.35,159,-67.35,1280.28,-4.02,3.53,4.54,257.45,0.274,0,0,-19.407,1,0.6,4.5,0.978,0.35,0.0168,0.4,254.12,0.305,0,1,-0.89,3.33,0,4.31,254.19,0.7459,-0.2719,0.6081,4.72,254.12,0,0,50.789,0,0,0,0,0,267.25,0,0,0,0,0,0,0,0,0,0,0,0,0,0,0,0,0,VALID,0,0,0,0,0,1,0,0,0,0,0,0,0,0,0,0,0,0,0,0,58.43,3687.14,6,0,0.76,0.5,20,1.32,0.76,0.76,15.76,FLYING
16.48,APPROACH,FLY_TO_FIX,225.89,159,-66.89,1277.25,-4.64,3.81,5.09,257.21,0.232,0,0,-19.31,1,0.6,4.5,0.98,0.35,0.0168,0.4,254.05,0.32,0,1,-1.11,3.16,0,4.73,254.12,0.74,-0.2727,0.6148,5.24,254.05,0,0,50.611,0,0,0,0,0,267.25,0,0,0,0,0,0,0,0,0,0,0,0,0,0,0,0,0,VALID,0,0,0,0,0,1,0,0,0,0,0,0,0,0,0,0,0,0,0,0,44.35,3682.15,6,0,0.76,0.5,21,1.32,0.76,0.76,16.52,FLYING
17.24,APPROACH,FLY_TO_FIX,225.28,159,-66.28,1274.15,-4.5,4.3,5.58,256.99,0.259,0,0,-19.214,1,0.6,4.5,0.984,0.35,0.0168,0.4,253.99,0.336,0,1,-1.16,3.01,0,5.26,254.05,0.734,-0.2735,0.6216,5.78,253.99,0,0,50.432,0,0,0,0,0,267.25,0,0,0,0,0,0,0,0,0,0,0,0,0,0,0,0,0,VALID,0,0,0,0,0,1,0,0,0,0,0,0,0,0,0,0,0,0,0,0,33.65,3675.38,6,0,0.76,0.5,22,1.32,0.76,0.76,17.28,FLYING
18,APPROACH,FLY_TO_FIX,224.51,159,-65.51,1271.42,-3.81,4.85,6.02,256.79,0.284,0,0,-19.118,1,0.6,4.5,0.992,0.35,0.0168,0.4,253.92,0.35,0,1,-1.06,2.87,0,5.8,253.99,0.7285,-0.2743,0.6277,6.26,253.92,0,0,50.254,0,0,0,0,0,267.25,0,0,0,0,0,0,0,0,0,0,0,0,0,0,0,0,0,VALID,0,0,0,0,0,1,0,0,0,0,0,0,0,0,0,0,0,0,0,0,25.53,3666.78,6,0,0.76,0.5,23,1.32,0.76,0.76,18.04,FLYING
18.76,APPROACH,FLY_TO_FIX,223.59,159,-64.59,1269.36,-2.62,5.46,6.27,256.6,0.314,0,0,-19.022,1,0.6,4.5,1.006,0.35,0.0168,0.4,253.85,0.361,0,1,-0.81,2.74,0,6.28,253.92,0.7249,-0.2752,0.6314,6.57,253.85,0,0,50.077,0,0,0,0,0,267.25,0,0,0,0,0,0,0,0,0,0,0,0,0,0,0,0,0,VALID,0,0,0,0,0,1,0,0,0,0,0,0,0,0,0,0,0,0,0,0,19.36,3656.24,6,0,0.76,0.5,24,1.32,0.76,0.76,18.8,FLYING
19.52,APPROACH,FLY_TO_FIX,222.56,159,-63.56,1268.27,-1.29,5.96,6.47,256.41,0.322,0,0,-18.927,1,0.6,4.5,1.027,0.35,0.0168,0.4,253.79,0.368,0,1,-0.48,2.62,0,6.59,253.85,0.7228,-0.2762,0.6335,6.76,253.79,0,0,49.901,0,0,0,0,0,267.25,0,0,0,0,0,0,0,0,0,0,0,0,0,0,0,0,0,VALID,0,0,0,0,0,1,0,0,0,0,0,0,0,0,0,0,0,0,0,0,14.67,3644.28,6,0,0.76,0.5,25,1.32,0.76,0.76,19.56,FLYING
20.28,APPROACH,FLY_TO_FIX,221.43,159,-62.43,1268.16,0.1,6.46,6.59,256.23,0.344,0,0,-18.832,1,0.6,4.5,1.055,0.35,0.0168,0.4,253.73,0.37,0,1,-0.13,2.5,0,6.77,253.79,0.7207,-0.2771,0.6354,6.93,253.73,0,0,49.725,0,0,0,0,0,267.25,0,0,0,0,0,0,0,0,0,0,0,0,0,0,0,0,0,VALID,0,0,0,0,0,1,0,0,0,0,0,0,0,0,0,0,0,0,0,0,11.12,3630.96,6,0,0.76,0.5,26,1.32,0.76,0.76,20.32,FLYING
21.04,APPROACH,FLY_TO_FIX,220.23,159,-61.23,1269.02,1.5,6.83,6.58,256.04,0.263,0,0,-18.738,1,0.6,4.5,1.089,0.35,0.0168,0.4,253.66,0.366,0,1,0.23,2.38,0,6.95,253.73,0.7205,-0.2782,0.6352,6.94,253.66,0,0,49.551,0,0,0,0,0,267.25,0,0,0,0,0,0,0,0,0,0,0,0,0,0,0,0,0,VALID,0,0,0,0,0,1,0,0,0,0,0,0,0,0,0,0,0,0,0,0,8.43,3616.67,6,0,0.76,0.5,27,1.32,0.76,0.76,21.08,FLYING
21.8,APPROACH,FLY_TO_FIX,218.98,159,-59.98,1270.8,2.79,7.07,6.43,255.87,0.317,0,0,-18.645,1,0.6,4.5,1.128,0.35,0.0168,0.4,253.6,0.358,0,1,0.59,2.27,0,6.96,253.66,0.7217,-0.2793,0.6334,6.83,253.6,0,0,49.377,0,0,0,0,0,267.25,0,0,0,0,0,0,0,0,0,0,0,0,0,0,0,0,0,VALID,0,0,0,0,0,1,0,0,0,0,0,0,0,0,0,0,0,0,0,0,6.39,3601.55,6,0,0.76,0.5,28,1.32,0.76,0.76,21.84,FLYING
22.56,APPROACH,FLY_TO_FIX,217.75,159,-58.75,1273.33,3.71,7.18,6.26,255.69,0.288,0,0,-18.551,1,0.6,4.5,1.171,0.35,0.0168,0.4,253.54,0.347,0,1,0.87,2.15,0,6.85,253.6,0.7235,-0.2804,0.6308,6.67,253.54,0,0,49.204,0,0,0,0,0,267.25,0,0,0,0,0,0,0,0,0,0,0,0,0,0,0,0,0,VALID,0,0,0,0,0,1,0,0,0,0,0,0,0,0,0,0,0,0,0,0,4.84,3586.44,6,0,0.76,0.5,29,1.32,0.76,0.76,22.6,FLYING
23.32,APPROACH,FLY_TO_FIX,216.54,159,-57.54,1276.3,4.29,7.15,6.01,255.49,0.211,0,0,-18.459,1,0.6,4.5,1.216,0.35,0.0168,0.4,253.48,0.332,0,1,1.07,2.01,0,6.69,253.54,0.7261,-0.2816,0.6272,6.43,253.48,0,0,49.033,0,0,0,0,0,267.25,0,0,0,0,0,0,0,0,0,0,0,0,0,0,0,0,0,VALID,0,0,0,0,0,1,0,0,0,0,0,0,0,0,0,0,0,0,0,0,3.67,3571.5,6,0,0.76,0.5,30,1.32,0.76,0.76,23.36,FLYING
24.08,APPROACH,FLY_TO_FIX,215.39,159,-56.39,1279.52,4.46,7,5.8,255.3,0.238,0,0,-18.366,1,0.6,4.5,1.261,0.35,0.0168,0.4,253.42,0.316,0,1,1.17,1.88,0,6.45,253.48,0.7291,-0.2828,0.6232,6.16,253.42,0,0,48.862,0,0,0,0,0,267.25,0,0,0,0,0,0,0,0,0,0,0,0,0,0,0,0,0,VALID,0,0,0,0,0,1,0,0,0,0,0,0,0,0,0,0,0,0,0,0,2.78,3557.28,6,0,0.76,0.5,31,1.32,0.76,0.76,24.12,FLYING
24.84,APPROACH,FLY_TO_FIX,214.3,159,-55.3,1282.65,4.31,6.77,5.54,255.1,0.207,0,0,-18.274,1,0.6,4.5,1.304,0.35,0.0168,0.4,253.36,0.3,0,1,1.18,1.74,0,6.17,253.42,0.7319,-0.284,0.6194,5.9,253.36,0,0,48.692,0,0,0,0,0,267.25,0,0,0,0,0,0,0,0,0,0,0,0,0,0,0,0,0,VALID,0,0,0,0,0,1,0,0,0,0,0,0,0,0,0,0,0,0,0,0,2.11,3543.6,6,0,0.76,0.5,32,1.32,0.76,0.76,24.88,FLYING
25.6,APPROACH,FLY_TO_FIX,213.29,159,-54.29,1285.52,3.79,6.44,5.39,254.9,0.171,0,0,-18.183,1,0.6,4.5,1.346,0.35,0.0168,0.4,253.3,0.286,0,1,1.09,1.6,0,5.92,253.36,0.7343,-0.2851,0.616,5.68,253.3,0,0,48.523,0,0,0,0,0,267.25,0,0,0,0,0,0,0,0,0,0,0,0,0,0,0,0,0,VALID,0,0,0,0,0,1,0,0,0,0,0,0,0,0,0,0,0,0,0,0,1.6,3530.92,6,0,0.76,0.5,33,1.32,0.76,0.76,25.64,FLYING
26.36,APPROACH,FLY_TO_FIX,212.32,159,-53.32,1287.92,3.11,6.16,5.24,254.69,0.147,0,0,-18.092,1,0.6,4.5,1.384,0.35,0.0168,0.4,253.24,0.273,0,1,0.93,1.45,0,5.7,253.3,0.736,-0.2862,0.6135,5.52,253.24,0,0,48.354,0,0,0,0,0,267.25,0,0,0,0,0,0,0,0,0,0,0,0,0,0,0,0,0,VALID,0,0,0,0,0,1,0,0,0,0,0,0,0,0,0,0,0,0,0,0,1.22,3518.76,6,0,0.76,0.5,34,1.32,0.76,0.76,26.4,FLYING
27.12,APPROACH,FLY_TO_FIX,211.46,159,-52.46,1289.7,2.14,5.85,5.18,254.48,0.149,0,0,-18.002,1,0.6,4.5,1.417,0.35,0.0168,0.4,253.19,0.263,0,1,0.7,1.3,0,5.53,253.24,0.7369,-0.2872,0.612,5.44,253.19,0,0,48.187,0,0,0,0,0,267.25,0,0,0,0,0,0,0,0,0,0,0,0,0,0,0,0,0,VALID,0,0,0,0,0,1,0,0,0,0,0,0,0,0,0,0,0,0,0,0,0.92,3507.88,6,0,0.76,0.5,35,1.32,0.76,0.76,27.16,FLYING
27.88,APPROACH,FLY_TO_FIX,210.65,159,-51.65,1290.8,1.13,5.62,5.25,254.27,0.122,0,0,-17.912,1,0.6,4.5,1.446,0.35,0.0168,0.4,253.13,0.257,0,1,0.43,1.14,0,5.45,253.19,0.7364,-0.2881,0.6121,5.47,253.13,0,0,48.02,0,0,0,0,0,267.25,0,0,0,0,0,0,0,0,0,0,0,0,0,0,0,0,0,VALID,0,0,0,0,0,1,0,0,0,0,0,0,0,0,0,0,0,0,0,0,0.62,3497.8,6,0,0.76,0.5,36,1.32,0.76,0.76,27.92,FLYING
28.64,APPROACH,FLY_TO_FIX,209.87,159,-50.87,1291.22,0.19,5.5,5.39,254.07,0.114,0,0,-17.822,1,0.6,4.5,1.471,0.35,0.0168,0.4,253.08,0.254,0,1,0.17,0.99,0,5.49,253.13,0.7351,-0.2889,0.6133,5.59,253.08,0,0,47.854,0,0,0,0,0,267.25,0,0,0,0,0,0,0,0,0,0,0,0,0,0,0,0,0,VALID,0,0,0,0,0,1,0,0,0,0,0,0,0,0,0,0,0,0,0,0,0.47,3488.04,6,0,0.76,0.5,37,1.32,0.76,0.76,28.68,FLYING
29.4,APPROACH,FLY_TO_FIX,209.1,159,-50.1,1291.09,-0.55,5.45,5.59,253.86,0.08,0,0,-17.733,1,0.6,4.5,1.491,0.35,0.0168,0.4,253.02,0.254,0,1,-0.06,0.84,0,5.61,253.08,0.7332,-0.2897,0.6152,5.76,253.02,0,0,47.688,0,0,0,0,0,267.25,0,0,0,0,0,0,0,0,0,0,0,0,0,0,0,0,0,VALID,0,0,0,0,0,1,0,0,0,0,0,0,0,0,0,0,0,0,0,0,0.36,3478.36,6,0,0.76,0.5,38,1.32,0.76,0.76,29.44,FLYING
30.16,APPROACH,FLY_TO_FIX,208.29,159,-49.29,1290.54,-1,5.5,5.78,253.66,0.04,0,0,-17.644,1,0.6,4.5,1.509,0.35,0.0168,0.4,252.97,0.256,0,1,-0.23,0.69,0,5.77,253.02,0.7305,-0.2904,0.6181,5.99,252.97,0,0,47.523,0,0,0,0,0,267.25,0,0,0,0,0,0,0,0,0,0,0,0,0,0,0,0,0,VALID,0,0,0,0,0,1,0,0,0,0,0,0,0,0,0,0,0,0,0,0,0.27,3468.34,6,0,0.76,0.5,39,1.32,0.76,0.76,30.2,FLYING
30.92,APPROACH,FLY_TO_FIX,207.46,159,-48.46,1289.78,-1.32,5.64,6.04,253.47,0.038,0,0,-17.556,1,0.6,4.5,1.526,0.35,0.0168,0.4,252.92,0.26,0,1,-0.33,0.55,0,6.01,252.97,0.7276,-0.2911,0.6211,6.25,252.92,0,0,47.359,0,0,0,0,0,267.25,0,0,0,0,0,0,0,0,0,0,0,0,0,0,0,0,0,VALID,0,0,0,0,0,1,0,0,0,0,0,0,0,0,0,0,0,0,0,0,0,3458.08,6,0,0.76,0.5,40,1.32,0.76,0.76,30.96,FLYING
31.68,APPROACH,FLY_TO_FIX,206.59,159,-47.59,1288.92,-1.39,5.84,6.31,253.28,0.02,0,0,-17.468,1,0.6,4.5,1.541,0.35,0.0168,0.4,252.87,0.264,0,1,-0.38,0.41,0,6.26,252.92,0.7248,-0.2917,0.6242,6.5,252.87,0,0,47.196,0,0,0,0,0,267.25,0,0,0,0,0,0,0,0,0,0,0,0,0,0,0,0,0,VALID,0,0,0,0,0,1,0,0,0,0,0,0,0,0,0,0,0,0,0,0,0,3447.31,6,0,0.76,0.5,41,1.32,0.76,0.76,31.72,FLYING
32.44,APPROACH,FLY_TO_FIX,205.67,159,-46.67,1288.1,-1.25,6.12,6.55,253.1,0.051,0,0,-17.381,1,0.6,4.5,1.557,0.35,0.0168,0.4,252.82,0.269,0,1,-0.37,0.28,0,6.52,252.87,0.7218,-0.2924,0.6274,6.77,252.82,0,0,47.033,0,0,0,0,0,267.25,0,0,0,0,0,0,0,0,0,0,0,0,0,0,0,0,0,VALID,0,0,0,0,0,1,0,0,0,0,0,0,0,0,0,0,0,0,0,0,0,3435.87,6,0,0.76,0.5,42,1.32,0.76,0.76,32.48,FLYING
33.2,APPROACH,FLY_TO_FIX,204.68,159,-45.68,1287.51,-0.91,6.41,6.76,252.92,0.052,0,0,-17.294,1,0.6,4.5,1.574,0.35,0.0168,0.4,252.77,0.272,0,1,-0.3,0.15,0,6.78,252.82,0.7194,-0.293,0.6297,6.97,252.77,0,0,46.871,0,0,0,0,0,267.25,0,0,0,0,0,0,0,0,0,0,0,0,0,0,0,0,0,VALID,0,0,0,0,0,1,0,0,0,0,0,0,0,0,0,0,0,0,0,0,0,3423.44,6,0,0.76,0.5,43,1.32,0.76,0.76,33.24,FLYING
34.01,APPROACH,FLY_TO_FIX,203.63,159,-44.63,1287.18,-0.41,6.67,6.94,252.75,-0.009,0,0,-17.208,1,0.6,4.5,1.592,0.35,0.0168,0.4,252.73,0.274,0,1,-0.19,0.02,0,6.99,252.77,0.7172,-0.2936,0.632,7.16,252.73,0,0,46.714,0,0,0,0,0,267.25,0,0,0,0,0,0,0,0,0,0,0,0,0,0,0,0,0,VALID,0,0,0,0,0,1,0,0,0,0,0,0,0,0,0,0,0,0,0,0,0,3409.9,6,0,0.74,0.5,44,1.26,0.76,0.74,34.06,FLYING
35.07,APPROACH,FLY_TO_FIX,202.14,159,-43.14,1287.39,0.34,7.04,7.05,252.53,0.042,0,0,-17.122,1,0.6,4.5,1.62,0.35,0.0168,0.4,252.67,0.274,0,1,-0.01,0.13,0,7.18,252.73,0.7159,-0.2946,0.6331,7.28,252.67,0,0,46.501,0,0,0,0,0,267.25,0,0,0,0,0,0,0,0,0,0,0,0,0,0,0,0,0,VALID,0,0,0,0,0,1,0,0,0,0,0,0,0,0,0,0,0,0,0,0,0,3391.45,6,0,0.962,0.5,45,0.95,0.962,0.74,35.13,FLYING
36.18,APPROACH,FLY_TO_FIX,200.5,159,-41.5,1288.33,0.99,7.3,7.11,252.29,-0.027,0,0,-17.036,1,0.6,4.5,1.656,0.35,0.0168,0.4,252.6,0.27,0,1,0.2,0.31,0,7.3,252.67,0.7149,-0.2956,0.6337,7.36,252.6,0,0,46.269,0,0,0,0,0,267.25,0,0,0,0,0,0,0,0,0,0,0,0,0,0,0,0,0,VALID,0,0,0,0,0,1,0,0,0,0,0,0,0,0,0,0,0,0,0,0,0,3370.56,6,0,1.108,0.5,46,0.9,1.108,0.962,36.24,FLYING
37.29,APPROACH,FLY_TO_FIX,198.82,159,-39.82,1289.91,1.62,7.47,7.09,252.04,-0.08,0.0011,0,-16.951,1,0.6,4.5,1.701,0.35,0.0168,0.4,252.54,0.263,0,1,0.39,0.5,0,7.39,252.6,0.7149,-0.2966,0.6332,7.36,252.54,0,0,46.04,0,0,0,0,0,267.25,0,0,0,0,0,0,0,0,0,0,0,0,0,0,0,0,0,VALID,0,0,0,0,0,1,0,0,0,0,0,0,0,0,0,0,0,0,0,0,0,3349.04,6,0,1.11,0.5,47,0.9,1.11,1.108,37.35,FLYING
38.4,APPROACH,FLY_TO_FIX,197.15,159,-38.15,1291.91,1.92,7.57,7.05,251.79,-0.103,0,0,-20,1,0.6,4.5,1.75,0.35,0.0168,0.4,252.48,0.253,0,1,0.51,0.68,0,7.38,252.54,0.7154,-0.2977,0.6321,7.32,252.48,0,0,45.812,0,0,0,0,0,267.25,0,0,0,0,0,0,0,0,0,0,0,0,0,0,0,0,0,VALID,0,0,0,0,0,1,0,0,0,0,0,0,0,0,0,0,0,0,0,0,0.76,3326.95,6,0,1.11,0.5,48,0.9,1.11,1.11,38.46,FLYING
39.54,APPROACH,FLY_TO_FIX,195.46,159,-36.46,1294.17,2.01,7.55,6.96,251.54,-0.094,0.022,0,-20,1,0.6,4.5,1.805,0.35,0.0168,0.4,252.42,0.242,0,1,0.6,0.88,0,7.34,252.48,0.7164,-0.2988,0.6305,7.23,252.42,0,0,45.579,0,0,0,0,0,267.25,0,0,0,0,0,0,0,0,0,0,0,0,0,0,0,0,0,VALID,0,0,0,0,0,1,0,0,0,0,0,0,0,0,0,0,0,0,0,0,0.52,3305.02,6,0,1.14,0.5,49,0.88,1.14,1.11,39.6,FLYING
40.68,APPROACH,FLY_TO_FIX,193.88,159,-34.88,1296.22,1.7,7.43,6.94,251.28,-0.156,0.0222,0,-20,1,0.6,4.5,1.859,0.35,0.0168,0.4,252.36,0.231,0,1,0.55,1.08,0,7.25,252.42,0.7169,-0.2998,0.6294,7.18,252.36,0,0,45.349,0,0,0,0,0,267.25,0,0,0,0,0,0,0,0,0,0,0,0,0,0,0,0,0,VALID,0,0,0,0,0,1,0,0,0,0,0,0,0,0,0,0,0,0,0,0,14.85,3284.49,6,0,1.14,0.5,50,0.88,1.14,1.14,40.74,FLYING
41.79,APPROACH,FLY_TO_FIX,192.42,159,-33.42,1297.78,1.27,7.37,6.98,251.06,-0.196,0.0122,0,-20,1,0.6,4.5,1.913,0.35,0.0168,0.4,252.3,0.223,0,1,0.42,1.24,0,7.2,252.36,0.7168,-0.3007,0.6291,7.19,252.3,0,0,45.127,0,0,0,0,0,267.25,0,0,0,0,0,0,0,0,0,0,0,0,0,0,0,0,0,VALID,0,0,0,0,0,1,0,0,0,0,0,0,0,0,0,0,0,0,0,0,26.28,3265.53,6,0,1.11,0.5,51,0.9,1.14,1.11,41.85,FLYING
42.93,APPROACH,FLY_TO_FIX,190.98,159,-31.98,1298.91,0.8,7.29,7.06,251.08,-0.16,0,0,-19.9,1,0.6,4.5,1.964,0.35,0.0168,0.4,252.25,0.217,0,1,0.29,1.17,0,7.21,252.3,0.716,-0.3015,0.6297,7.27,252.25,0,0,44.901,0,0,0,0,0,267.25,0,0,0,0,0,0,0,0,0,0,0,0,0,0,0,0,0,VALID,0,0,0,0,0,1,0,0,0,0,0,0,0,0,0,0,0,0,0,0,29,3247.35,6,0,1.14,0.5,52,0.88,1.14,1.11,42.99,FLYING
44.04,APPROACH,FLY_TO_FIX,189.57,159,-30.57,1299.6,0.43,7.32,7.21,251.17,-0.167,0,0,-19.8,1,0.6,4.5,2.012,0.35,0.0168,0.4,252.2,0.213,0,1,0.17,1.03,0,7.29,252.25,0.715,-0.3023,0.6304,7.36,252.2,0,0,44.676,0,0,0,0,0,267.25,0,0,0,0,0,0,0,0,0,0,0,0,0,1,1,0,0,VALID,0,0,0,0,0,1,0,0,0,0,0,0,0,0,0,0,0,0,0,0,19.29,3228.88,6,0,1.11,0.5,53,0.88,1.14,1.11,44.13,FLYING
45.24,APPROACH,FLY_TO_FIX,188.02,159,-29.02,1300.14,0.46,7.35,7.22,251.32,-0.106,0,0,-19.701,1,0.6,4.5,2.06,0.35,0.0168,0.4,252.15,0.21,0,1,0.13,0.83,0,7.38,252.2,0.7145,-0.3031,0.6306,7.4,252.15,0,0,44.447,0,0,0,0,0,267.25,0,0,0,0,0,0,0,0,0,0,0,0,0,1,1,0,0,VALID,0,0,0,0,0,1,0,0,0,0,0,0,0,0,0,0,0,0,0,0,12.53,3208.69,6,0,1.2,0.5,54,0.85,1.2,1.11,45.3,FLYING
46.32,APPROACH,FLY_TO_FIX,186.49,159,-27.49,1300.86,0.86,7.4,7.16,251.4,-0.089,0,0,-19.603,1,0.6,4.5,2.108,0.35,0.0168,0.4,252.11,0.207,0,1,0.19,0.7,0,7.42,252.15,0.7142,-0.3038,0.6306,7.43,252.11,0,0,44.238,0,0,0,0,0,267.25,0,0,0,0,0,0,0,0,0,0,0,0,0,1,1,0,0,VALID,0,0,0,0,0,1,0,0,0,0,0,0,0,0,0,0,0,0,0,0,8.42,3188.75,6,0,1.08,0.5,55,0.93,1.2,1.08,46.38,FLYING
47.43,APPROACH,FLY_TO_FIX,184.79,159,-25.79,1301.92,1.33,7.42,6.81,251.47,-0.025,0,0,-19.505,1,0.6,4.5,2.157,0.35,0.0168,0.4,252.06,0.202,0,1,0.34,0.59,0,7.45,252.11,0.7172,-0.3048,0.6267,7.17,252.06,0,0,44.024,0,0,0,0,0,267.25,0,0,0,0,0,0,0,0,0,0,0,0,0,1,1,0,0,VALID,0,0,0,0,0,1,0,0,0,0,0,0,0,0,0,0,0,0,0,0,5.59,3166.43,6,0,1.11,0.5,56,0.9,1.11,1.08,47.49,FLYING
48.51,APPROACH,FLY_TO_FIX,183.2,159,-24.2,1303.12,1.26,7.08,6.45,251.51,0.085,0,0,-19.407,1,0.6,4.5,2.206,0.35,0.0168,0.4,252.02,0.196,0,1,0.44,0.51,0,7.19,252.06,0.7219,-0.3058,0.6207,6.75,252.02,0,0,43.819,0,0,0,0,0,267.25,0,0,0,0,0,0,0,0,0,0,0,0,0,1,1,0,0,VALID,0,0,0,0,0,1,0,0,0,0,0,0,0,0,0,0,0,0,0,0,3.75,3145.6,6,0,1.08,0.5,57,0.93,1.11,1.08,48.57,FLYING
49.59,APPROACH,FLY_TO_FIX,181.79,159,-22.79,1303.87,0.47,6.55,6.26,251.55,0.044,0,0,-19.31,1,0.6,4.5,2.251,0.35,0.0168,0.4,251.97,0.192,0,1,0.32,0.43,0,6.77,252.02,0.7263,-0.3068,0.6152,6.37,251.97,0,0,43.614,0,0,0,0,0,267.25,0,0,0,0,0,0,0,0,0,0,0,0,0,1,1,0,0,VALID,0,0,0,0,0,1,0,0,0,0,0,0,0,0,0,0,0,0,0,0,2.53,3126.95,6,0,1.08,0.5,58,0.93,1.08,1.08,49.65,FLYING
50.73,APPROACH,FLY_TO_FIX,180.32,159,-21.32,1303.9,-0.23,6.44,6.25,251.61,0.032,0,0,-19.214,1,0.6,4.5,2.293,0.35,0.0168,0.4,251.93,0.19,0,1,0.04,0.32,0,6.39,251.97,0.7246,-0.3074,0.6168,6.52,251.93,0,0,43.401,0,0,0,0,0,267.25,0,0,0,0,0,0,0,0,0,0,0,0,0,1,1,0,0,VALID,0,0,0,0,0,1,0,0,0,0,0,0,0,0,0,0,0,0,0,0,1.66,3107.77,6,0,1.14,0.5,59,0.88,1.14,1.08,50.79,FLYING
51.84,APPROACH,FLY_TO_FIX,179.07,159,-20.07,1303.34,-1.31,6.19,6.9,251.63,0.098,0,0,-19.118,1,0.6,4.5,2.33,0.35,0.0168,0.4,251.89,0.193,0,1,-0.24,0.26,0,6.54,251.93,0.7224,-0.308,0.6191,6.72,251.89,0,0,43.194,0,0,0,0,0,267.25,0,0,0,0,0,0,0,0,0,0,0,0,0,1,1,0,0,VALID,0,0,0,0,0,1,0,0,0,0,0,0,0,0,0,0,0,0,0,0,1.11,3091.47,6,0,1.11,0.5,60,0.9,1.14,1.11,51.9,FLYING
52.95,APPROACH,FLY_TO_FIX,177.21,159,-18.21,1303.33,-0.23,8.01,7.99,251.67,0.056,0,0,-19.022,1,0.6,4.5,2.371,0.35,0.0168,0.4,251.85,0.193,0,1,-0.23,0.17,0,6.74,251.89,0.7039,-0.3073,0.6404,8.36,251.85,0,0,42.989,0,0,0,0,0,267.25,0,0,0,0,0,0,0,0,0,0,0,0,0,1,1,0,0,VALID,0,0,0,0,0,1,0,0,0,0,0,0,0,0,0,0,0,0,0,0,0.74,3067.29,6,0,1.11,0.5,61,0.9,1.11,1.11,53.01,FLYING
54.06,APPROACH,FLY_TO_FIX,175.42,159,-16.42,1303.29,0.23,7.86,7.72,251.68,0.077,0,0,-18.927,1,0.6,4.5,2.415,0.35,0.0168,0.4,251.81,0.194,0,1,0.02,0.12,0,8.38,251.85,0.7082,-0.3083,0.6351,7.98,251.81,0,0,42.786,0,0,0,0,0,267.25,0,0,0,0,0,0,0,0,0,0,0,0,0,1,1,0,0,VALID,0,0,0,0,0,1,0,0,0,0,0,0,0,0,0,0,0,0,0,0,0.41,3043.88,6,0,1.11,0.5,62,0.9,1.11,1.11,54.12,FLYING
55.17,APPROACH,FLY_TO_FIX,173.74,159,-14.74,1303.77,0.37,7.86,7.94,251.66,0.038,0,0,-18.832,1,0.6,4.5,2.459,0.35,0.0168,0.4,251.76,0.192,0,1,0.08,0.11,0,8,251.81,0.7073,-0.309,0.6359,8.07,251.76,0,0,42.585,0,0,0,0,0,267.25,0,0,0,0,0,0,0,0,0,0,0,0,0,1,1,0,0,VALID,0,0,0,0,0,1,0,0,0,0,0,0,0,0,0,0,0,0,0,0,0.28,3021.85,6,0,1.11,0.5,63,0.9,1.11,1.11,55.23,FLYING
56.28,APPROACH,FLY_TO_FIX,171.99,159,-12.99,1304.27,0.5,8.02,7.86,251.64,0.005,0,0,-18.738,1,0.6,4.5,2.505,0.35,0.0168,0.4,251.72,0.189,0,1,0.16,0.08,0,8.09,251.76,0.7076,-0.3097,0.6352,8.05,251.72,0,0,42.386,0,0,0,0,0,267.25,0,0,0,0,0,0,0,0,0,0,0,0,0,1,1,0,0,VALID,0,0,0,0,0,1,0,0,0,0,0,0,0,0,0,0,0,0,0,0,0,2998.98,6,0,1.11,0.5,64,0.9,1.11,1.11,56.34,FLYING
57.39,APPROACH,FLY_TO_FIX,170.31,159,-11.31,1304.82,0.38,8.03,7.96,251.62,0.02,0.0129,0,-20,1,0.6,4.5,2.549,0.35,0.0168,0.4,251.68,0.187,0,1,0.15,0.06,0,8.07,251.72,0.7071,-0.3103,0.6354,8.09,251.68,0,0,42.189,0,0,0,0,0,267.25,0,0,0,0,0,0,0,0,0,0,0,0,0,1,1,0,0,VALID,0,0,0,0,0,1,0,0,0,0,0,0,0,0,0,0,0,0,0,0,0,2976.35,6,0,1.11,0.5,65,0.9,1.11,1.11,57.45,FLYING
58.5,APPROACH,FLY_TO_FIX,168.62,159,-9.62,1305.48,0.27,8.23,8.42,251.6,0.033,0.1347,0,-20,1,0.6,4.5,2.592,0.35,0.0168,0.4,251.64,0.184,0,1,0.08,0.04,0,8.11,251.68,0.7029,-0.3107,0.6399,8.46,251.64,0,0,41.994,0,0,0,0,0,267.25,0,0,0,0,0,0,0,0,0,0,0,0,0,1,1,0,0,VALID,0,0,0,0,0,1,0,0,0,0,0,0,0,0,0,0,0,0,0,0,7.43,2954.34,6,0,1.11,0.5,66,0.9,1.11,1.11,58.56,FLYING
59.61,APPROACH,FLY_TO_FIX,166.84,159,-7.84,1306.4,0.69,8.86,8.91,251.59,0.008,0.2777,0,-20,1,0.6,4.5,2.592,0.35,0.0168,0.4,251.6,0.179,0,1,0.17,0.01,0,8.48,251.64,0.6962,-0.3108,0.647,9.04,251.6,0,0,41.8,0,0,0,0,0,267.25,0,0,0,0,0,0,0,0,0,0,0,0,0,1,1,0,0,VALID,0,0,0,0,0,1,0,0,0,0,0,0,0,0,0,0,0,0,0,0,81.17,2931.8,6,0,1.11,0.5,67,0.9,1.11,1.11,59.67,FLYING
60.72,APPROACH,FLY_TO_FIX,165.28,159,-6.28,1307.27,1.05,9.06,8.57,251.56,0.001,0.38,0,-20,1,0.6,4.5,2.592,0.35,0.0168,0.4,251.56,0.175,0,1,0.33,0,0,9.06,251.6,0.6985,-0.3117,0.6442,8.85,251.56,0,0,41.609,0,0,0,0,0,267.25,0,0,0,0,0,0,0,0,0,0,0,0,0,1,1,0,0,VALID,0,0,0,0,0,1,0,0,0,0,0,0,0,0,0,0,0,0,0,0,223.9,2911.4,6,0,1.11,0.5,68,0.9,1.11,1.11,60.78,FLYING
61.83,APPROACH,FLY_TO_FIX,164.35,159,-5.35,1308.2,0.94,8.75,8.34,251.54,0.026,0.3535,0,-20,1,0.6,4.5,2.592,0.35,0.0168,0.4,251.52,0.17,0,1,0.35,0.02,0,8.87,251.56,0.7018,-0.3126,0.6402,8.57,251.52,0,0,41.419,0,0,0,0,0,267.25,0,0,0,0,0,0,0,0,0,0,0,0,0,1,1,0,0,VALID,0,0,0,0,0,1,0,0,0,0,0,0,0,0,0,0,0,0,0,0,396.97,2899.22,6,0,1.11,0.5,69,0.9,1.11,1.11,61.89,FLYING
62.94,APPROACH,FLY_TO_FIX,163.94,159,-4.94,1309.03,0.73,8.66,8.33,251.52,0.017,0.2316,0,-20,1,0.6,4.5,2.592,0.35,0.0168,0.4,251.48,0.166,0,1,0.27,0.04,0,8.59,251.52,0.7019,-0.3133,0.6397,8.56,251.48,0,0,41.229,0,0,0,0,0,267.25,0,0,0,0,0,0,0,0,0,0,0,0,0,1,1,0,0,VALID,0,0,0,0,0,1,0,0,0,0,0,0,0,0,0,0,0,0,0,0,521.72,2893.89,6,0,1.11,0.5,70,0.9,1.11,1.11,63,FLYING
64.05,APPROACH,FLY_TO_FIX,163.83,159,-4.83,1309.76,0.6,8.67,8.5,251.48,0.002,0.075,0,-20,1,0.6,4.5,2.592,0.35,0.0168,0.4,251.44,0.162,0,1,0.19,0.04,0,8.58,251.48,0.7005,-0.3139,0.6409,8.68,251.44,0,0,41.041,0,0,0,0,0,267.25,0,0,0,0,0,0,0,0,0,0,0,0,0,1,1,0,0,VALID,0,0,0,0,0,1,0,0,0,0,0,0,0,0,0,0,0,0,0,0,552.78,2892.34,6,0,1.11,0.5,71,0.9,1.11,1.11,64.11,FLYING
65.16,APPROACH,FLY_TO_FIX,163.62,159,-4.62,1310.22,0.46,8.54,8.35,251.42,0.017,0,0,-19.9,1,0.6,4.5,2.567,0.35,0.0168,0.4,251.4,0.159,0,1,0.19,0.02,0,8.7,251.44,0.7024,-0.3147,0.6384,8.52,251.4,0,0,40.852,0,0,0,0,0,267.25,0,0,0,0,0,0,0,0,0,0,0,0,0,1,1,0,0,VALID,0,0,0,0,0,1,0,0,0,0,0,0,0,0,0,0,0,0,0,0,441.25,2889.4,6,0,1.11,0.5,72,0.9,1.11,1.11,65.22,FLYING
66.27,APPROACH,FLY_TO_FIX,163.11,159,-4.11,1310.48,-0.03,8.35,8.45,251.36,0.007,0,0,-19.8,1,0.6,4.5,2.536,0.35,0.0168,0.4,251.35,0.158,0,1,0.09,0,0,8.54,251.4,0.7032,-0.3155,0.6371,8.45,251.35,0,0,40.664,0,0,0,0,0,267.25,0,0,0,0,0,0,0,0,0,0,0,0,0,1,1,0,0,VALID,0,0,0,0,0,1,0,0,0,0,0,0,0,0,0,0,0,0,0,0,295.63,2882.71,6,0,1.11,0.5,73,0.9,1.11,1.11,66.33,FLYING
67.38,APPROACH,FLY_TO_FIX,162.13,159,-3.13,1310.98,-0.03,9.02,9.3,251.31,-0.004,0.0222,0,-20,1,0.6,4.5,2.508,0.35,0.0168,0.4,251.31,0.156,0,1,-0.04,0,0,8.47,251.35,0.6931,-0.3153,0.6482,9.33,251.31,0,0,40.476,0,0,0,0,0,267.25,0,0,0,0,0,0,0,0,0,0,0,0,0,1,1,0,0,VALID,0,0,0,0,0,1,0,0,0,0,0,0,0,0,0,0,0,0,0,0,196.71,2869.97,6,0,1.11,0.5,74,0.9,1.11,1.11,67.44,FLYING
68.49,APPROACH,FLY_TO_FIX,160.64,159,-1.64,1311.31,0.46,9.53,9.25,251.27,-0.008,0.207,0,-20,1,0.6,4.5,2.492,0.35,0.0168,0.4,251.27,0.154,0,1,0.11,0,0,9.34,251.31,0.6915,-0.3159,0.6496,9.46,251.27,0,0,40.29,0,0,0,0,0,267.25,0,0,0,0,0,0,0,0,0,0,0,0,0,1,1,0,0,VALID,0,0,0,0,0,1,0,0,0,0,0,0,0,0,0,0,0,0,0,0,151.29,2851.17,6,0,1.11,0.5,75,0.9,1.11,1.11,68.55,FLYING
69.6,APPROACH,FLY_TO_FIX,159.34,159,-0.34,1311.57,0.34,9.15,8.92,251.25,0.016,0.3609,0,-20,1,0.6,4.5,2.492,0.35,0.0168,0.4,251.23,0.152,0,1,0.17,0.02,0,9.48,251.27,0.6959,-0.317,0.6444,9.09,251.23,0,0,40.105,0,0,0,0,0,267.25,0,0,0,0,0,0,0,0,0,0,0,0,0,1,1,0,0,VALID,0,0,0,0,0,1,0,0,0,0,0,0,0,0,0,0,0,0,0,0,232.5,2834.27,6,0,1.11,0.5,76,0.9,1.11,1.11,69.66,FLYING
70.71,APPROACH,FLY_TO_FIX,158.44,159,0.56,1311.85,0.02,9.04,9.17,251.23,-0.032,0.4147,0,-19.75,1,0.6,4.5,2.492,0.35,0.0168,0.4,251.19,0.151,0,1,0.05,0.04,0,9.11,251.23,0.6945,-0.3176,0.6456,9.21,251.19,0,0,39.922,0,0,0,0,0,267.25,0,0,0,0,0,0,0,0,0,0,0,0,0,1,1,0,0,VALID,0,0,0,0,0,1,0,0,0,0,0,0,0,0,0,0,0,0,0,0,386.61,2822.77,6,0,1.11,0.5,77,0.9,1.11,1.11,70.77,FLYING
71.82,APPROACH,FLY_TO_FIX,157.91,159,1.09,1312.12,0.15,9.42,9.47,251.2,-0.017,0.3981,0,-19.223,1,0.6,4.5,2.492,0.35,0.0168,0.4,251.14,0.15,0,1,0,0.06,0,9.23,251.19,0.6897,-0.3178,0.6506,9.62,251.14,0,0,39.74,0,0,0,0,0,267.25,0,0,0,0,0,0,0,0,0,0,0,0,0,1,1,0,0,VALID,0,0,0,0,0,1,0,0,0,0,0,0,0,0,0,0,0,0,0,0,541.04,2815.94,6,0,1.11,0.5,78,0.9,1.11,1.11,71.88,FLYING
72.93,APPROACH,FLY_TO_FIX,157.73,159,1.27,1312.43,0.36,9.53,9.43,251.16,0.009,0.3249,0,-18.586,1,0.6,4.5,2.492,0.35,0.0168,0.4,251.1,0.148,0,1,0.09,0.06,0,9.64,251.14,0.6903,-0.3186,0.6496,9.57,251.1,0,0,39.558,0,0,0,0,0,267.25,0,0,0,0,0,0,0,0,0,0,0,0,0,1,1,0,0,VALID,0,0,0,0,0,1,0,0,0,0,0,0,0,0,0,0,0,0,0,0,656.49,2813.6,6,0,1.11,0.5,79,0.9,1.11,1.11,72.99,FLYING
74.04,APPROACH,FLY_TO_FIX,157.82,159,1.18,1312.99,0.62,9.59,9.4,251.11,0.011,0.2085,0,-17.99,1,0.6,4.5,2.492,0.35,0.0168,0.4,251.06,0.146,0,1,0.17,0.06,0,9.59,251.1,0.6903,-0.3193,0.6492,9.58,251.06,0,0,39.376,0,0,0,0,0,267.25,0,0,0,0,0,0,0,0,0,0,0,0,0,1,1,0,0,VALID,0,0,0,0,0,1,0,0,0,0,0,0,0,0,0,0,0,0,0,0,709.19,2814.74,6,0,1.11,0.5,80,0.9,1.11,1.11,74.1,FLYING
75.15,APPROACH,FLY_TO_FIX,157.97,159,1.03,1313.7,0.74,9.5,9.28,251.07,0.007,0.0994,0,-17.471,1,0.6,4.5,2.492,0.35,0.0168,0.4,251.01,0.142,0,1,0.25,0.05,0,9.59,251.06,0.6921,-0.3202,0.6469,9.42,251.01,0,0,39.194,0,0,0,0,0,267.25,0,0,0,0,0,0,0,0,0,0,0,0,0,1,1,0,0,VALID,0,0,0,0,0,1,0,0,0,0,0,0,0,0,0,0,0,0,0,0,670.76,2816.6,6,0,1.11,0.5,81,0.9,1.11,1.11,75.21,FLYING
76.26,APPROACH,FLY_TO_FIX,157.92,159,1.08,1314.58,0.79,9.56,9.29,251.01,0.018,0.0503,0,-16.938,1,0.6,4.5,2.492,0.35,0.0168,0.4,250.97,0.138,0,1,0.28,0.04,0,9.44,251.01,0.6921,-0.321,0.6465,9.42,250.97,0,0,39.012,0,0,0,0,0,267.25,0,0,0,0,0,0,0,0,0,0,0,0,0,1,1,0,0,VALID,0,0,0,0,0,1,0,0,0,0,0,0,0,0,0,0,0,0,0,0,543.15,2815.84,6,0,1.11,0.5,82,0.9,1.11,1.11,76.32,FLYING
77.37,APPROACH,FLY_TO_FIX,157.47,159,1.53,1315.35,0.71,9.47,9.15,250.93,-0.005,0.0954,0,-16.202,1,0.6,4.5,2.426,0.35,0.0168,0.4,250.92,0.134,0,1,0.3,0.01,0,9.44,250.97,0.6936,-0.3218,0.6444,9.29,250.92,0,0,38.831,0,0,0,0,0,267.25,0,0,0,0,0,0,0,0,0,0,0,0,0,1,1,0,0,VALID,0,0,0,0,0,1,0,0,0,0,0,0,0,0,0,0,0,0,0,0,407.14,2810.08,6,0,1.11,0.5,83,0.9,1.11,1.11,77.43,FLYING
78.48,APPROACH,FLY_TO_FIX,156.81,159,2.19,1316.04,0.52,9.49,9.3,250.89,-0.03,0.1985,0,-15.138,1,0.6,4.5,2.426,0.35,0.0168,0.4,250.88,0.13,0,1,0.2,0.02,0,9.31,250.92,0.6919,-0.3224,0.646,9.44,250.88,0,0,38.65,0,0,0,0,0,267.25,0,0,0,0,0,0,0,0,0,0,0,0,0,1,1,0,0,VALID,0,0,0,0,0,1,0,0,0,0,0,0,0,0,0,0,0,0,0,0,360.15,2801.52,6,0,1.11,0.5,84,0.9,1.11,1.11,78.54,FLYING
79.59,APPROACH,FLY_TO_FIX,156.09,159,2.91,1316.47,0.24,9.44,9.45,250.86,-0.029,0.314,0,-13.711,1,0.6,4.5,2.426,0.35,0.0168,0.4,250.83,0.128,0,1,0.11,0.03,0,9.46,250.88,0.6911,-0.3231,0.6465,9.51,250.83,0,0,38.47,0,0,0,0,0,267.25,0,0,0,0,0,0,0,0,0,0,0,0,0,1,1,0,0,VALID,0,0,0,0,0,1,0,0,0,0,0,0,0,0,0,0,0,0,0,0,396.21,2792.33,6,0,1.11,0.5,85,0.9,1.11,1.11,79.65,FLYING
80.7,APPROACH,FLY_TO_FIX,155.5,159,3.5,1316.63,0.13,9.51,9.39,250.82,0.013,0.4036,0,-11.976,1,0.6,4.5,2.426,0.35,0.0168,0.4,250.79,0.127,0,1,0.09,0.04,0,9.52,250.83,0.6911,-0.3239,0.6461,9.51,250.79,0,0,38.29,0,0,0,0,0,267.25,0,0,0,0,0,0,0,0,0,0,0,0,0,1,1,0,0,VALID,0,0,0,0,0,1,0,0,0,0,0,0,0,0,0,0,0,0,0,0,489.27,2784.73,6,0,1.11,0.5,86,0.9,1.11,1.11,80.76,FLYING
81.81,APPROACH,FLY_TO_FIX,155.26,159,3.74,1316.78,-0.02,9.49,9.58,250.8,-0.005,0.4171,0,-10.111,1,0.6,4.5,2.426,0.35,0.0168,0.4,250.74,0.126,0,1,0.01,0.06,0,9.52,250.79,0.6895,-0.3246,0.6475,9.64,250.74,0,0,38.111,0,0,0,0,0,267.25,0,0,0,0,0,0,0,0,0,0,0,0,0,1,1,0,0,VALID,0,0,0,0,0,1,0,0,0,0,0,0,0,0,0,0,0,0,0,0,614.09,2781.75,6,0,1.11,0.5,87,0.9,1.11,1.11,81.87,FLYING
82.92,APPROACH,FLY_TO_FIX,155.31,159,3.69,1316.92,0.1,9.66,9.67,250.75,0.027,0.378,0,-8.259,1,0.6,4.5,2.426,0.35,0.0168,0.4,250.69,0.126,0,1,0.02,0.06,0,9.66,250.74,0.688,-0.3252,0.6488,9.77,250.69,0,0,37.933,0,0,0,0,0,267.25,0,0,0,0,0,0,0,0,0,0,0,0,0,1,1,0,0,VALID,0,0,0,0,0,1,0,0,0,0,0,0,0,0,0,0,0,0,0,0,723.09,2782.34,6,0,1.11,0.5,88,0.9,1.11,1.11,82.98,FLYING
84.03,APPROACH,FLY_TO_FIX,155.6,159,3.4,1317.26,0.35,9.78,9.72,250.7,0.023,0.2982,0,-6.542,1,0.6,4.5,2.426,0.35,0.0168,0.4,250.64,0.124,0,1,0.08,0.06,0,9.79,250.69,0.6873,-0.326,0.6491,9.83,250.64,0,0,37.754,0,0,0,0,0,267.25,0,0,0,0,0,0,0,0,0,0,0,0,0,1,1,0,0,VALID,0,0,0,0,0,1,0,0,0,0,0,0,0,0,0,0,0,0,0,0,790.22,2785.97,6,0,1.11,0.5,89,0.9,1.11,1.11,84.09,FLYING
85.14,APPROACH,FLY_TO_FIX,155.97,159,3.03,1318.02,0.74,10.05,9.89,250.64,0.002,0.211,0,-5.014,1,0.6,4.5,2.426,0.35,0.0168,0.4,250.59,0.121,0,1,0.17,0.05,0,9.84,250.64,0.6851,-0.3266,0.6511,10.01,250.59,0,0,37.575,0,0,0,0,0,267.25,0,0,0,0,0,0,0,0,0,0,0,0,0,1,1,0,0,VALID,0,0,0,0,0,1,0,0,0,0,0,0,0,0,0,0,0,0,0,0,800.75,2790.74,6,0,1.11,0.5,90,0.9,1.11,1.11,85.2,FLYING
86.25,APPROACH,FLY_TO_FIX,156.23,159,2.77,1319.03,1.14,10.06,9.68,250.59,0.007,0.1612,0,-3.622,1,0.6,4.5,2.426,0.35,0.0168,0.4,250.54,0.116,0,1,0.35,0.06,0,10.03,250.59,0.6871,-0.3277,0.6484,9.83,250.54,0,0,37.395,0,0,0,0,0,267.25,0,0,0,0,0,0,0,0,0,0,0,0,0,1,1,0,0,VALID,0,0,0,0,0,1,0,0,0,0,0,0,0,0,0,0,0,0,0,0,732.9,2793.98,6,0,1.11,0.5,91,0.9,1.11,1.11,86.31,FLYING
87.36,APPROACH,FLY_TO_FIX,156.31,159,2.69,1320.2,1.25,9.92,9.37,250.52,0.019,0.1597,0,-2.274,1,0.6,4.5,2.426,0.35,0.0168,0.4,250.49,0.11,0,1,0.46,0.03,0,9.85,250.54,0.6904,-0.3288,0.6444,9.55,250.49,0,0,37.216,0,0,0,0,0,267.25,0,0,0,0,0,0,0,0,0,0,0,0,0,1,1,0,0,VALID,0,0,0,0,0,1,0,0,0,0,0,0,0,0,0,0,0,0,0,0,640.39,2794.81,6,0,1.11,0.5,92,0.9,1.11,1.11,87.42,FLYING
88.47,APPROACH,FLY_TO_FIX,156.2,159,2.8,1321.34,1.2,9.78,9.15,250.46,0.005,0.199,0,-0.884,1,0.6,4.5,2.426,0.35,0.0168,0.4,250.43,0.104,0,1,0.44,0.03,0,9.57,250.49,0.6919,-0.3298,0.6422,9.41,250.43,0,0,37.036,0,0,0,0,0,267.25,0,0,0,0,0,0,0,0,0,0,0,0,0,1,1,0,0,VALID,0,0,0,0,0,1,0,0,0,0,0,0,0,0,0,0,0,0,0,0,575.82,2793.34,6,0,1.11,0.5,93,0.9,1.11,1.11,88.53,FLYING
89.58,APPROACH,FLY_TO_FIX,156.09,159,2.91,1322.17,0.77,9.3,8.93,250.42,-0.008,0.2439,0,0.564,1,0.6,4.5,2.426,0.35,0.0168,0.4,250.38,0.1,0,1,0.33,0.04,0,9.43,250.43,0.6956,-0.3311,0.6375,9.09,250.38,0,0,36.857,0,0,0,0,0,267.25,0,0,0,0,0,0,0,0,0,0,0,0,0,1,1,0,0,VALID,0,0,0,0,0,1,0,0,0,0,0,0,0,0,0,0,0,0,0,0,568.18,2791.84,6,0,1.11,0.5,94,0.9,1.11,1.11,89.64,FLYING
90.69,APPROACH,FLY_TO_FIX,156.11,159,2.89,1322.61,0.1,9.03,9.11,250.39,-0.008,0.2626,0,2.014,1,0.6,4.5,2.426,0.35,0.0168,0.4,250.32,0.098,0,1,0.14,0.06,0,9.1,250.38,0.6959,-0.332,0.6367,9.06,250.32,0,0,36.678,0,0,0,0,0,267.25,0,0,0,0,0,0,0,0,0,0,0,0,0,1,1,0,0,VALID,0,0,0,0,0,1,0,0,0,0,0,0,0,0,0,0,0,0,0,0,590.06,2791.96,6,0,1.11,0.5,95,0.9,1.11,1.11,90.75,FLYING
91.8,APPROACH,FLY_TO_FIX,156.09,159,2.91,1322.7,-0.07,9.3,9.25,250.32,0.03,0.2854,0,3.472,1,0.6,4.5,2.426,0.35,0.0168,0.4,250.26,0.096,0,1,0.03,0.06,0,9.07,250.32,0.6927,-0.3327,0.6399,9.33,250.26,0,0,36.498,0,0,0,0,0,267.25,0,0,0,0,0,0,0,0,0,0,0,0,0,1,1,0,0,VALID,0,0,0,0,0,1,0,0,0,0,0,0,0,0,0,0,0,0,0,0,618.33,2791.74,6,0,1.11,0.5,96,0.9,1.11,1.11,91.86,FLYING
92.91,APPROACH,FLY_TO_FIX,156.18,159,2.82,1322.63,-0.17,9.31,9.4,250.26,-0.009,0.2868,0,4.888,1,0.6,4.5,2.426,0.35,0.0168,0.4,250.21,0.097,0,1,-0.05,0.05,0,9.35,250.26,0.691,-0.3335,0.6413,9.47,250.21,0,0,36.319,0,0,0,0,0,267.25,0,0,0,0,0,0,0,0,0,0,0,0,0,1,1,0,0,VALID,0,0,0,0,0,1,0,0,0,0,0,0,0,0,0,0,0,0,0,0,653.88,2792.87,6,0,1.11,0.5,97,0.9,1.11,1.11,92.97,FLYING
94.02,APPROACH,FLY_TO_FIX,156.33,159,2.67,1322.66,-0.13,9.46,9.71,250.21,-0.007,0.2776,0,6.231,1,0.6,4.5,2.426,0.35,0.0168,0.4,250.14,0.097,0,1,-0.08,0.07,0,9.49,250.21,0.6883,-0.3343,0.6438,9.7,250.14,0,0,36.14,0,0,0,0,0,267.25,0,0,0,0,0,0,0,0,0,0,0,0,0,1,1,0,0,VALID,0,0,0,0,0,1,0,0,0,0,0,0,0,0,0,0,0,0,0,0,683.71,2794.81,6,0,1.11,0.5,98,0.9,1.11,1.11,94.08,FLYING
95.13,APPROACH,FLY_TO_FIX,156.42,159,2.58,1322.72,0.22,9.7,9.58,250.15,0.011,0.2824,0,7.527,1,0.6,4.5,2.426,0.35,0.0168,0.4,250.08,0.097,0,1,0.04,0.07,0,9.71,250.14,0.688,-0.3353,0.6436,9.71,250.08,0,0,35.961,0,0,0,0,0,267.25,0,0,0,0,0,0,0,0,0,0,0,0,0,1,1,0,0,VALID,0,0,0,0,0,1,0,0,0,0,0,0,0,0,0,0,0,0,0,0,702.53,2796.03,6,0,1.11,0.5,99,0.9,1.11,1.11,95.19,FLYING
96.24,APPROACH,FLY_TO_FIX,156.61,159,2.39,1323.03,0.4,9.62,9.47,250.08,-0.024,0.2687,0,8.729,1,0.6,4.5,2.426,0.35,0.0168,0.4,250.02,0.095,0,1,0.12,0.06,0,9.73,250.08,0.6892,-0.3365,0.6417,9.6,250.02,0,0,35.781,0,0,0,0,0,267.25,0,0,0,0,0,0,0,0,0,0,0,0,0,1,1,0,0,VALID,0,0,0,0,0,1,0,0,0,0,0,0,0,0,0,0,0,0,0,0,720.46,2798.42,6,0,1.11,0.5,100,0.9,1.11,1.11,96.3,FLYING
97.35,APPROACH,FLY_TO_FIX,156.86,159,2.14,1323.61,0.57,9.67,9.56,250.02,0.005,0.2432,0,9.806,1,0.6,4.5,2.426,0.35,0.0168,0.4,249.95,0.093,0,1,0.14,0.07,0,9.62,250.02,0.6883,-0.3376,0.6421,9.67,249.95,0,0,35.602,0,0,0,0,0,267.25,0,0,0,0,0,0,0,0,0,0,0,0,0,1,1,0,0,VALID,0,0,0,0,0,1,0,0,0,0,0,0,0,0,0,0,0,0,0,0,727.74,2801.57,6,0,1.11,0.5,101,0.9,1.11,1.11,97.41,FLYING
98.46,APPROACH,FLY_TO_FIX,157.06,159,1.94,1324.2,0.71,9.64,9.27,249.95,0.028,0.233,0,10.785,1,0.6,4.5,2.426,0.35,0.0168,0.4,249.88,0.09,0,1,0.27,0.07,0,9.68,249.95,0.691,-0.339,0.6385,9.42,249.88,0,0,35.422,0,0,0,0,0,267.25,0,0,0,0,0,0,0,0,0,0,0,0,0,1,1,0,0,VALID,0,0,0,0,0,1,0,0,0,0,0,0,0,0,0,0,0,0,0,0,713.44,2804.09,6,0,1.11,0.5,102,0.9,1.11,1.11,98.52,FLYING
99.57,APPROACH,FLY_TO_FIX,157.31,159,1.69,1324.95,0.64,9.5,9.28,249.88,0.016,0.2124,0,11.64,1,0.6,4.5,2.426,0.35,0.0168,0.4,249.81,0.086,0,1,0.25,0.07,0,9.44,249.88,0.6918,-0.3402,0.6369,9.33,249.81,0,0,35.242,0,0,0,0,0,267.25,0,0,0,0,0,0,0,0,0,0,0,0,0,1,1,0,0,VALID,0,0,0,0,0,1,0,0,0,0,0,0,0,0,0,0,0,0,0,0,694.48,2807.18,6,0,1.11,0.5,103,0.9,1.11,1.11,99.63,FLYING
100.68,APPROACH,FLY_TO_FIX,157.44,159,1.56,1325.7,0.76,9.64,9.22,249.8,0.022,0.2171,0,12.426,1,0.6,4.5,2.426,0.35,0.0168,0.4,249.73,0.082,0,1,0.26,0.07,0,9.35,249.81,0.6909,-0.3414,0.6373,9.4,249.73,0,0,35.062,0,0,0,0,0,267.25,0,0,0,0,0,0,0,0,0,0,0,0,0,1,1,0,0,VALID,0,0,0,0,0,1,0,0,0,0,0,0,0,0,0,0,0,0,0,0,662.63,2808.73,6,0,1.11,0.5,104,0.9,1.11,1.11,100.74,FLYING
101.79,APPROACH,FLY_TO_FIX,157.56,159,1.44,1326.3,0.63,9.31,9.02,249.72,-0.009,0.2245,0,13.152,1,0.6,4.5,2.426,0.35,0.0168,0.4,249.65,0.079,0,1,0.25,0.07,0,9.42,249.73,0.6938,-0.343,0.6333,9.13,249.65,0,0,34.882,0,0,0,0,0,267.25,0,0,0,0,0,0,0,0,0,0,0,0,0,1,1,0,0,VALID,0,0,0,0,0,1,0,0,0,0,0,0,0,0,0,0,0,0,0,0,645.38,2810.19,6,0,1.11,0.5,105,0.9,1.11,1.11,101.85,FLYING
102.9,APPROACH,FLY_TO_FIX,157.7,159,1.3,1326.63,0.33,9.04,8.81,249.65,0.019,0.2264,0,13.81,1,0.6,4.5,2.426,0.35,0.0168,0.4,249.57,0.077,0,1,0.17,0.08,0,9.15,249.65,0.6959,-0.3445,0.6301,8.93,249.57,0,0,34.701,0,0,0,0,0,267.25,0,0,0,0,0,0,0,0,0,0,0,0,0,1,1,0,0,VALID,0,0,0,0,0,1,0,0,0,0,0,0,0,0,0,0,0,0,0,0,640.82,2811.93,6,0,1.11,0.5,106,0.9,1.11,1.11,102.96,FLYING
104.01,APPROACH,FLY_TO_FIX,157.9,159,1.1,1326.72,-0.09,8.85,8.86,249.57,0.018,0.2152,0,14.372,1,0.6,4.5,2.426,0.35,0.0168,0.4,249.48,0.076,0,1,0.05,0.09,0,8.95,249.57,0.6963,-0.346,0.6289,8.88,249.48,0,0,34.521,0,0,0,0,0,267.25,0,0,0,0,0,0,0,0,0,0,0,0,0,1,1,0,0,VALID,0,0,0,0,0,1,0,0,0,0,0,0,0,0,0,0,0,0,0,0,639.97,2814.42,6,0,1.11,0.5,107,0.9,1.11,1.11,104.07,FLYING
105.12,APPROACH,FLY_TO_FIX,158.06,159,0.94,1326.89,-0.22,9.11,9.49,249.48,-0.025,0.2051,0,14.841,1,0.6,4.5,2.426,0.35,0.0168,0.4,249.39,0.076,0,1,-0.1,0.09,0,8.89,249.48,0.6897,-0.3469,0.6355,9.42,249.39,0,0,34.34,0,0,0,0,0,267.25,0,0,0,0,0,0,0,0,0,0,0,0,0,1,1,0,0,VALID,0,0,0,0,0,1,0,0,0,0,0,0,0,0,0,0,0,0,0,0,629.31,2816.57,6,0,1.11,0.5,108,0.9,1.11,1.11,105.18,FLYING
106.23,APPROACH,FLY_TO_FIX,157.99,159,1.01,1326.91,0.09,9.46,9.43,249.4,0.038,0.2505,0,15.346,1,0.6,4.5,2.426,0.35,0.0168,0.4,249.29,0.076,0,1,0.01,0.1,0,9.44,249.39,0.6887,-0.3484,0.6359,9.49,249.29,0,0,34.16,0,0,0,0,0,267.25,0,0,0,0,0,0,0,0,0,0,0,0,0,1,1,0,0,VALID,0,0,0,0,0,1,0,0,0,0,0,0,0,0,0,0,0,0,0,0,612.19,2815.66,6,0,1.11,0.5,109,0.9,1.11,1.11,106.29,FLYING
107.34,APPROACH,FLY_TO_FIX,157.92,159,1.08,1327.16,0.31,9.52,9.37,249.31,0.016,0.2884,0,15.882,1,0.6,4.5,2.426,0.35,0.0168,0.4,249.19,0.075,0,1,0.08,0.11,0,9.51,249.29,0.6885,-0.3501,0.6352,9.48,249.19,0,0,33.979,0,0,0,0,0,267.25,0,0,0,0,0,0,0,0,0,0,0,0,0,1,1,0,0,VALID,0,0,0,0,0,1,0,0,0,0,0,0,0,0,0,0,0,0,0,0,629.87,2814.83,6,0,1.11,0.5,110,0.9,1.11,1.11,107.4,FLYING
108.45,APPROACH,FLY_TO_FIX,157.94,159,1.06,1327.64,0.52,9.59,9.37,249.2,-0.004,0.3064,0,16.415,1,0.6,4.5,2.426,0.35,0.0168,0.4,249.08,0.072,0,1,0.14,0.11,0,9.5,249.19,0.6879,-0.3519,0.6348,9.5,249.08,0,0,33.799,0,0,0,0,0,267.25,0,0,0,0,0,0,0,0,0,0,0,0,0,1,1,0,0,VALID,0,0,0,0,0,1,0,0,0,0,0,0,0,0,0,0,0,0,0,0,665.71,2814.97,6,0,1.11,0.5,111,0.9,1.11,1.11,108.51,FLYING
109.56,APPROACH,FLY_TO_FIX,158.08,159,0.92,1328.37,0.65,9.63,9.5,249.09,-0.013,0.2946,0,16.88,1,0.6,4.5,2.426,0.35,0.0168,0.4,248.97,0.069,0,1,0.18,0.13,0,9.51,249.08,0.6869,-0.3537,0.6349,9.55,248.97,0,0,33.619,0,0,0,0,0,267.25,0,0,0,0,0,0,0,0,0,0,0,0,0,1,1,0,0,VALID,0,0,0,0,0,1,0,0,0,0,0,0,0,0,0,0,0,0,0,0,705.22,2816.78,6,0,1.11,0.5,112,0.9,1.11,1.11,109.62,FLYING
110.67,APPROACH,FLY_TO_FIX,158.24,159,0.76,1329.15,1.01,9.69,9.18,248.98,0.046,0.2805,0,17.27,1,0.6,4.5,2.426,0.35,0.0168,0.4,248.84,0.065,0,1,0.31,0.13,0,9.57,248.97,0.6884,-0.3559,0.632,9.38,248.84,0,0,33.438,0,0,0,0,0,267.25,0,0,0,0,0,0,0,0,0,0,0,0,0,1,1,0,0,VALID,0,0,0,0,0,1,0,0,0,0,0,0,0,0,0,0,0,0,0,0,730.73,2818.69,6,0,1.11,0.5,113,0.9,1.11,1.11,110.73,FLYING
111.78,APPROACH,FLY_TO_FIX,158.54,159,0.46,1329.96,1,9.33,8.78,248.86,0.04,0.2345,0,17.51,1,0.6,4.5,2.426,0.35,0.0168,0.4,248.71,0.061,0,1,0.34,0.15,0,9.4,248.84,0.692,-0.3584,0.6266,9.03,248.71,0,0,33.258,0,0,0,0,0,267.25,0,0,0,0,0,0,0,0,0,0,0,0,0,1,1,0,0,VALID,0,0,0,0,0,1,0,0,0,0,0,0,0,0,0,0,0,0,0,0,743.87,2822.45,6,0,1.11,0.5,114,0.9,1.11,1.11,111.84,FLYING
112.89,APPROACH,FLY_TO_FIX,159,159,0,1330.57,0.58,8.84,8.6,248.73,0.023,0.1596,0,17.526,1,0.6,4.5,2.426,0.35,0.0168,0.4,248.56,0.058,0,1,0.25,0.17,0,9.04,248.71,0.6953,-0.3612,0.6214,8.68,248.56,0,0,33.077,0,0,0,0,0,267.25,0,0,0,0,0,0,0,0,0,0,0,0,0,1,1,0,0,VALID,0,0,0,0,0,1,0,0,0,0,0,0,0,0,0,0,0,0,0,0,718.85,2828.23,6,0,1.11,0.5,115,0.9,1.11,1.11,112.95,FLYING
114,APPROACH,FLY_TO_FIX,159.37,159,-0.37,1331.09,0.07,8.77,9.01,248.58,-0.011,0.1035,0,17.351,1,0.6,4.5,2.426,0.35,0.0168,0.4,248.4,0.055,0,1,0.09,0.18,0,8.7,248.56,0.6926,-0.3636,0.6231,8.87,248.4,0,0,32.895,0,0,0,0,0,267.25,0,0,0,0,0,0,0,0,0,0,0,0,0,1,1,0,0,VALID,0,0,0,0,0,1,0,0,0,0,0,0,0,0,0,0,0,0,0,0,632.59,2832.99,6,0,1.11,0.5,116,0.9,1.11,1.11,114.06,FLYING
115.11,APPROACH,FLY_TO_FIX,159.28,159,-0.28,1331.34,0.22,9.26,9.06,248.42,0.019,0.1447,0,17.202,1,0.6,4.5,2.426,0.35,0.0168,0.4,248.22,0.053,0,1,0.07,0.19,0,8.89,248.4,0.6885,-0.3661,0.626,9.16,248.22,0,0,32.714,0,0,0,0,0,267.25,0,0,0,0,0,0,0,0,0,0,0,0,0,1,1,0,0,VALID,0,0,0,0,0,1,0,0,0,0,0,0,0,0,0,0,0,0,0,0,520.86,2831.84,6,0,1.11,0.5,117,0.9,1.11,1.11,115.17,FLYING
116.22,APPROACH,FLY_TO_FIX,159,159,0,1331.55,0.16,9.1,9.11,248.23,-0.014,0.2257,0,17.188,1,0.6,4.5,2.426,0.35,0.0168,0.4,248.03,0.053,0,1,0.05,0.2,0,9.18,248.22,0.6878,-0.3693,0.625,9.15,248.03,0,0,32.533,0,0,0,0,0,267.25,0,0,0,0,0,0,0,0,0,0,0,0,0,1,1,0,0,VALID,0,0,0,0,0,1,0,0,0,0,0,0,0,0,0,0,0,0,0,0,482.66,2828.19,6,0,1.11,0.5,118,0.9,1.11,1.11,116.28,FLYING
117.33,APPROACH,FLY_TO_FIX,158.66,159,0.34,1331.49,0,8.98,8.88,248.05,0.045,0.3148,0,17.35,1,0.6,4.5,2.426,0.35,0.0168,0.4,247.81,0.052,0,1,0.05,0.24,0,9.17,248.03,0.6893,-0.373,0.6211,8.93,247.81,0,0,32.352,0,0,0,0,0,267.25,0,0,0,0,0,0,0,0,0,0,0,0,0,1,1,0,0,VALID,0,0,0,0,0,1,0,0,0,0,0,0,0,0,0,0,0,0,0,0,511.53,2823.78,6,0,1.11,0.5,119,0.9,1.11,1.11,117.39,FLYING
118.44,APPROACH,FLY_TO_FIX,158.55,159,0.45,1331.56,-0.23,8.92,9.29,247.87,-0.013,0.3443,0,17.574,1,0.6,4.5,2.426,0.35,0.0168,0.4,247.56,0.053,0,1,-0.06,0.3,0,8.95,247.81,0.6857,-0.3767,0.6228,9.14,247.56,0,0,32.172,0,0,0,0,0,267.25,0,0,0,0,0,0,0,0,0,0,0,0,0,1,1,0,0,VALID,0,0,0,0,0,1,0,0,0,0,0,0,0,0,0,0,0,0,0,0,585.35,2822.42,6,0,1.11,0.5,120,0.9,1.11,1.11,118.5,FLYING
119.55,APPROACH,FLY_TO_FIX,158.48,159,0.52,1331.46,-0.03,9.26,9.16,247.69,0.032,0.362,0,17.838,1,0.6,4.5,2.426,0.35,0.0168,0.4,247.28,0.053,0,1,0,0.41,0,9.16,247.56,0.6833,-0.3811,0.6228,9.24,247.28,0,0,31.991,0,0,0,0,0,267.25,0,0,0,0,0,0,0,0,0,0,0,0,0,1,1,0,0,VALID,0,0,0,0,0,1,0,0,0,0,0,0,0,0,0,0,0,0,0,0,661.88,2821.54,6,0,1.11,0.5,121,0.9,1.11,1.11,119.61,FLYING
120.66,APPROACH,FLY_TO_FIX,158.66,159,0.34,1331.51,0.16,9.32,9.08,247.45,0.014,0.3251,0,18.019,1,0.6,4.5,2.426,0.35,0.0168,0.4,246.95,0.052,0,1,0.01,0.5,0,9.25,247.28,0.6814,-0.3863,0.6217,9.26,246.95,0,0,31.811,0,0,0,0,0,267.25,0,0,0,0,0,0,0,0,0,0,0,0,0,1,1,0,0,VALID,0,0,0,0,0,1,0,0,0,0,0,0,0,0,0,0,0,0,0,0,733.98,2823.75,6,0,1.11,0.5,122,0.9,1.11,1.11,120.72,FLYING
121.77,APPROACH,FLY_TO_FIX,159.07,159,-0.07,1331.91,0.25,9.19,9.32,247.14,-0.005,0.2417,0,18.001,1,0.6,4.5,2.426,0.35,0.0168,0.4,246.56,0.051,0,1,0.06,0.58,0,9.28,246.95,0.6794,-0.3925,0.6199,9.25,246.56,0,0,31.631,0,0,0,0,0,267.25,0,0,0,0,0,0,0,0,0,0,0,0,0,1,1,0,0,VALID,0,0,0,0,0,1,0,0,0,0,0,0,0,0,0,0,0,0,0,0,772.65,2829.12,6,0,1.11,0.5,123,0.9,1.11,1.11,121.83,FLYING
122.88,APPROACH,FLY_TO_FIX,159.4,159,-0.4,1332.51,0.64,9.48,9.32,246.85,0.022,0.1791,0,17.813,1,0.6,4.5,2.426,0.35,0.0168,0.4,246.09,0.048,0,1,0.18,0.75,0,9.27,246.56,0.6755,-0.3998,0.6195,9.37,246.09,0,0,31.45,0,0,0,0,0,267.25,0,0,0,0,0,0,0,0,0,0,0,0,0,1,1,0,0,VALID,0,0,0,0,0,1,0,0,0,0,0,0,0,0,0,0,0,0,0,0,745.54,2833.28,6,0,1.11,0.5,124,0.9,1.11,1.11,122.94,FLYING
123.99,APPROACH,FLY_TO_FIX,159.59,159,-0.59,1333.38,0.94,9.52,9.19,246.48,0.043,0.15,0,17.523,1,0.6,4.5,2.426,0.35,0.0168,0.4,245.51,0.044,0,1,0.29,0.97,0,9.39,246.09,0.6735,-0.4091,0.6157,9.27,245.51,0,0,31.27,0,0,0,0,0,267.25,0,0,0,0,0,0,0,0,0,0,0,0,0,1,1,0,0,VALID,0,0,0,0,0,1,0,0,0,0,0,0,0,0,0,0,0,0,0,0,666.57,2835.67,6,0,1.11,0.5,125,0.9,1.11,1.11,124.05,FLYING
125.13,APPROACH,FLY_TO_FIX,159.52,159,-0.52,1334.19,1.09,9.32,8.59,245.95,0.037,0.178,0,17.261,1,0.6,4.5,2.426,0.35,0.0168,0.4,268.16,-2.39,0,1,0.41,22.21,1,9.29,245.51,0.7808,-0.0319,0.624,6.38,268.16,0,0,31.084,0,0,0,0,0,267.25,0,0,0,0,0,0,0,0,0,0,0,0,0,1,1,0,0,VALID,0,0,0,0,0,1,0,0,0,0,0,0,0,0,0,0,0,0,0,0,586.31,2834.68,6,0,1.14,0.5,126,0.88,1.14,1.11,125.19,FLYING
126.24,APPROACH,FLY_TO_FIX,159.41,159,-0.41,1334.02,0.15,8.1,7.6,246.13,0.197,0.2154,0,17.06,1,0.6,4.5,2.426,0.35,0.0168,0.4,268.38,-2.391,0,1,0.22,22.24,1,6.4,268.16,0.792,-0.0282,0.6098,5.36,268.38,0,0,30.904,0,0,0,0,0,267.25,0,0,0,0,0,0,0,0,0,0,0,0,0,1,1,0,0,VALID,0,0,0,0,0,1,0,0,0,0,0,0,0,0,0,0,0,0,0,0,558.44,2833,6,0,1.11,0.5,127,0.9,1.14,1.11,126.29,FLYING
127.06,APPROACH,FLY_TO_FIX,159.6,159,-0.6,1332.79,-1.29,6.74,6.92,248.43,0.529,0.1831,0,16.773,1,0.6,4.5,2.426,0.35,0.0168,0.4,268.56,-2.385,0,1,-0.22,20.13,1,5.38,268.38,0.8009,-0.025,0.5983,4.54,268.56,0,0,30.752,0,0,0,0,0,267.25,0,0,0,0,0,0,0,0,0,0,0,0,0,1,1,0,0,VALID,0,0,0,0,0,1,0,0,0,0,0,0,0,0,0,0,0,0,0,0,566.17,2835.39,6,0,0.986,0.5,128,1.19,1.11,0.986,127.1,FLYING
127.8,APPROACH,FLY_TO_FIX,159.96,159,-0.96,1330.6,-2.81,5.94,6.53,251.38,0.832,0.1144,0,16.313,1,0.6,4.5,2.426,0.35,0.0168,0.4,268.72,-2.376,0,1,-0.76,17.33,1,4.55,268.56,0.8044,-0.0223,0.5937,4.23,268.72,0,0,30.632,0,0,0,0,0,267.25,0,0,0,0,0,0,0,0,0,0,0,0,0,1,1,0,0,VALID,0,0,0,0,0,1,0,0,0,0,0,0,0,0,0,0,0,0,0,0,556.39,2839.94,6,0,0.74,0.5,129,1.35,0.986,0.74,127.84,FLYING
128.54,APPROACH,FLY_TO_FIX,160.36,159,-1.36,1327.4,-4.49,5.14,6.45,254.03,1.173,0.0365,0,15.648,1,0.6,4.5,2.426,0.35,0.0168,0.4,268.87,-2.361,0,1,-1.33,14.84,1,4.24,268.72,0.8059,-0.0197,0.5917,4.09,268.87,0,0,30.511,0,0,0,0,0,267.25,0,0,0,0,0,0,0,0,0,0,0,0,0,1,1,0,0,VALID,0,0,0,0,0,1,0,0,0,0,0,0,0,0,0,0,0,0,0,0,503.89,2845.2,6,0,0.74,0.5,130,1.35,0.74,0.74,128.58,FLYING
129.3,APPROACH,FLY_TO_FIX,160.64,159,-1.64,1323.04,-6.15,4.61,6.61,255.43,1.37,0,0,14.835,1,0.6,4.5,2.329,0.35,0.0168,0.4,269.03,-2.341,0,1,-1.93,13.6,1,4.1,268.87,0.8049,-0.0169,0.5931,4.2,269.03,0,0,30.387,0,0,0,0,0,267.25,0,0,0,0,0,0,0,0,0,0,0,0,0,1,1,0,0,VALID,0,0,0,0,0,1,0,0,0,0,0,0,0,0,0,0,0,0,0,0,407.03,2849.21,6,0,0.76,0.5,131,1.32,0.76,0.74,129.34,FLYING
130.08,APPROACH,FLY_TO_FIX,160.81,159,-1.81,1317.57,-7.64,4.39,6.98,255.55,1.444,0,0,14.761,1,0.6,4.5,2.235,0.35,0.0168,0.4,269.2,-2.315,0,1,-2.49,13.65,1,4.22,269.03,0.8015,-0.014,0.5979,4.55,269.2,0,0,30.259,0,0,0,0,0,267.25,0,0,0,0,0,0,0,0,0,0,0,0,0,1,1,0,0,VALID,0,0,0,0,0,1,0,0,0,0,0,0,0,0,0,0,0,0,0,0,309.8,2851.66,6,0,0.78,0.5,132,1.28,0.78,0.76,130.12,FLYING
130.84,APPROACH,FLY_TO_FIX,160.85,159,-1.85,1311.43,-8.82,4.46,7.55,255.48,1.497,0,0,14.687,1,0.6,4.5,2.146,0.35,0.0168,0.4,269.36,-2.285,0,1,-2.96,13.88,1,4.56,269.2,0.7957,-0.0113,0.6056,5.12,269.36,0,0,30.135,0,0,0,0,0,267.25,0,0,0,0,0,0,0,0,0,0,0,0,0,1,1,0,0,VALID,0,0,0,0,0,1,0,0,0,0,0,0,0,0,0,0,0,0,0,0,235.29,2852.54,6,0,0.76,0.5,133,1.32,0.78,0.76,130.88,FLYING
131.62,APPROACH,FLY_TO_FIX,160.63,159,-1.63,1304.57,-9.54,4.8,8.26,255.99,1.599,0.0445,0,13.853,1,0.6,4.5,2.06,0.35,0.0168,0.4,269.52,-2.251,0,1,-3.29,13.54,1,5.13,269.36,0.788,-0.0084,0.6156,5.85,269.52,0,0,30.007,0,0,0,0,0,267.25,0,0,0,0,0,0,0,0,0,0,0,0,0,1,1,0,0,VALID,0,0,0,0,0,1,0,0,0,0,0,0,0,0,0,0,0,0,0,0,176,2850.3,6,0,0.78,0.5,134,1.28,0.78,0.76,131.66,FLYING
132.38,APPROACH,FLY_TO_FIX,160.2,159,-1.2,1297.75,-9.7,5.45,9.05,256.16,1.719,0.1348,0,13.225,1,0.6,4.5,1.978,0.35,0.0168,0.4,269.68,-2.217,0,1,-3.44,13.52,1,5.86,269.52,0.7791,-0.0056,0.6268,6.68,269.68,0,0,29.882,0,0,0,0,0,267.25,0,0,0,0,0,0,0,0,0,0,0,0,0,1,1,0,0,VALID,0,0,0,0,0,1,0,0,0,0,0,0,0,0,0,0,0,0,0,0,163.31,2845.37,6,0,0.76,0.5,135,1.32,0.78,0.76,132.42,FLYING
133.14,APPROACH,FLY_TO_FIX,159.62,159,-0.62,1291.09,-9.36,6.24,9.85,256.42,1.802,0.2488,0,12.883,1,0.6,4.5,1.978,0.35,0.0168,0.4,269.85,-2.182,0,1,-3.41,13.43,1,6.69,269.68,0.7703,-0.0027,0.6377,7.5,269.85,0,0,29.754,0,0,0,0,0,267.25,0,0,0,0,0,0,0,0,0,0,0,0,0,2,2,0,0,VALID,0,0,0,0,0,1,0,0,0,0,0,0,0,0,0,0,0,0,0,0,192.98,2838.47,6,0,0.76,0.5,136,1.28,0.76,0.76,133.2,FLYING
133.96,APPROACH,FLY_TO_FIX,158.84,159,0.16,1284.51,-8.32,7.22,10.46,256.66,1.906,0.3983,0,12.932,1,0.6,4.5,1.978,0.35,0.0168,0.4,270.02,-2.15,0,1,-3.15,13.36,1,7.51,269.85,0.7624,0.0003,0.6471,8.22,270.02,0,0,29.624,0,0,0,0,0,267.25,0,0,0,0,0,0,0,0,0,0,0,0,0,2,2,0,0,VALID,0,0,0,0,0,1,0,0,0,0,0,0,0,0,0,0,0,0,0,0,267.04,2829.07,6,0,0.82,0.5,137,1.25,0.82,0.76,134,FLYING
134.52,APPROACH,ILS_TRACK,158.23,159,0.77,1280.62,-7.24,8.06,10.8,256.88,2.028,0.3983,0,12.932,1,0.6,4.5,1.978,0.35,0.0168,0.4,270.02,-2.15,0,1,-2.73,13.36,1,8.23,270.02,0.7624,0.0003,0.6471,8.22,270.02,0,0,29.504,0,0,0,0,0,267.25,0,0,0,0,0,0,0,0,0,0,0,0,0,2,2,0,0,VALID,0,0,0,0,0,1,0,0,0,0,0,0,0,0,0,0,0,0,0,0,358.93,2821.61,6,0,0.74,0.5,138,1.72,0.82,0.74,134.56,FLYING
135.5,APPROACH,ILS_TRACK,157.29,158.2,0.91,1275.06,-5.23,8.64,10.82,257.12,2.157,0.5983,0,13.354,1,0.6,4.5,1.978,0.35,0.0168,0.4,245.4,0.024,0,1,-2.13,13.36,1,8.24,270.02,0.6573,-0.4091,0.6329,10.8,245.4,117.74,-333.32,29.374,-63.581,0,0,0,0,267.25,0,0,0,0,0,0,0,0,0,0,0,0,0,2,2,0,0,VALID,0,0,0,0,0,1,0,0,0,0,0,0,0,0,0,0,0,0,0,0,493.27,2809.9,6,0,0.8,0.5,139,1.04,0.8,0.74,135.54,FLYING
136.4,APPROACH,ILS_TRACK,156.21,157.4,1.19,1272.25,-3.02,10.13,11.46,257.02,2.28,0.7437,0,13.906,1,0.6,4.5,1.978,0.35,0.0168,0.4,291.78,0.04,0,1,-1.44,13.36,1,10.82,245.4,0.6642,0.3634,0.6533,11.57,291.78,69.42,-328.96,29.229,21.385,0,0,0,0,267.25,0,0,0,0,0,0,0,0,0,0,0,0,0,2,2,0,0,VALID,0,0,0,0,0,1,0,0,0,0,0,0,0,0,0,0,0,0,0,0,686.05,2796.59,6,0,0.9,0.5,140,1.11,0.9,0.8,136.44,FLYING
137.32,APPROACH,ILS_TRACK,155.17,156.6,1.43,1271.03,-0.62,11.56,11.99,255.77,2.137,0.8265,0,14.568,1,0.6,4.5,1.978,0.35,0.0168,0.4,293.68,0.048,0,1,-0.83,13.36,1,11.58,291.79,0.6434,0.392,0.6575,12.43,293.68,21.16,-322.73,29.081,23.285,0,0,0,0,267.25,0,0,0,0,0,0,0,0,0,0,0,0,0,2,2,0,0,VALID,0,0,0,0,0,1,0,0,0,0,0,0,0,0,0,0,0,0,0,0,916.5,2783.54,6,0,0.92,0.5,141,1.09,0.92,0.9,137.36,FLYING
138.22,APPROACH,ILS_TRACK,155.03,155.8,0.77,1269.17,1.03,9.55,8.06,255.67,2.271,0.75,0,14.997,1,0.6,4.5,1.978,0.35,0.0168,0.4,294.81,0.057,0,1,0.35,13.36,1,12.44,293.69,0.6783,0.4143,0.6068,8.86,294.81,-25.61,-317.01,28.937,24.406,0,0,0,0,267.25,0,0,0,0,0,0,0,0,0,0,0,0,0,2,2,0,0,VALID,0,0,0,0,0,1,0,0,0,0,0,0,0,0,0,0,0,0,0,0,1144.07,2782,6,0,0.9,0.5,142,1.11,0.92,0.9,138.26,FLYING
139.12,APPROACH,ILS_TRACK,156.51,155,-1.51,1269.13,-0.14,7.02,7.73,257,2.645,0.55,0,14.307,1,0.6,4.5,1.978,0.35,0.0168,0.4,295.4,0.06,0,1,0.17,13.36,1,8.87,294.81,0.6922,0.4253,0.583,7.27,295.4,-72.34,-310.1,28.793,26.261,0,0,0,0,267.25,0,0,0,0,0,0,0,0,0,0,0,0,0,2,2,0,0,VALID,0,0,0,0,0,1,0,0,0,0,0,0,0,0,0,0,0,0,0,0,1308.31,2800.93,6,0,0.9,0.5,143,1.11,0.9,0.9,139.16,FLYING
140.02,APPROACH,ILS_TRACK,157.79,154.2,-3.59,1271.31,0.63,9.18,10.68,258.38,2.9,0.35,0,14.236,1,0.6,4.5,1.978,0.35,0.0168,0.4,295.4,0.051,0,1,-0.15,13.36,1,7.28,295.4,0.6601,0.422,0.6215,10.16,295.4,-118.65,-300.65,28.646,27.899,0,0,0,0,267.25,0,0,0,0,0,0,0,0,0,0,0,0,0,2,2,0,0,VALID,0,0,0,0,0,1,0,0,0,0,0,0,0,0,0,0,0,0,0,0,1353.69,2817.1,6,0,0.9,0.5,144,1.11,0.9,0.9,140.06,FLYING
140.94,APPROACH,ILS_TRACK,158.16,153.4,-4.76,1273.1,2.32,10.46,10.13,258.84,3.032,0.15,0,14.164,1,0.6,4.5,1.978,0.35,0.0168,0.4,295.4,0.042,0,1,0.88,13.36,1,10.17,295.4,0.6624,0.4222,0.6189,9.97,295.4,-165.06,-290.91,28.496,29.811,0,0,0,0,267.25,0,0,0,0,0,0,0,0,0,0,0,0,0,2,2,0,0,VALID,0,0,0,0,0,1,0,0,0,0,0,0,0,0,0,0,0,0,0,0,1253.86,2821.77,6,0,0.92,0.5,145,1.09,0.92,0.9,140.98,FLYING
141.84,APPROACH,ILS_TRACK,158.49,154.2,-4.29,1275.47,3.98,10.14,8.41,259.21,3.213,0,0,14.094,1,0.6,4.5,1.978,0.35,0.0168,0.4,295.4,0.03,0,1,1.39,13.36,1,9.99,295.4,0.6758,0.4236,0.6032,8.8,295.4,-210.63,-280.61,28.345,31.21,0,0,0,0,267.25,0,0,0,0,0,0,0,0,0,0,0,0,0,2,2,0,0,VALID,0,0,0,0,0,1,0,0,0,0,0,0,0,0,0,0,0,0,0,0,1022.33,2825.64,6,0,0.92,0.5,146,1.09,0.92,0.92,141.9,FLYING
142.78,APPROACH,ILS_TRACK,158.5,155,-3.5,1279.09,3.79,9.62,8.74,259.58,3.419,0,0,14.023,1,0.6,4.5,1.899,0.35,0.0168,0.4,295.4,0.013,0,1,1.38,13.36,1,8.81,295.4,0.6781,0.4239,0.6004,8.6,295.4,-255.33,-269.4,28.193,32.562,0,0,0,0,267.25,0,0,0,0,0,0,0,0,0,0,0,0,0,2,2,0,0,VALID,0,0,0,0,0,1,0,0,0,0,0,0,0,0,0,0,0,0,0,0,734.46,2825.61,6,0,0.92,0.5,147,1.09,0.92,0.92,142.82,FLYING
143.7,APPROACH,ILS_TRACK,157.59,155.8,-1.79,1284.17,5.37,11.33,10.02,260.04,3.6,0.0975,0,13.051,1,0.6,4.5,1.825,0.35,0.0168,0.4,295.4,-0.012,0,1,1.56,13.36,1,8.61,295.4,0.6593,0.4217,0.6224,10.28,295.4,-299.01,-256.46,28.041,33.802,0,0,0,0,267.25,0,0,0,0,0,0,0,0,0,0,0,0,0,2,2,0,0,VALID,0,0,0,0,0,1,0,0,0,0,0,0,0,0,0,0,0,0,0,0,520.27,2813.31,6,0,0.92,0.5,148,1.09,0.92,0.92,143.74,FLYING
144.62,APPROACH,ILS_TRACK,156.22,156.6,0.38,1289.13,5.93,11.14,9.56,260.38,3.808,0.2975,0,13.175,1,0.6,4.5,1.825,0.35,0.0168,0.4,295.4,-0.035,0,1,1.99,13.36,1,10.29,295.4,0.667,0.4226,0.6136,9.61,295.4,-341.48,-243.82,27.89,34.895,0,0,0,0,267.25,0,0,0,0,0,0,0,0,0,0,0,0,0,2,2,0,0,VALID,0,0,0,0,0,1,0,0,0,0,0,0,0,0,0,0,0,0,0,0,449.34,2796.04,6,0,0.92,0.5,149,1.09,0.92,0.92,144.66,FLYING
145.54,APPROACH,ILS_TRACK,154.9,157.4,2.5,1295.84,6.59,11.76,10.77,260.78,4.037,0.4975,0,14.357,1,0.6,4.5,1.825,0.35,0.0168,0.4,295.4,-0.067,0,1,2.25,13.36,1,9.63,295.4,0.6589,0.4216,0.6229,10.33,295.4,-382.75,-229.76,27.74,35.945,0,0,0,0,267.25,0,0,0,0,0,0,0,0,0,0,0,0,0,2,2,0,0,VALID,0,0,0,0,0,1,0,0,0,0,0,0,0,0,0,0,0,0,0,0,508.34,2778.97,6,0,0.92,0.5,150,1.09,0.92,0.92,145.58,FLYING
146.44,APPROACH,ILS_TRACK,153.18,158.2,5.02,1301.04,8.22,11.8,7.5,261.12,4.225,0.6975,0,14.285,1,0.6,4.5,1.825,0.35,0.0168,0.4,295.4,-0.096,0,1,3.07,13.36,1,10.35,295.4,0.6797,0.4239,0.5986,8.51,295.4,-422.72,-215.92,27.592,36.89,0,0,0,0,267.25,0,0,0,0,0,0,0,0,0,0,0,0,0,2,2,0,0,VALID,0,0,0,0,0,1,0,0,0,0,0,0,0,0,0,0,0,0,0,0,648.35,2756.32,6,0,0.92,0.5,151,1.09,0.92,0.92,146.5,FLYING
147.36,APPROACH,ILS_TRACK,153.25,159,5.75,1306.99,5.83,8.47,7.47,261.34,4.5,0.8975,0,14.214,1,0.6,4.5,1.825,0.35,0.0168,0.4,295.4,-0.123,0,1,2.55,13.36,1,8.52,295.4,0.7,0.4258,0.5733,6.66,295.4,-461.53,-202.96,27.443,37.871,0,0,0,0,267.25,0,0,0,0,0,0,0,0,0,0,0,0,0,2,2,0,0,VALID,0,0,0,0,0,1,0,0,0,0,0,0,0,0,0,0,0,0,0,0,861.09,2756.57,6,0,0.92,0.5,152,1.09,0.92,0.92,147.42,FLYING
148.28,APPROACH,ILS_TRACK,153.57,159,5.43,1314.14,5.5,10.31,10.32,261.95,4.678,0.9619,0,16.937,1,0.6,4.5,1.825,0.35,0.0168,0.4,295.4,-0.157,0,1,2.11,13.36,1,6.67,295.4,0.6726,0.4231,0.6071,9.17,295.4,-499.37,-188.25,27.295,38.893,0,0,0,0,267.25,0,0,0,0,0,0,0,0,0,0,0,0,0,2,2,0,0,VALID,0,0,0,0,0,1,0,0,0,0,0,0,0,0,0,0,0,0,0,0,1132.45,2760.57,6,0,0.92,0.5,153,1.09,0.92,0.92,148.34,FLYING
149.2,APPROACH,ILS_TRACK,153.3,159,5.7,1323.53,8.83,15.2,13.91,262.76,4.828,0.9819,0,19.736,1,0.6,4.5,1.825,0.35,0.0168,0.4,295.4,-0.203,0,1,2.53,13.36,1,9.18,295.4,0.6224,0.4166,0.6626,13.48,295.4,-536.13,-171.38,27.145,39.824,0,0,0,0,267.25,0,0,0,0,0,0,0,0,0,0,0,0,0,2,2,0,0,VALID,0,0,0,0,0,1,0,0,0,0,0,0,0,0,0,0,0,0,0,0,1386.81,2757.27,6,0,0.92,0.5,154,1.09,0.92,0.92,149.26,FLYING
150.12,APPROACH,ILS_TRACK,152.5,159,6.5,1334.04,12.18,17.31,14.14,263.37,5.02,1,0,19.638,1,0.6,4.5,1.825,0.35,0.0168,0.4,295.4,-0.253,0,1,3.92,13.36,1,13.49,295.4,0.6157,0.4156,0.6695,14.05,295.4,-571.52,-153.48,26.996,40.555,0,0,0,0,267.25,0,0,0,0,0,0,0,0,0,0,0,0,0,2,2,0,0,VALID,0,0,0,0,0,1,0,0,0,0,0,0,0,0,0,0,0,0,0,0,1602.68,2746.56,6,0,0.92,0.5,155,1.09,0.92,0.92,150.18,FLYING
151.04,APPROACH,ILS_TRACK,152.4,159,6.6,1345.5,14.65,16.32,11.04,263.71,5.254,1,0,19.54,1,0.6,4.5,1.825,0.35,0.0168,0.4,295.4,-0.31,0,1,5.54,13.36,1,14.06,295.4,0.6512,0.4205,0.6317,11.08,295.4,-605.45,-134.47,26.848,41.186,0,0,0,0,267.25,0,0,0,0,0,0,0,0,0,0,0,0,0,2,2,0,0,VALID,0,0,0,0,0,1,0,0,0,0,0,0,0,0,0,0,0,0,0,0,1793.42,2744.22,6,0,0.92,0.5,156,1.09,0.92,0.92,151.1,FLYING
151.98,APPROACH,ILS_TRACK,153.73,159,5.27,1359.32,16.61,15.02,9.63,264.16,5.446,0.8,0,20,1,0.6,4.5,1.825,0.35,0.0168,0.4,295.4,-0.376,0,1,5.88,13.36,1,11.09,295.4,0.6682,0.4225,0.6123,9.61,295.4,-638.18,-113.35,26.699,41.892,0,0,0,0,267.25,0,0,0,0,0,0,0,0,0,0,0,0,0,2,2,0,0,VALID,0,0,0,0,0,1,0,0,0,0,0,0,0,0,0,0,0,0,0,0,1964.57,2760.09,6,0,0.92,0.5,157,1.09,0.92,0.92,152.02,FLYING
152.9,APPROACH,ILS_TRACK,155.32,159,3.68,1375.32,17.88,15.35,9.91,264.76,5.702,0.6,0,20,1,0.6,4.5,1.825,0.35,0.0168,0.4,295.4,-0.455,0,1,6.22,13.36,1,9.62,295.4,0.6676,0.4224,0.6131,9.67,295.4,-669.81,-89.82,26.548,42.606,0,0,0,0,267.25,0,0,0,0,0,0,0,0,0,0,0,0,0,2,2,0,0,VALID,0,0,0,0,0,1,0,0,0,0,0,0,0,0,0,0,0,0,0,0,2021.37,2779.36,6,0,0.92,0.5,158,1.09,0.92,0.92,152.94,FLYING
153.8,APPROACH,ILS_TRACK,156.58,159,2.42,1392.75,19.72,16.45,10.71,265.43,5.885,0.4,0,20,1,0.6,4.5,1.825,0.35,0.0168,0.4,295.4,-7,0,1,6.67,13.36,1,9.69,295.4,0.7292,0.4278,0.5341,3.93,295.4,-700.25,-64.45,26.395,43.229,-21.247,0,0,0,267.25,0,0,0,0,0,0,0,0,0,0,0,0,0,2,2,0,0,VALID,0,0,0,0,0,1,0,0,0,0,0,0,0,0,0,0,0,0,0,0,1933.9,2794.45,6,0,0.92,0.5,159,1.09,0.92,0.92,153.86,FLYING
154.72,APPROACH,ILS_TRACK,157.58,159,1.42,1410.53,21.6,15.4,7.99,265.87,6.21,0.2,0,20,1,0.6,4.5,1.825,0.35,0.0168,0.4,295.4,-7,0,1,7.74,13.36,1,3.95,295.4,0.7538,0.4287,0.498,1.45,295.4,-729.32,-38.69,26.241,43.706,-29.623,0,0,0,267.25,0,0,0,0,0,0,0,0,0,0,0,0,0,2,2,0,0,VALID,0,0,0,0,0,1,0,0,0,0,0,0,0,0,0,0,0,0,0,0,1711.83,2805.82,6,0,0.92,0.5,160,1.09,0.92,0.92,154.78,FLYING
