t_s,phase,subphase,ias_ms,vapp_ms,spd_err_ms,agl_m,vs_ms,pitch_deg,aoa_deg,hdg_deg,bank_deg,thr_cmd,thr_cur,thr_intg,at_gain,at_tau_s,at_a_up,at_a_dn,at_kp_thr,at_ki_spd,at_thr_slew,aa_hdg_cmd_deg,aa_fpa_cmd_deg,aa_fbw,aa_dir,actual_fpa_deg,ftf_hdg_err_deg,ftf_fix_idx,kos_steer_pit_deg,kos_steer_hdg_deg,aa_dir_vx,aa_dir_vy,aa_dir_vz,aa_dir_pitch_deg,aa_dir_hdg_deg,ils_loc_m,ils_gs_m,ils_dist_km,loc_corr_deg,gs_corr_deg,flare_fpa_cmd,flare_tgt_vs,flare_frac,steer_hdg_deg,steer_blend,ro_loc_corr_deg,ro_hdg_err_deg,ro_yaw_tgt,ro_yaw_scale,ro_yaw_gate,yaw_cmd,roll_cmd,pitch_cmd,ro_pitch_tgt_deg,ro_pitch_err_deg,ro_pitch_ff,ro_roll_assist,flaps_cur,flaps_tgt,asc_j_ab,asc_j_rk,asc_validity,asc_q_pa,asc_q_raw_pa,asc_mach,asc_apo_m,asc_drag_n,asc_w_prop,asc_edot_aero,asc_edot_orb,asc_pitch_bias,asc_blend,asc_spooling,asc_ab_thr_ratio,asc_ab_t_now,asc_ab_t_avail,asc_ab_ign_on,asc_ab_flameouts,asc_rk_t_now,asc_rk_t_avail,asc_rk_ign_on,asc_rk_flameouts,ship_thrust,ship_avail_thrust,ship_ign_on,ship_flameouts,ifc_raw_dt_s,ifc_dt_s,ifc_loop_n,ifc_hz_est,ifc_raw_dt_max_s,ifc_raw_dt_min_s,phase_el_s,status,craft_name,cfg_file
0.12,TAKEOFF,TO_PREFLIGHT,1.21,80,78.79,3.64,-0.01,-0.22,0.11,90.27,0.108,0.032,0,0,0,0,0,0,0,0,0,90.4,0,1,0,-0.34,0,0,0,90,0,0,0,0,0,0,0,0,0,0,0,0,0,90.4,1,0,-0.13,0,0,1,0,0,0,0,0,0,0,0,2,0,0,VALID,0,0,0,0,0,1,0,0,0,0,0,0,0,0,0,0,0,0,0,0,0,887.75,2,0,0.08,0.08,1,3.45,0.08,0.02,0.04,LANDED,X10-G,0:/Integrated Flight Computer/aircraft/x10_g_cfg.ks (inferred preloaded)
0.38,TAKEOFF,TO_PREFLIGHT,1.21,80,78.79,3.64,0,-0.23,-0.03,90.27,0.108,0.12,0,0,0,0,0,0,0,0,0,90.4,0,1,0,-0.16,0,0,0,90,0,0,0,0,0,0,0,0,0,0,0,0,0,90.4,1,0,-0.129,0,0,1,0,0,0,0,0,0,0,1,2,0,0,VALID,0,0,0,0,0,1,0,0,0,0,0,0,0,0,0,0,0,0,0,0,2.07,887.75,2,0,0.04,0.04,6,19.23,0.12,0.04,0.3,LANDED,X10-G,0:/Integrated Flight Computer/aircraft/x10_g_cfg.ks (inferred preloaded)
0.64,TAKEOFF,TO_PREFLIGHT,1.13,80,78.87,3.63,0,-0.26,-0.4,90.28,0.107,0.224,0,0,0,0,0,0,0,0,0,90.4,0,1,0,0.13,0,0,0,90,0,0,0,0,0,0,0,0,0,0,0,0,0,90.4,1,0,-0.129,0,0,1,0,0,0,0,0,0,0,1,2,0,0,VALID,0,0,0,0,0,1,0,0,0,0,0,0,0,0,0,0,0,0,0,0,8.5,887.75,2,0,0.04,0.04,11,19.23,0.08,0.04,0.56,LANDED,X10-G,0:/Integrated Flight Computer/aircraft/x10_g_cfg.ks (inferred preloaded)
0.94,TAKEOFF,TO_PREFLIGHT,0.89,80,79.11,3.62,-0.01,-0.28,0.16,90.28,0.107,0.344,0,0,0,0,0,0,0,0,0,90.4,0,1,0,-0.4,0,0,0,90,0,0,0,0,0,0,0,0,0,0,0,0,0,90.4,1,0,-0.129,0,0,1,0,0,0,0,0,0,0,2,2,0,0,VALID,0,0,0,0,0,1,0,0,0,0,0,0,0,0,0,0,0,0,0,0,21.3,887.76,2,0,0.06,0.06,16,16.67,0.08,0.04,0.86,LANDED,X10-G,0:/Integrated Flight Computer/aircraft/x10_g_cfg.ks (inferred preloaded)
1.24,TAKEOFF,TO_PREFLIGHT,0.57,80,79.43,3.61,0,-0.3,-0.2,90.28,0.108,0.464,0,0,0,0,0,0,0,0,0,90.4,0,1,0,0.08,0,0,0,90,0,0,0,0,0,0,0,0,0,0,0,0,0,90.4,1,0,-0.129,0,0,1,0,0,0,0,0,0,0,2,2,0,0,VALID,0,0,0,0,0,1,0,0,0,0,0,0,0,0,0,0,0,0,0,0,39.67,887.76,2,0,0.08,0.08,22,20,0.08,0.04,1.16,LANDED,X10-G,0:/Integrated Flight Computer/aircraft/x10_g_cfg.ks (inferred preloaded)
1.52,TAKEOFF,TO_PREFLIGHT,0.03,80,79.97,3.62,0.01,-0.32,-11.17,90.28,0.107,0.576,0,0,0,0,0,0,0,0,0,90.4,0,1,0,0.31,0,0,0,90,0,0,0,0,0,0,0,0,0,0,0,0,0,90.4,1,0,-0.129,0,0,1,0,0,0,0,0,0,0,2,2,0,0,VALID,0,0,0,0,0,1,0,0,0,0,0,0,0,0,0,0,0,0,0,0,61.37,887.76,2,0,0.04,0.04,28,21.43,0.08,0.04,1.44,LANDED,X10-G,0:/Integrated Flight Computer/aircraft/x10_g_cfg.ks (inferred preloaded)
1.8,TAKEOFF,TO_PREFLIGHT,0.07,80,79.93,3.66,-0.03,-0.12,75.17,90.28,0.108,0.688,0,0,0,0,0,0,0,0,0,90.4,0,1,0,-1.59,0,0,0,90,0,0,0,0,0,0,0,0,0,0,0,0,0,90.4,1,0,-0.129,0,0,1,0,0,0,0,0,0,0,2,2,0,0,VALID,0,0,0,0,0,1,0,0,0,0,0,0,0,0,0,0,0,0,0,0,87.27,887.76,2,0,0.04,0.04,33,17.86,0.08,0.04,1.72,LANDED,X10-G,0:/Integrated Flight Computer/aircraft/x10_g_cfg.ks (inferred preloaded)
2.06,TAKEOFF,TO_PREFLIGHT,0.06,80,79.94,3.65,0.04,-0.18,-41.09,90.28,0.108,0.792,0,0,0,0,0,0,0,0,0,90.4,0,1,0,2.43,0,0,0,90,0,0,0,0,0,0,0,0,0,0,0,0,0,90.4,1,0,-0.129,0,0,1,0,0,0,0,0,0,0,2,2,0,0,VALID,0,0,0,0,0,1,0,0,0,0,0,0,0,0,0,0,0,0,0,0,114.98,887.76,2,0,0.04,0.04,38,19.23,0.08,0.04,1.98,LANDED,X10-G,0:/Integrated Flight Computer/aircraft/x10_g_cfg.ks (inferred preloaded)
2.32,TAKEOFF,TO_PREFLIGHT,0.09,80,79.91,3.61,0,-0.32,2.69,90.28,0.106,0.896,0,0,0,0,0,0,0,0,0,90.4,0,1,0,-0.01,0,0,0,90,0,0,0,0,0,0,0,0,0,0,0,0,0,90.4,1,0,-0.129,0,0,1,0,0,0,0,0,0,0,2,2,0,0,VALID,0,0,0,0,0,1,0,0,0,0,0,0,0,0,0,0,0,0,0,0,145.91,887.76,2,0,0.06,0.06,42,15.38,0.08,0.04,2.24,LANDED,X10-G,0:/Integrated Flight Computer/aircraft/x10_g_cfg.ks (inferred preloaded)
2.58,TAKEOFF,TO_PREFLIGHT,0.03,80,79.97,3.63,-0.02,-0.26,48.12,90.28,0.107,1,0,0,0,0,0,0,0,0,0,90.4,0,1,0,-1.05,0,0,0,90,0,0,0,0,0,0,0,0,0,0,0,0,0,90.4,1,0,-0.129,0,0,1,0,0,0,0,0,0,0,2,2,0,0,VALID,0,0,0,0,0,1,0,0,0,0,0,0,0,0,0,0,0,0,0,0,179.91,887.75,2,0,0.06,0.06,46,15.38,0.08,0.04,2.5,LANDED,X10-G,0:/Integrated Flight Computer/aircraft/x10_g_cfg.ks (inferred preloaded)
2.84,TAKEOFF,TO_PREFLIGHT,0.05,80,79.95,3.63,0.01,-0.26,-5.87,90.28,0.108,1,0,0,0,0,0,0,0,0,0,90.4,0,1,0,0.58,0,0,0,90,0,0,0,0,0,0,0,0,0,0,0,0,0,90.4,1,0,-0.129,0,0,1,0,0,0,0,0,0,0,2,2,0,0,VALID,0,0,0,0,0,1,0,0,0,0,0,0,0,0,0,0,0,0,0,0,215.68,887.75,2,0,0.06,0.06,50,15.38,0.08,0.04,2.76,LANDED,X10-G,0:/Integrated Flight Computer/aircraft/x10_g_cfg.ks (inferred preloaded)
3.1,TAKEOFF,TO_PREFLIGHT,0.09,80,79.91,3.62,0.01,-0.31,-6.8,90.28,0.108,1,0,0,0,0,0,0,0,0,0,90.4,0,1,0,0.46,0,0,0,90,0,0,0,0,0,0,0,0,0,0,0,0,0,90.4,1,0,-0.129,0,0,1,0,0,0,0,0,0,0,2,2,0,0,VALID,0,0,0,0,0,1,0,0,0,0,0,0,0,0,0,0,0,0,0,0,249.8,887.75,2,0,0.06,0.06,54,15.38,0.08,0.04,3.02,LANDED,X10-G,0:/Integrated Flight Computer/aircraft/x10_g_cfg.ks (inferred preloaded)
3.36,TAKEOFF,TO_PREFLIGHT,0.09,80,79.91,3.61,-0.01,-0.31,5.83,90.28,0.107,1,0,0,0,0,0,0,0,0,0,90.4,0,1,0,-0.51,0,0,0,90,0,0,0,0,0,0,0,0,0,0,0,0,0,90.4,1,0,-0.129,0,0,1,0,0,0,0,0,0,0,2,2,0,0,VALID,0,0,0,0,0,1,0,0,0,0,0,0,0,0,0,0,0,0,0,0,282.19,887.75,2,0,0.06,0.06,58,15.38,0.08,0.04,3.28,LANDED,X10-G,0:/Integrated Flight Computer/aircraft/x10_g_cfg.ks (inferred preloaded)
3.62,TAKEOFF,TO_PREFLIGHT,0.09,80,79.91,3.62,0,-0.3,-2.87,90.27,0.107,1,0,0,0,0,0,0,0,0,0,90.4,0,1,0,0.27,0,0,0,90,0,0,0,0,0,0,0,0,0,0,0,0,0,90.4,1,0,-0.129,0,0,1,0,0,0,0,0,0,0,2,2,0,0,VALID,0,0,0,0,0,1,0,0,0,0,0,0,0,0,0,0,0,0,0,0,312.94,887.75,2,0,0.06,0.06,62,15.38,0.08,0.04,3.54,LANDED,X10-G,0:/Integrated Flight Computer/aircraft/x10_g_cfg.ks (inferred preloaded)
3.88,TAKEOFF,TO_PREFLIGHT,0.11,80,79.89,3.61,0,-0.32,-1.29,90.27,0.107,1,0,0,0,0,0,0,0,0,0,90.4,0,1,0,0.1,0,0,0,90,0,0,0,0,0,0,0,0,0,0,0,0,0,90.4,1,0,-0.129,0,0,1,0,0,0,0,0,0,0,2,2,0,0,VALID,0,0,0,0,0,1,0,0,0,0,0,0,0,0,0,0,0,0,0,0,342.12,887.75,2,0,0.06,0.06,66,15.38,0.08,0.04,3.8,LANDED,X10-G,0:/Integrated Flight Computer/aircraft/x10_g_cfg.ks (inferred preloaded)
4.14,TAKEOFF,TO_PREFLIGHT,0.12,80,79.88,3.61,0,-0.33,0.03,90.27,0.107,1,0,0,0,0,0,0,0,0,0,90.4,0,1,0,-0.06,0,0,0,90,0,0,0,0,0,0,0,0,0,0,0,0,0,90.4,1,0,-0.129,0,0,1,0,0,0,0,0,0,0,2,2,0,0,VALID,0,0,0,0,0,1,0,0,0,0,0,0,0,0,0,0,0,0,0,0,369.82,887.75,2,0,0.06,0.06,70,15.38,0.08,0.04,4.06,LANDED,X10-G,0:/Integrated Flight Computer/aircraft/x10_g_cfg.ks (inferred preloaded)
4.4,TAKEOFF,TO_PREFLIGHT,0.12,80,79.88,3.61,0,-0.33,0.09,90.27,0.107,1,0,0,0,0,0,0,0,0,0,90.4,0,1,0,-0.06,0,0,0,90,0,0,0,0,0,0,0,0,0,0,0,0,0,90.4,1,0,-0.129,0,0,1,0,0,0,0,0,0,0,2,2,0,0,VALID,0,0,0,0,0,1,0,0,0,0,0,0,0,0,0,0,0,0,0,0,396.12,887.75,2,0,0.06,0.06,74,15.38,0.08,0.04,4.32,LANDED,X10-G,0:/Integrated Flight Computer/aircraft/x10_g_cfg.ks (inferred preloaded)
4.66,TAKEOFF,TO_PREFLIGHT,0.13,80,79.87,3.61,0,-0.34,-0.67,90.26,0.107,1,0,0,0,0,0,0,0,0,0,90.4,0,1,0,0.05,0,0,0,90,0,0,0,0,0,0,0,0,0,0,0,0,0,90.4,1,0,-0.129,0,0,1,0,0,0,0,0,0,0,2,2,0,0,VALID,0,0,0,0,0,1,0,0,0,0,0,0,0,0,0,0,0,0,0,0,421.08,887.75,2,0,0.06,0.06,78,15.38,0.08,0.04,4.58,LANDED,X10-G,0:/Integrated Flight Computer/aircraft/x10_g_cfg.ks (inferred preloaded)
4.92,TAKEOFF,TO_PREFLIGHT,0.14,80,79.86,3.61,0,-0.34,-0.14,90.26,0.108,1,0,0,0,0,0,0,0,0,0,90.4,0,1,0,-0.04,0,0,0,90,0,0,0,0,0,0,0,0,0,0,0,0,0,90.4,1,0,-0.129,0,0,1,0,0,0,0,0,0,0,2,2,0,0,VALID,0,0,0,0,0,1,0,0,0,0,0,0,0,0,0,0,0,0,0,0,444.77,887.75,2,0,0.06,0.06,82,15.38,0.08,0.04,4.84,LANDED,X10-G,0:/Integrated Flight Computer/aircraft/x10_g_cfg.ks (inferred preloaded)
5.18,TAKEOFF,TO_PREFLIGHT,0.15,80,79.85,3.61,0,-0.34,-0.12,90.25,0.107,1,0,0,0,0,0,0,0,0,0,90.4,0,1,0,-0.03,0,0,0,90,0,0,0,0,0,0,0,0,0,0,0,0,0,90.4,1,0,-0.129,0,0,1,0,0,0,0,0,0,0,2,2,0,0,VALID,0,0,0,0,0,1,0,0,0,0,0,0,0,0,0,0,0,0,0,0,467.26,887.75,2,0,0.06,0.06,86,15.38,0.08,0.04,5.1,LANDED,X10-G,0:/Integrated Flight Computer/aircraft/x10_g_cfg.ks (inferred preloaded)
5.44,TAKEOFF,TO_PREFLIGHT,0.16,80,79.84,3.6,0,-0.35,-0.36,90.25,0.107,1,0,0,0,0,0,0,0,0,0,90.4,0,1,0,0,0,0,0,90,0,0,0,0,0,0,0,0,0,0,0,0,0,90.4,1,0,-0.129,0,0,1,0,0,0,0,0,0,0,2,2,0,0,VALID,0,0,0,0,0,1,0,0,0,0,0,0,0,0,0,0,0,0,0,0,488.6,887.74,2,0,0.06,0.06,90,15.38,0.08,0.04,5.36,LANDED,X10-G,0:/Integrated Flight Computer/aircraft/x10_g_cfg.ks (inferred preloaded)
5.7,TAKEOFF,TO_PREFLIGHT,0.17,80,79.83,3.6,0,-0.35,-0.24,90.24,0.108,1,0,0,0,0,0,0,0,0,0,90.4,0,1,0,-0.04,0,0,0,90,0,0,0,0,0,0,0,0,0,0,0,0,0,90.4,1,0,-0.129,0,0,1,0,0,0,0,0,0,0,2,2,0,0,VALID,0,0,0,0,0,1,0,0,0,0,0,0,0,0,0,0,0,0,0,0,508.87,887.74,2,0,0.06,0.06,94,15.38,0.08,0.04,5.62,LANDED,X10-G,0:/Integrated Flight Computer/aircraft/x10_g_cfg.ks (inferred preloaded)
5.96,TAKEOFF,TO_PREFLIGHT,0.17,80,79.83,3.6,0,-0.35,-0.12,90.23,0.108,1,0,0,0,0,0,0,0,0,0,90.4,0,1,0,-0.04,0,0,0,90,0,0,0,0,0,0,0,0,0,0,0,0,0,90.4,1,0,-0.129,0,0,1,0,0,0,0,0,0,0,2,2,0,0,VALID,0,0,0,0,0,1,0,0,0,0,0,0,0,0,0,0,0,0,0,0,528.1,887.74,2,0,0.06,0.06,98,15.38,0.08,0.04,5.88,LANDED,X10-G,0:/Integrated Flight Computer/aircraft/x10_g_cfg.ks (inferred preloaded)
6.22,TAKEOFF,TO_PREFLIGHT,0.18,80,79.82,3.6,0,-0.35,-0.25,90.23,0.107,1,0,0,0,0,0,0,0,0,0,90.4,0,1,0,-0.01,0,0,0,90,0,0,0,0,0,0,0,0,0,0,0,0,0,90.4,1,0,-0.129,0,0,1,0,0,0,0,0,0,0,2,2,0,0,VALID,0,0,0,0,0,1,0,0,0,0,0,0,0,0,0,0,0,0,0,0,546.36,887.74,2,0,0.06,0.06,102,15.38,0.08,0.04,6.14,LANDED,X10-G,0:/Integrated Flight Computer/aircraft/x10_g_cfg.ks (inferred preloaded)
6.48,TAKEOFF,TO_PREFLIGHT,0.19,80,79.81,3.6,0,-0.36,-0.28,90.22,0.107,1,0,0,0,0,0,0,0,0,0,90.4,0,1,0,-0.02,0,0,0,90,0,0,0,0,0,0,0,0,0,0,0,0,0,90.4,1,0,-0.129,0,0,1,0,0,0,0,0,0,0,2,2,0,0,VALID,0,0,0,0,0,1,0,0,0,0,0,0,0,0,0,0,0,0,0,0,563.69,887.74,2,0,0.06,0.06,106,15.38,0.08,0.04,6.4,LANDED,X10-G,0:/Integrated Flight Computer/aircraft/x10_g_cfg.ks (inferred preloaded)
6.74,TAKEOFF,TO_PREFLIGHT,0.2,80,79.8,3.6,0,-0.36,0.06,90.22,0.108,1,0,0,0,0,0,0,0,0,0,90.4,0,1,0,-0.1,0,0,0,90,0,0,0,0,0,0,0,0,0,0,0,0,0,90.4,1,0,-0.129,0,0,1,0,0,0,0,0,0,0,2,2,0,0,VALID,0,0,0,0,0,1,0,0,0,0,0,0,0,0,0,0,0,0,0,0,580.14,887.74,2,0,0.06,0.06,110,15.38,0.08,0.04,6.66,LANDED,X10-G,0:/Integrated Flight Computer/aircraft/x10_g_cfg.ks (inferred preloaded)
7,TAKEOFF,TO_PREFLIGHT,0.23,80,79.77,3.6,0,-0.36,-0.01,90.21,0.108,1,0,0,0,0,0,0,0,0,0,90.4,0,1,0,-0.09,0,0,0,90,0,0,0,0,0,0,0,0,0,0,0,0,0,90.4,1,0,-0.129,0,0,1,0,0,0,0,0,0,0,2,2,0,0,VALID,0,0,0,0,0,1,0,0,0,0,0,0,0,0,0,0,0,0,0,0,595.76,887.74,2,0,0.06,0.06,114,15.38,0.08,0.04,6.92,LANDED,X10-G,0:/Integrated Flight Computer/aircraft/x10_g_cfg.ks (inferred preloaded)
7.26,TAKEOFF,TO_PREFLIGHT,0.28,80,79.72,3.6,0,-0.36,-0.11,90.2,0.108,1,0,0,0,0,0,0,0,0,0,90.4,0,1,0,-0.1,0,0,0,90,0,0,0,0,0,0,0,0,0,0,0,0,0,90.4,1,0,-0.129,0,0,1,0,0,0,0,0,0,0,2,2,0,0,VALID,0,0,0,0,0,1,0,0,0,0,0,0,0,0,0,0,0,0,0,0,610.58,887.74,2,0,0.06,0.06,118,15.38,0.08,0.04,7.18,LANDED,X10-G,0:/Integrated Flight Computer/aircraft/x10_g_cfg.ks (inferred preloaded)
7.52,TAKEOFF,TO_PREFLIGHT,0.36,80,79.64,3.6,0,-0.36,-0.02,90.19,0.107,1,0,0,0,0,0,0,0,0,0,90.4,0,1,0,-0.13,0,0,0,90,0,0,0,0,0,0,0,0,0,0,0,0,0,90.4,1,0,-0.129,0,0,1,0,0,0,0,0,0,0,2,2,0,0,VALID,0,0,0,0,0,1,0,0,0,0,0,0,0,0,0,0,0,0,0,0,624.65,887.74,2,0,0.06,0.06,122,15.38,0.08,0.04,7.44,LANDED,X10-G,0:/Integrated Flight Computer/aircraft/x10_g_cfg.ks (inferred preloaded)
7.78,TAKEOFF,TO_PREFLIGHT,0.46,80,79.54,3.6,0,-0.36,-0.07,90.18,0.107,1,0,0,0,0,0,0,0,0,0,90.4,0,1,0,-0.16,0,0,0,90,0,0,0,0,0,0,0,0,0,0,0,0,0,90.4,1,0,-0.129,0,0,1,0,0,0,0,0,0,0,2,2,0,0,VALID,0,0,0,0,0,1,0,0,0,0,0,0,0,0,0,0,0,0,0,0,638.01,887.74,2,0,0.06,0.06,126,15.38,0.08,0.04,7.7,LANDED,X10-G,0:/Integrated Flight Computer/aircraft/x10_g_cfg.ks (inferred preloaded)
8.04,TAKEOFF,TO_PREFLIGHT,0.58,80,79.42,3.6,0,-0.36,-0.08,90.17,0.108,1,0,0,0,0,0,0,0,0,0,90.4,0,1,0,-0.19,0,0,0,90,0,0,0,0,0,0,0,0,0,0,0,0,0,90.4,1,0,-0.129,0,0,1,0,0,0,0,0,0,0,2,2,0,0,VALID,0,0,0,0,0,1,0,0,0,0,0,0,0,0,0,0,0,0,0,0,650.69,887.73,2,0,0.06,0.06,130,15.38,0.08,0.04,7.96,LANDED,X10-G,0:/Integrated Flight Computer/aircraft/x10_g_cfg.ks (inferred preloaded)
8.3,TAKEOFF,TO_PREFLIGHT,0.71,80,79.29,3.6,0,-0.36,-0.1,90.16,0.108,1,0,0,0,0,0,0,0,0,0,90.4,0,1,0,-0.2,0,0,0,90,0,0,0,0,0,0,0,0,0,0,0,0,0,90.4,1,0,-0.129,0,0,1,0,0,0,0,0,0,0,2,2,0,0,VALID,0,0,0,0,0,1,0,0,0,0,0,0,0,0,0,0,0,0,0,0,662.72,887.73,2,0,0.06,0.06,134,15.38,0.08,0.04,8.22,LANDED,X10-G,0:/Integrated Flight Computer/aircraft/x10_g_cfg.ks (inferred preloaded)
8.56,TAKEOFF,TO_PREFLIGHT,0.81,80,79.19,3.6,0,-0.37,-0.14,90.16,0.108,1,0,0,0,0,0,0,0,0,0,90.4,0,1,0,-0.2,0,0,0,90,0,0,0,0,0,0,0,0,0,0,0,0,0,90.4,1,0,-0.129,0,0,1,0,0,0,0,0,0,0,2,2,0,0,VALID,0,0,0,0,0,1,0,0,0,0,0,0,0,0,0,0,0,0,0,0,674.14,887.73,2,0,0.06,0.06,138,15.38,0.08,0.04,8.48,LANDED,X10-G,0:/Integrated Flight Computer/aircraft/x10_g_cfg.ks (inferred preloaded)
8.82,TAKEOFF,TO_GROUND_ROLL,0.88,80,79.12,3.6,0,-0.37,-0.12,90.15,0.107,1,0,0,0,0,0,0,0,0,0,90.4,0,1,0,-0.25,0,0,0,90,0,0,0,0,0,0,0,0,0,0,0,0,0,90.4,1,0,-0.129,0,0,1,0,0,0,0,0,0,0,2,2,0,0,VALID,0,0,0,0,0,1,0,0,0,0,0,0,0,0,0,0,0,0,0,0,684.99,887.73,2,0,0.06,0.06,142,15.38,0.08,0.04,8.74,LANDED,X10-G,0:/Integrated Flight Computer/aircraft/x10_g_cfg.ks (inferred preloaded)
9.1,TAKEOFF,TO_GROUND_ROLL,1.29,80,78.71,3.64,-0.06,-0.21,1.48,90.14,0.105,1,0,0,0,0,0,0,0,0,0,90.4,0,1,0,-2.55,0,0,0,90,0,0,0,0,0,0,0,0,0,0,0,0,0,90.4,1,0,-0.258,0.0264,0.563,0,0.0264,0,0,0,0,0,0,2,2,0,0,VALID,0,0,0,0,0,1,0,0,0,0,0,0,0,0,0,0,0,0,0,0,696.05,887.72,2,0,0.06,0.06,146,14.29,0.08,0.06,9.04,LANDED,X10-G,0:/Integrated Flight Computer/aircraft/x10_g_cfg.ks (inferred preloaded)
9.38,TAKEOFF,TO_GROUND_ROLL,2.42,80,77.58,3.68,0.02,-0.08,-0.33,90.15,0.103,1,0,0,0,0,0,0,0,0,0,90.39,0,1,0,0.43,0,0,0,90,0,0,0,0,0,0,0,0,0,0,0,0,0,90.39,1,0,-0.245,0.024,0.574,0,0.024,0,0,0,0,0,0,2,2,0,0,VALID,0,0,0,0,0,1,0,0,0,0,0,0,0,0,0,0,0,0,0,0,706.49,887.7,2,0,0.06,0.06,150,14.29,0.08,0.06,9.32,LANDED,X10-G,0:/Integrated Flight Computer/aircraft/x10_g_cfg.ks (inferred preloaded)
9.66,TAKEOFF,TO_GROUND_ROLL,3.64,80,76.36,3.68,-0.04,-0.1,0.33,90.16,0.107,1,0,0,0,0,0,0,0,0,0,90.39,0,1,0,-0.59,0,0,0,90,0,0,0,0,0,0,0,0,0,0,0,0,0,90.39,1,0,-0.224,0.0213,0.586,0,0.0213,0,0,0,0,0,0,2,2,0,0,VALID,0,0,0,0,0,1,0,0,0,0,0,0,0,0,0,0,0,0,0,0,716.34,887.66,2,0,0.06,0.06,154,14.29,0.08,0.06,9.6,LANDED,X10-G,0:/Integrated Flight Computer/aircraft/x10_g_cfg.ks (inferred preloaded)
9.94,TAKEOFF,TO_GROUND_ROLL,4.87,80,75.13,3.65,-0.03,-0.16,0.16,90.19,0.106,1,0,0,0,0,0,0,0,0,0,90.38,0,1,0,-0.31,0,0,0,90,0,0,0,0,0,0,0,0,-0.001,0,0,0,0,90.38,1,-0.001,-0.199,0.0185,0.599,0,0.0185,0,0,0,0,0,0,2,2,0,0,VALID,0,0,0,0,0,1,0,0,0,0,0,0,0,0,0,0,0,0,0,0,725.65,887.6,2,0,0.06,0.06,158,14.29,0.08,0.06,9.88,LANDED,X10-G,0:/Integrated Flight Computer/aircraft/x10_g_cfg.ks (inferred preloaded)
10.22,TAKEOFF,TO_GROUND_ROLL,6.12,80,73.88,3.64,-0.03,-0.23,0.05,90.21,0.103,1,0,0,0,0,0,0,0,0,0,90.38,0,1,0,-0.32,0,0,0,90,0,0,0,0,0,0,0,0,-0.001,0,0,0,0,90.38,1,-0.001,-0.173,0.015,0.611,0,0.015,0,0,0,0,0,0,2,2,0,0,VALID,0,0,0,0,0,1,0,0,0,0,0,0,0,0,0,0,0,0,0,0,734.42,887.53,2,0,0.06,0.06,162,14.29,0.08,0.06,10.16,LANDED,X10-G,0:/Integrated Flight Computer/aircraft/x10_g_cfg.ks (inferred preloaded)
10.5,TAKEOFF,TO_GROUND_ROLL,7.39,80,72.61,3.64,-0.05,-0.21,0.17,90.23,0.104,1,0,0,0,0,0,0,0,0,0,90.38,0,1,0,-0.42,0,0,0,90,0,0,0,0,0,0,0,0,-0.001,0,0,0,0,90.38,1,-0.001,-0.15,0.0126,0.624,0,0.0126,0,0,0,0,0,0,2,2,0,0,VALID,0,0,0,0,0,1,0,0,0,0,0,0,0,0,0,0,0,0,0,0,742.7,887.44,2,0,0.06,0.06,166,14.29,0.08,0.06,10.44,LANDED,X10-G,0:/Integrated Flight Computer/aircraft/x10_g_cfg.ks (inferred preloaded)
10.78,TAKEOFF,TO_GROUND_ROLL,8.67,80,71.33,3.64,-0.04,-0.2,0.06,90.26,0.105,1,0,0,0,0,0,0,0,0,0,90.38,0,1,0,-0.28,0,0,0,90,0,0,0,0,0,0,0,0,-0.002,0,0,0,0,90.38,1,-0.002,-0.126,0.0099,0.637,0,0.0099,0,0,0,0,0,0,2,2,0,0,VALID,0,0,0,0,0,1,0,0,0,0,0,0,0,0,0,0,0,0,0,0,750.51,887.33,2,0,0.06,0.06,170,14.29,0.08,0.06,10.72,LANDED,X10-G,0:/Integrated Flight Computer/aircraft/x10_g_cfg.ks (inferred preloaded)
11.06,TAKEOFF,TO_GROUND_ROLL,9.96,80,70.04,3.64,-0.06,-0.22,0.09,90.28,0.104,1,0,0,0,0,0,0,0,0,0,90.38,0,1,0,-0.34,0,0,0,90,0,0,0,0,0,0,0,0,-0.002,0,0,0,0,90.38,1,-0.002,-0.102,0.0074,0.65,0,0.0074,0,0,0,0,0,0,2,2,0,0,VALID,0,0,0,0,0,1,0,0,0,0,0,0,0,0,0,0,0,0,0,0,757.88,887.21,2,0,0.06,0.06,174,14.29,0.08,0.06,11,LANDED,X10-G,0:/Integrated Flight Computer/aircraft/x10_g_cfg.ks (inferred preloaded)
11.34,TAKEOFF,TO_GROUND_ROLL,11.26,80,68.74,3.64,-0.07,-0.21,0.12,90.3,0.104,1,0,0,0,0,0,0,0,0,0,90.38,0,1,0,-0.35,0,0,0,90,0,0,0,0,0,0,0,0,-0.003,0,0,0,0,90.38,1,-0.003,-0.082,0.0055,0.663,0,0.0055,0,0,0,0,0,0,2,2,0,0,VALID,0,0,0,0,0,1,0,0,0,0,0,0,0,0,0,0,0,0,0,0,764.82,887.08,2,0,0.06,0.06,178,14.29,0.08,0.06,11.28,LANDED,X10-G,0:/Integrated Flight Computer/aircraft/x10_g_cfg.ks (inferred preloaded)
11.62,TAKEOFF,TO_GROUND_ROLL,12.58,80,67.42,3.64,-0.07,-0.21,0.07,90.32,0.105,1,0,0,0,0,0,0,0,0,0,90.38,0,1,0,-0.3,0,0,0,90,0,0,0,0,0,0,0,0,-0.004,0,0,0,0,90.38,1,-0.004,-0.062,0.0037,0.676,0,0.0037,0,0,0,0,0,0,2,2,0,0,VALID,0,0,0,0,0,1,0,0,0,0,0,0,0,0,0,0,0,0,0,0,771.36,886.93,2,0,0.06,0.06,182,14.29,0.08,0.06,11.56,LANDED,X10-G,0:/Integrated Flight Computer/aircraft/x10_g_cfg.ks (inferred preloaded)
11.9,TAKEOFF,TO_GROUND_ROLL,13.91,80,66.09,3.64,-0.08,-0.22,0.1,90.34,0.105,1,0,0,0,0,0,0,0,0,0,90.38,0,1,0,-0.34,0,0,0,90,0,0,0,0,0,0,0,0,-0.005,0,0,0,0,90.38,1,-0.005,-0.044,0.0022,0.689,0,0.0022,0,0,0,0,0,0,2,2,0,0,VALID,0,0,0,0,0,1,0,0,0,0,0,0,0,0,0,0,0,0,0,0,777.53,886.77,2,0,0.06,0.06,186,14.29,0.08,0.06,11.84,LANDED,X10-G,0:/Integrated Flight Computer/aircraft/x10_g_cfg.ks (inferred preloaded)
12.18,TAKEOFF,TO_GROUND_ROLL,15.25,80,64.75,3.64,-0.09,-0.21,0.09,90.36,0.105,1,0,0,0,0,0,0,0,0,0,90.38,0,1,0,-0.32,0,0,0,90,0,0,0,0,0,0,0,0,-0.007,0,0,0,0,90.38,1,-0.007,-0.028,0.0009,0.702,0,0.0009,0,0,0,0,0,0,2,2,0,0,VALID,0,0,0,0,0,1,0,0,0,0,0,0,0,0,0,0,0,0,0,0,783.34,886.59,2,0,0.06,0.06,190,14.29,0.08,0.06,12.12,LANDED,X10-G,0:/Integrated Flight Computer/aircraft/x10_g_cfg.ks (inferred preloaded)
12.46,TAKEOFF,TO_GROUND_ROLL,16.59,80,63.41,3.64,-0.09,-0.21,0.08,90.37,0.105,1,0,0,0,0,0,0,0,0,0,90.38,0,1,0,-0.32,0,0,0,90,0,0,0,0,0,0,0,0,-0.008,0,0,0,0,90.38,1,-0.008,-0.014,-0.0002,0.716,0,-0.0002,0,0,0,0,0,0,2,2,0,0,VALID,0,0,0,0,0,1,0,0,0,0,0,0,0,0,0,0,0,0,0,0,788.8,886.4,2,0,0.06,0.06,194,14.29,0.08,0.06,12.4,LANDED,X10-G,0:/Integrated Flight Computer/aircraft/x10_g_cfg.ks (inferred preloaded)
12.74,TAKEOFF,TO_GROUND_ROLL,17.95,80,62.05,3.64,-0.1,-0.21,0.1,90.38,0.105,1,0,0,0,0,0,0,0,0,0,90.38,0,1,0,-0.33,0,0,0,90,0,0,0,0,0,0,0,0,-0.01,0,0,0,0,90.38,1,-0.01,-0.001,-0.0011,0.73,0,-0.0011,0,0,0,0,0,0,2,2,0,0,VALID,0,0,0,0,0,1,0,0,0,0,0,0,0,0,0,0,0,0,0,0,793.95,886.2,2,0,0.06,0.06,198,14.29,0.08,0.06,12.68,LANDED,X10-G,0:/Integrated Flight Computer/aircraft/x10_g_cfg.ks (inferred preloaded)
13.02,TAKEOFF,TO_GROUND_ROLL,19.32,80,60.68,3.64,-0.11,-0.21,0.09,90.39,0.105,1,0,0,0,0,0,0,0,0,0,90.38,0,1,0,-0.32,0,0,0,90,0,0,0,0,0,0,0,0,-0.012,0,0,0,0,90.38,1,-0.012,0.01,-0.002,0.743,0,-0.002,0,0,0,0,0,0,2,2,0,0,VALID,0,0,0,0,0,1,0,0,0,0,0,0,0,0,0,0,0,0,0,0,798.79,885.99,2,0,0.06,0.06,202,14.29,0.08,0.06,12.96,LANDED,X10-G,0:/Integrated Flight Computer/aircraft/x10_g_cfg.ks (inferred preloaded)
13.3,TAKEOFF,TO_GROUND_ROLL,20.69,80,59.31,3.64,-0.12,-0.21,0.09,90.4,0.106,1,0,0,0,0,0,0,0,0,0,90.38,0,1,0,-0.32,0,0,0.01,90,0,0,0,0,0,0,0,0,-0.014,0,0,0,0,90.38,1,-0.014,0.021,-0.003,0.757,0,-0.003,0,0,0,0,0,0,2,2,0,0,VALID,0,0,0,0,0,1,0,0,0,0,0,0,0,0,0,0,0,0,0,0,803.35,885.76,2,0,0.06,0.06,206,14.29,0.08,0.06,13.24,LANDED,X10-G,0:/Integrated Flight Computer/aircraft/x10_g_cfg.ks (inferred preloaded)
13.58,TAKEOFF,TO_GROUND_ROLL,22.07,80,57.93,3.64,-0.12,-0.21,0.09,90.41,0.106,1,0,0,0,0,0,0,0,0,0,90.38,0,1,0,-0.32,0,0,0.01,90,0,0,0,0,0,0,0,0,-0.016,0,0,0,0,90.38,1,-0.016,0.03,-0.0039,0.771,0,-0.0039,0,0,0,0,0,0,2,2,0,0,VALID,0,0,0,0,0,1,0,0,0,0,0,0,0,0,0,0,0,0,0,0,807.64,885.53,2,0,0.06,0.06,210,14.29,0.08,0.06,13.52,LANDED,X10-G,0:/Integrated Flight Computer/aircraft/x10_g_cfg.ks (inferred preloaded)
13.86,TAKEOFF,TO_GROUND_ROLL,23.46,80,56.54,3.64,-0.13,-0.21,0.09,90.42,0.106,1,0,0,0,0,0,0,0,0,0,90.38,0,1,0,-0.32,0,0,0.01,90,0,0,0,0,0,0,0,0,-0.018,0,0,0,0,90.38,1,-0.018,0.038,-0.0047,0.785,0,-0.0047,0,0,0,0,0,0,2,2,0,0,VALID,0,0,0,0,0,1,0,0,0,0,0,0,0,0,0,0,0,0,0,0,811.67,885.29,2,0,0.06,0.06,214,14.29,0.08,0.06,13.8,LANDED,X10-G,0:/Integrated Flight Computer/aircraft/x10_g_cfg.ks (inferred preloaded)
14.14,TAKEOFF,TO_GROUND_ROLL,24.86,80,55.14,3.64,-0.14,-0.21,0.09,90.42,0.106,1,0,0,0,0,0,0,0,0,0,90.38,0,1,0,-0.32,0,0,0.01,90,0,0,0,0,0,0,0,0,-0.021,0,0,0,0,90.38,1,-0.021,0.046,-0.0056,0.799,0,-0.0056,0,0,0,0,0,0,2,2,0,0,VALID,0,0,0,0,0,1,0,0,0,0,0,0,0,0,0,0,0,0,0,0,815.46,885.04,2,0,0.06,0.06,218,14.29,0.08,0.06,14.08,LANDED,X10-G,0:/Integrated Flight Computer/aircraft/x10_g_cfg.ks (inferred preloaded)
14.42,TAKEOFF,TO_GROUND_ROLL,26.26,80,53.74,3.64,-0.15,-0.21,0.09,90.43,0.106,1,0,0,0,0,0,0,0,0,0,90.37,0,1,0,-0.32,0,0,0.01,90,0,0,0,0,0,0,0,0,-0.024,0,0,0,0,90.37,1,-0.024,0.052,-0.0062,0.813,0,-0.0062,0,0,0,0,0,0,2,2,0,0,VALID,0,0,0,0,0,1,0,0,0,0,0,0,0,0,0,0,0,0,0,0,819.02,884.79,2,0,0.06,0.06,222,14.29,0.08,0.06,14.36,LANDED,X10-G,0:/Integrated Flight Computer/aircraft/x10_g_cfg.ks (inferred preloaded)
14.7,TAKEOFF,TO_GROUND_ROLL,27.67,80,52.33,3.64,-0.15,-0.21,0.09,90.43,0.107,1,0,0,0,0,0,0,0,0,0,90.37,0,1,0,-0.32,0,0,0.01,90,0,0,0,0,0,0,0,0,-0.027,0,0,0,0,90.37,1,-0.027,0.057,-0.0069,0.827,0,-0.0069,0,0,0,0,0,0,2,2,0,0,VALID,0,0,0,0,0,1,0,0,0,0,0,0,0,0,0,0,0,0,0,0,822.37,884.53,2,0,0.06,0.06,226,14.29,0.08,0.06,14.64,LANDED,X10-G,0:/Integrated Flight Computer/aircraft/x10_g_cfg.ks (inferred preloaded)
14.98,TAKEOFF,TO_GROUND_ROLL,29.08,80,50.92,3.64,-0.16,-0.21,0.09,90.43,0.107,1,0,0,0,0,0,0,0,0,0,90.37,0,1,0,-0.31,0,0,0.01,90,0,0,0,0,0,0,0,0,-0.03,0,0,0,0,90.37,1,-0.03,0.062,-0.0076,0.841,0,-0.0076,0,0,0,0,0,0,2,2,0,0,VALID,0,0,0,0,0,1,0,0,0,0,0,0,0,0,0,0,0,0,0,0,825.51,884.26,2,0,0.06,0.06,230,14.29,0.08,0.06,14.92,LANDED,X10-G,0:/Integrated Flight Computer/aircraft/x10_g_cfg.ks (inferred preloaded)
15.26,TAKEOFF,TO_GROUND_ROLL,30.5,80,49.5,3.64,-0.17,-0.21,0.09,90.43,0.107,1,0,0,0,0,0,0,0,0,0,90.37,0,1,0,-0.31,0,0,0.01,90,0,0,0,0,0,0,0,0,-0.033,0,0,0,0,90.37,1,-0.033,0.066,-0.0079,0.855,0,-0.0079,0,0,0,0,0,0,2,2,0,0,VALID,0,0,0,0,0,1,0,0,0,0,0,0,0,0,0,0,0,0,0,0,828.46,883.99,2,0,0.06,0.06,234,14.29,0.08,0.06,15.2,LANDED,X10-G,0:/Integrated Flight Computer/aircraft/x10_g_cfg.ks (inferred preloaded)
15.54,TAKEOFF,TO_GROUND_ROLL,31.92,80,48.08,3.64,-0.17,-0.21,0.09,90.43,0.108,1,0,0,0,0,0,0,0,0,0,90.36,0,1,0,-0.31,0,0,0.01,90,0,0,0,0,0,0,0,0,-0.037,0,0,0,0,90.36,1,-0.037,0.069,-0.0084,0.869,0,-0.0084,0,0,0,0,0,0,2,2,0,0,VALID,0,0,0,0,0,1,0,0,0,0,0,0,0,0,0,0,0,0,0,0,831.24,883.71,2,0,0.06,0.06,238,14.29,0.08,0.06,15.48,LANDED,X10-G,0:/Integrated Flight Computer/aircraft/x10_g_cfg.ks (inferred preloaded)
15.82,TAKEOFF,TO_GROUND_ROLL,33.35,80,46.65,3.64,-0.18,-0.21,0.09,90.43,0.108,1,0,0,0,0,0,0,0,0,0,90.36,0,1,0,-0.31,0,0,0.01,90,0,0,0,0,0,0,0,0,-0.04,0,0,0,0,90.36,1,-0.04,0.072,-0.009,0.884,0,-0.009,0,0,0,0,0,0,2,2,0,0,VALID,0,0,0,0,0,1,0,0,0,0,0,0,0,0,0,0,0,0,0,0,833.84,883.44,2,0,0.06,0.06,242,14.29,0.08,0.06,15.76,LANDED,X10-G,0:/Integrated Flight Computer/aircraft/x10_g_cfg.ks (inferred preloaded)
16.1,TAKEOFF,TO_GROUND_ROLL,34.79,80,45.21,3.64,-0.19,-0.21,0.09,90.43,0.108,1,0,0,0,0,0,0,0,0,0,90.36,0,1,0,-0.31,0,0,0.01,90,0,0,0,0,0,0,0,0,-0.044,0,0,0,0,90.36,1,-0.044,0.075,-0.0094,0.898,0,-0.0094,0,0,0,0,0,0,2,2,0,0,VALID,0,0,0,0,0,1,0,0,0,0,0,0,0,0,0,0,0,0,0,0,836.29,883.16,2,0,0.06,0.06,246,14.29,0.08,0.06,16.04,LANDED,X10-G,0:/Integrated Flight Computer/aircraft/x10_g_cfg.ks (inferred preloaded)
16.38,TAKEOFF,TO_GROUND_ROLL,36.22,80,43.78,3.64,-0.19,-0.21,0.09,90.43,0.108,1,0,0,0,0,0,0,0,0,0,90.35,0,1,0,-0.31,0,0,0.01,90,0,0,0,0,0,0,0,0,-0.048,0,0,0,0,90.35,1,-0.048,0.077,-0.0097,0.912,0,-0.0097,0,0,0,0,0,0,2,2,0,0,VALID,0,0,0,0,0,1,0,0,0,0,0,0,0,0,0,0,0,0,0,0,838.58,882.89,2,0,0.06,0.06,250,14.29,0.08,0.06,16.32,LANDED,X10-G,0:/Integrated Flight Computer/aircraft/x10_g_cfg.ks (inferred preloaded)
16.66,TAKEOFF,TO_GROUND_ROLL,37.66,80,42.34,3.64,-0.2,-0.21,0.09,90.43,0.108,1,0,0,0,0,0,0,0,0,0,90.35,0,1,0,-0.31,0,0,0.01,90,0,0,0,0,0,0,0,0,-0.052,0,0,0,0,90.35,1,-0.052,0.078,-0.01,0.927,0,-0.01,0,0,0,0,0,0,2,2,0,0,VALID,0,0,0,0,0,1,0,0,0,0,0,0,0,0,0,0,0,0,0,0,840.74,882.61,2,0,0.06,0.06,254,14.29,0.08,0.06,16.6,LANDED,X10-G,0:/Integrated Flight Computer/aircraft/x10_g_cfg.ks (inferred preloaded)
16.94,TAKEOFF,TO_GROUND_ROLL,39.11,80,40.89,3.64,-0.21,-0.2,0.09,90.43,0.109,1,0,0,0,0,0,0,0,0,0,90.35,0,1,0,-0.31,0,0,0.02,90,0,0,0,0,0,0,0,0,-0.056,0,0,0,0,90.35,1,-0.056,0.08,-0.0104,0.941,0,-0.0104,0,0,0,0,0,0,2,2,0,0,VALID,0,0,0,0,0,1,0,0,0,0,0,0,0,0,0,0,0,0,0,0,842.77,882.34,2,0,0.06,0.06,258,14.29,0.08,0.06,16.88,LANDED,X10-G,0:/Integrated Flight Computer/aircraft/x10_g_cfg.ks (inferred preloaded)
17.22,TAKEOFF,TO_GROUND_ROLL,40.56,80,39.44,3.64,-0.21,-0.2,0.09,90.42,0.109,1,0,0,0,0,0,0,0,0,0,90.34,0,1,0,-0.3,0,0,0.02,90,0,0,0,0,0,0,0,0,-0.061,0,0,0,0,90.34,1,-0.061,0.082,-0.0108,0.956,0,-0.0108,0,0,0,0,0,0,2,2,0,0,VALID,0,0,0,0,0,1,0,0,0,0,0,0,0,0,0,0,0,0,0,0,844.67,882.07,2,0,0.06,0.06,262,14.29,0.08,0.06,17.16,LANDED,X10-G,0:/Integrated Flight Computer/aircraft/x10_g_cfg.ks (inferred preloaded)
17.5,TAKEOFF,TO_GROUND_ROLL,42.01,80,37.99,3.64,-0.22,-0.2,0.08,90.42,0.109,1,0,0,0,0,0,0,0,0,0,90.34,0,1,0,-0.3,0,0,0.02,90,0,0,0,0,0,0,0,0,-0.065,0,0,0,0,90.34,1,-0.065,0.083,-0.0112,0.97,0,-0.0112,0,0,0,0,0,0,2,2,0,0,VALID,0,0,0,0,0,1,0,0,0,0,0,0,0,0,0,0,0,0,0,0,846.45,881.8,2,0,0.06,0.06,266,14.29,0.08,0.06,17.44,LANDED,X10-G,0:/Integrated Flight Computer/aircraft/x10_g_cfg.ks (inferred preloaded)
17.78,TAKEOFF,TO_GROUND_ROLL,43.46,80,36.54,3.64,-0.23,-0.2,0.08,90.42,0.109,1,0,0,0,0,0,0,0,0,0,90.33,0,1,0,-0.3,0,0,0.02,90,0,0,0,0,0,0,0,0,-0.07,0,0,0,0,90.33,1,-0.07,0.084,-0.0114,0.985,0,-0.0114,0,0,0,0,0,0,2,2,0,0,VALID,0,0,0,0,0,1,0,0,0,0,0,0,0,0,0,0,0,0,0,0,848.13,881.54,2,0,0.06,0.06,270,14.29,0.08,0.06,17.72,LANDED,X10-G,0:/Integrated Flight Computer/aircraft/x10_g_cfg.ks (inferred preloaded)
18.06,TAKEOFF,TO_GROUND_ROLL,44.92,80,35.08,3.64,-0.23,-0.2,0.08,90.41,0.11,1,0,0,0,0,0,0,0,0,0,90.33,0,1,0,-0.3,0,0,0.02,90,0,0,0,0,0,0,0,0,-0.074,0,0,0,0,90.33,1,-0.074,0.085,-0.0116,0.999,0,-0.0116,0,0,0,0,0,0,2,2,0,0,VALID,0,0,0,0,0,1,0,0,0,0,0,0,0,0,0,0,0,0,0,0,849.71,881.29,2,0,0.06,0.06,274,14.29,0.08,0.06,18,LANDED,X10-G,0:/Integrated Flight Computer/aircraft/x10_g_cfg.ks (inferred preloaded)
18.34,TAKEOFF,TO_GROUND_ROLL,46.38,80,33.62,3.64,-0.24,-0.2,0.08,90.41,0.11,1,0,0,0,0,0,0,0,0,0,90.32,0,1,0,-0.3,0,0,0.02,90,0,0,0,0,0,0,0,0,-0.079,0,0,0,0,90.32,1,-0.079,0.086,-0.0118,1,0,-0.0118,0,0,0,0,0,0,2,2,0,0,VALID,0,0,0,0,0,1,0,0,0,0,0,0,0,0,0,0,0,0,0,0,851.2,881.05,2,0,0.06,0.06,278,14.29,0.08,0.06,18.28,LANDED,X10-G,0:/Integrated Flight Computer/aircraft/x10_g_cfg.ks (inferred preloaded)
18.62,TAKEOFF,TO_GROUND_ROLL,47.84,80,32.16,3.64,-0.25,-0.2,0.08,90.41,0.11,1,0,0,0,0,0,0,0,0,0,90.32,0,1,0,-0.3,0,0,0.02,90,0,0,0,0,0,0,0,0,-0.084,0,0,0,0,90.32,1,-0.084,0.087,-0.0121,1,0,-0.0121,0,0,0,0,0,0,2,2,0,0,VALID,0,0,0,0,0,1,0,0,0,0,0,0,0,0,0,0,0,0,0,0,852.6,880.81,2,0,0.06,0.06,282,14.29,0.08,0.06,18.56,LANDED,X10-G,0:/Integrated Flight Computer/aircraft/x10_g_cfg.ks (inferred preloaded)
18.9,TAKEOFF,TO_GROUND_ROLL,49.31,80,30.69,3.64,-0.25,-0.2,0.08,90.4,0.11,1,0,0,0,0,0,0,0,0,0,90.31,0,1,0,-0.29,0,0,0.02,90,0,0,0,0,0,0,0,0,-0.089,0,0,0,0,90.31,1,-0.089,0.088,-0.0122,1,0,-0.0122,0,0,0,0,0,0,2,2,0,0,VALID,0,0,0,0,0,1,0,0,0,0,0,0,0,0,0,0,0,0,0,0,853.92,880.58,2,0,0.06,0.06,286,14.29,0.08,0.06,18.84,LANDED,X10-G,0:/Integrated Flight Computer/aircraft/x10_g_cfg.ks (inferred preloaded)
19.18,TAKEOFF,TO_GROUND_ROLL,50.77,80,29.23,3.64,-0.26,-0.2,0.08,90.4,0.11,1,0,0,0,0,0,0,0,0,0,90.31,0,1,0,-0.29,0,0,0.03,90,0,0,0,0,0,0,0,0,-0.094,0,0,0,0,90.31,1,-0.094,0.089,-0.0124,1,0,-0.0124,0,0,0,0,0,0,2,2,0,0,VALID,0,0,0,0,0,1,0,0,0,0,0,0,0,0,0,0,0,0,0,0,855.17,880.37,2,0,0.06,0.06,290,14.29,0.08,0.06,19.12,LANDED,X10-G,0:/Integrated Flight Computer/aircraft/x10_g_cfg.ks (inferred preloaded)
19.46,TAKEOFF,TO_GROUND_ROLL,52.24,80,27.76,3.64,-0.27,-0.2,0.08,90.39,0.11,1,0,0,0,0,0,0,0,0,0,90.3,0,1,0,-0.29,0,0,0.03,90,0,0,0,0,0,0,0,0,-0.099,0,0,0,0,90.3,1,-0.099,0.091,-0.013,1,0,-0.013,0,0,0,0,0,0,2,2,0,0,VALID,0,0,0,0,0,1,0,0,0,0,0,0,0,0,0,0,0,0,0,0,856.35,880.17,2,0,0.06,0.06,294,14.29,0.08,0.06,19.4,LANDED,X10-G,0:/Integrated Flight Computer/aircraft/x10_g_cfg.ks (inferred preloaded)
19.74,TAKEOFF,TO_GROUND_ROLL,53.71,80,26.29,3.64,-0.27,-0.2,0.08,90.39,0.111,1,0,0,0,0,0,0,0,0,0,90.3,0,1,0,-0.29,0,0,0.03,90,0,0,0,0,0,0,0,0,-0.105,0,0,0,0,90.3,1,-0.105,0.09,-0.0123,1,0,-0.0123,0,0,0,0,0,0,2,2,0,0,VALID,0,0,0,0,0,1,0,0,0,0,0,0,0,0,0,0,0,0,0,0,857.46,879.98,2,0,0.06,0.06,298,14.29,0.08,0.06,19.68,LANDED,X10-G,0:/Integrated Flight Computer/aircraft/x10_g_cfg.ks (inferred preloaded)
20.02,TAKEOFF,TO_GROUND_ROLL,55.18,80,24.82,3.64,-0.28,-0.2,0.08,90.38,0.111,1,0,0,0,0,0,0,0,0,0,90.29,0,1,0,-0.29,0,0,0.03,90,0,0,0,0,0,0,0,0,-0.11,0,0,0,0,90.29,1,-0.11,0.093,-0.0133,1,0,-0.0133,0,0,0,0,0,0,2,2,0,0,VALID,0,0,0,0,0,1,0,0,0,0,0,0,0,0,0,0,0,0,0,0,858.52,879.8,2,0,0.06,0.06,302,14.29,0.08,0.06,19.96,LANDED,X10-G,0:/Integrated Flight Computer/aircraft/x10_g_cfg.ks (inferred preloaded)
20.3,TAKEOFF,TO_GROUND_ROLL,56.66,80,23.34,3.64,-0.28,-0.2,0.08,90.38,0.111,1,0,0,0,0,0,0,0,0,0,90.29,0,1,0,-0.29,0,0,0.03,90,0,0,0,0,0,0,0,0,-0.116,0,0,0,0,90.29,1,-0.116,0.094,-0.0131,1,0,-0.0131,0,0,0,0,0,0,2,2,0,0,VALID,0,0,0,0,0,1,0,0,0,0,0,0,0,0,0,0,0,0,0,0,859.52,879.64,2,0,0.06,0.06,306,14.29,0.08,0.06,20.24,LANDED,X10-G,0:/Integrated Flight Computer/aircraft/x10_g_cfg.ks (inferred preloaded)
20.58,TAKEOFF,TO_GROUND_ROLL,58.13,80,21.87,3.64,-0.29,-0.19,0.08,90.38,0.111,1,0,0,0,0,0,0,0,0,0,90.28,0,1,0,-0.28,0,0,0.03,90,0,0,0,0,0,0,0,0,-0.121,0,0,0,0,90.28,1,-0.121,0.095,-0.0133,1,0,-0.0133,0,0,0,0,0,0,2,2,0,0,VALID,0,0,0,0,0,1,0,0,0,0,0,0,0,0,0,0,0,0,0,0,860.48,879.5,2,0,0.06,0.06,310,14.29,0.08,0.06,20.52,LANDED,X10-G,0:/Integrated Flight Computer/aircraft/x10_g_cfg.ks (inferred preloaded)
20.86,TAKEOFF,TO_GROUND_ROLL,59.61,80,20.39,3.64,-0.29,-0.19,0.08,90.37,0.111,1,0,0,0,0,0,0,0,0,0,90.28,0,1,0,-0.28,0,0,0.04,90,0,0,0,0,0,0,0,0,-0.127,0,0,0,0,90.28,1,-0.127,0.096,-0.0135,1,0,-0.0135,0,0,0,0,0,0,2,2,0,0,VALID,0,0,0,0,0,1,0,0,0,0,0,0,0,0,0,0,0,0,0,0,861.39,879.37,2,0,0.06,0.06,314,14.29,0.08,0.06,20.8,LANDED,X10-G,0:/Integrated Flight Computer/aircraft/x10_g_cfg.ks (inferred preloaded)
21.14,TAKEOFF,TO_GROUND_ROLL,61.09,80,18.91,3.64,-0.3,-0.19,0.08,90.37,0.111,1,0,0,0,0,0,0,0,0,0,90.27,0,1,0,-0.28,0,0,0.04,90,0,0,0,0,0,0,0,0,-0.132,0,0,0,0,90.27,1,-0.132,0.1,-0.0145,1,0,-0.0145,0,0,0,0,0,0,2,2,0,0,VALID,0,0,0,0,0,1,0,0,0,0,0,0,0,0,0,0,0,0,0,0,862.27,879.27,2,0,0.06,0.06,318,14.29,0.08,0.06,21.08,LANDED,X10-G,0:/Integrated Flight Computer/aircraft/x10_g_cfg.ks (inferred preloaded)
21.42,TAKEOFF,TO_GROUND_ROLL,62.57,80,17.43,3.64,-0.3,-0.19,0.08,90.36,0.111,1,0,0,0,0,0,0,0,0,0,90.26,0,1,0,-0.28,0,0,0.04,90,0,0,0,0,0,0,0,0,-0.138,0,0,0,0,90.26,1,-0.138,0.099,-0.0141,1,0,-0.0141,0,0,0,0,0,0,2,2,0,0,VALID,0,0,0,0,0,1,0,0,0,0,0,0,0,0,0,0,0,0,0,0,863.11,879.18,2,0,0.06,0.06,322,14.29,0.08,0.06,21.36,LANDED,X10-G,0:/Integrated Flight Computer/aircraft/x10_g_cfg.ks (inferred preloaded)
21.7,TAKEOFF,TO_GROUND_ROLL,64.05,80,15.95,3.64,-0.31,-0.19,0.07,90.36,0.111,1,0,0,0,0,0,0,0,0,0,90.26,0,1,0,-0.28,0,0,0.04,90,0,0,0,0,0,0,0,0,-0.144,0,0,0,0,90.26,1,-0.144,0.101,-0.0143,1,0,-0.0143,0,0,0,0,0,0,2,2,0,0,VALID,0,0,0,0,0,1,0,0,0,0,0,0,0,0,0,0,0,0,0,0,863.92,879.12,2,0,0.06,0.06,326,14.29,0.08,0.06,21.64,LANDED,X10-G,0:/Integrated Flight Computer/aircraft/x10_g_cfg.ks (inferred preloaded)
21.98,TAKEOFF,TO_GROUND_ROLL,65.54,80,14.46,3.64,-0.31,-0.19,0.07,90.36,0.111,1,0,0,0,0,0,0,0,0,0,90.25,0,1,0,-0.28,0,0,0.04,90,0,0,0,0,0,0,0,0,-0.15,0,0,0,0,90.25,1,-0.15,0.104,-0.0152,1,0,-0.0152,0,0,0,0,0,0,2,2,0,0,VALID,0,0,0,0,0,1,0,0,0,0,0,0,0,0,0,0,0,0,0,0,864.71,879.07,2,0,0.06,0.06,330,14.29,0.08,0.06,21.92,LANDED,X10-G,0:/Integrated Flight Computer/aircraft/x10_g_cfg.ks (inferred preloaded)
22.26,TAKEOFF,TO_GROUND_ROLL,67.02,80,12.98,3.64,-0.32,-0.19,0.07,90.35,0.111,1,0,0,0,0,0,0,0,0,0,90.25,0,1,0,-0.27,0,0,0.04,90,0,0,0,0,0,0,0,0,-0.156,0,0,0,0,90.25,1,-0.156,0.103,-0.0146,1,0,-0.0146,0,0,0,0,0,0,2,2,0,0,VALID,0,0,0,0,0,1,0,0,0,0,0,0,0,0,0,0,0,0,0,0,865.47,879.05,2,0,0.06,0.06,334,14.29,0.08,0.06,22.2,LANDED,X10-G,0:/Integrated Flight Computer/aircraft/x10_g_cfg.ks (inferred preloaded)
22.54,TAKEOFF,TO_GROUND_ROLL,68.51,80,11.49,3.63,-0.41,-0.2,0.14,90.35,0.112,1,0,0,0,0,0,0,0,0,0,90.24,0,1,0,-0.35,0,0,0.05,90,0,0,0,0,0,0,0,0,-0.162,0,0,0,0,90.24,1,-0.162,0.105,-0.0151,1,0,-0.0151,0,0,0,0,0,0,2,2,0,0,VALID,0,0,0,0,0,1,0,0,0,0,0,0,0,0,0,0,0,0,0,0,866.23,879.08,2,0,0.06,0.06,338,14.29,0.08,0.06,22.48,LANDED,X10-G,0:/Integrated Flight Computer/aircraft/x10_g_cfg.ks (inferred preloaded)
22.82,TAKEOFF,TO_GROUND_ROLL,69.99,80,10.01,3.65,-0.28,-0.14,0.08,90.34,0.112,1,0,0,0,0,0,0,0,0,0,90.23,0,1,0,-0.23,0,0,0.05,90,0,0,0,0,0,0,0,0,-0.168,0,0,0,0,90.23,1,-0.168,0.108,-0.0158,1,0,-0.0158,0,0,0,0,0,0,2,2,0,0,VALID,0,0,0,0,0,1,0,0,0,0,0,0,0,0,0,0,0,0,0,0,867.21,879.38,2,0,0.06,0.06,342,14.29,0.08,0.06,22.76,LANDED,X10-G,0:/Integrated Flight Computer/aircraft/x10_g_cfg.ks (inferred preloaded)
23.1,TAKEOFF,TO_GROUND_ROLL,71.48,80,8.52,3.64,-0.36,-0.18,0.11,90.34,0.111,1,0,0,0,0,0,0,0,0,0,90.23,0,1,0,-0.29,0,0,0.05,90,0,0,0,0,0,0,0,0,-0.174,0,0,0,0,90.23,1,-0.174,0.108,-0.0155,1,0,-0.0155,0,0,0,0,0,0,2,2,0,0,VALID,0,0,0,0,0,1,0,0,0,0,0,0,0,0,0,0,0,0,0,0,868.48,880.03,2,0,0.06,0.06,346,14.29,0.08,0.06,23.04,LANDED,X10-G,0:/Integrated Flight Computer/aircraft/x10_g_cfg.ks (inferred preloaded)
23.38,TAKEOFF,TO_GROUND_ROLL,72.97,80,7.03,3.64,-0.32,-0.18,0.06,90.33,0.113,1,0,0,0,0,0,0,0,0,0,90.22,0,1,0,-0.25,0,0,0.05,90,0,0,0,0,0,0,0,0,-0.18,0,0,0,0,90.22,1,-0.18,0.109,-0.0159,1,0,-0.0159,0,0,0,0,0,0,2,2,0,0,VALID,0,0,0,0,0,1,0,0,0,0,0,0,0,0,0,0,0,0,0,0,870.06,881.02,2,0,0.06,0.06,350,14.29,0.08,0.06,23.32,LANDED,X10-G,0:/Integrated Flight Computer/aircraft/x10_g_cfg.ks (inferred preloaded)
23.66,TAKEOFF,TO_GROUND_ROLL,74.47,80,5.53,3.63,-0.35,-0.19,0.07,90.33,0.113,1,0,0,0,0,0,0,0,0,0,90.22,0,1,0,-0.27,0,0,0.05,90,0,0,0,0,0,0,0,0,-0.186,0,0,0,0,90.22,1,-0.186,0.11,-0.0159,1,0,-0.0159,0,0,0,0,0,0,2,2,0,0,VALID,0,0,0,0,0,1,0,0,0,0,0,0,0,0,0,0,0,0,0,0,871.93,882.33,2,0,0.06,0.06,354,14.29,0.08,0.06,23.6,LANDED,X10-G,0:/Integrated Flight Computer/aircraft/x10_g_cfg.ks (inferred preloaded)
23.94,TAKEOFF,TO_GROUND_ROLL,75.96,80,4.04,3.64,-0.34,-0.18,0.07,90.32,0.113,1,0,0,0,0,0,0,0,0,0,90.21,0,1,0,-0.26,0,0,0.06,90,0,0,0,0,0,0,0,0,-0.193,0,0,0,0,90.21,1,-0.193,0.111,-0.0161,1,0,-0.0161,0,0,0,0,0,0,2,2,0,0,VALID,0,0,0,0,0,1,0,0,0,0,0,0,0,0,0,0,0,0,0,0,874.07,883.95,2,0,0.06,0.06,358,14.29,0.08,0.06,23.88,LANDED,X10-G,0:/Integrated Flight Computer/aircraft/x10_g_cfg.ks (inferred preloaded)
24.22,TAKEOFF,TO_GROUND_ROLL,77.46,80,2.54,3.64,-0.35,-0.18,0.06,90.32,0.113,1,0,0,0,0,0,0,0,0,0,90.2,0,1,0,-0.26,0,0,0.06,90,0,0,0,0,0,0,0,0,-0.199,0,0,0,0,90.2,1,-0.199,0.112,-0.0163,1,0,-0.0163,0,0,0,0,0,0,2,2,0,0,VALID,0,0,0,0,0,1,0,0,0,0,0,0,0,0,0,0,0,0,0,0,876.49,885.88,2,0,0.06,0.06,362,14.29,0.08,0.06,24.16,LANDED,X10-G,0:/Integrated Flight Computer/aircraft/x10_g_cfg.ks (inferred preloaded)
24.5,TAKEOFF,TO_GROUND_ROLL,78.97,80,1.03,3.64,-0.35,-0.18,0.07,90.31,0.113,1,0,0,0,0,0,0,0,0,0,90.2,0,1,0,-0.26,0,0,0.06,90,0,0,0,0,0,0,0,0,-0.205,0,0,0,0,90.2,1,-0.205,0.113,-0.0164,1,0,-0.0164,0,0,0,0,0,0,2,2,0,0,VALID,0,0,0,0,0,1,0,0,0,0,0,0,0,0,0,0,0,0,0,0,879.19,888.11,2,0,0.06,0.06,366,14.29,0.08,0.06,24.44,LANDED,X10-G,0:/Integrated Flight Computer/aircraft/x10_g_cfg.ks (inferred preloaded)
24.78,TAKEOFF,TO_GROUND_ROLL,80.48,80,-0.48,3.64,-0.35,-0.18,0.06,90.31,0.113,1,0,0,0,0,0,0,0,0,0,90.19,0,1,0,-0.25,0,0,0.06,90,0,0,0,0,0,0,0,0,-0.211,0,0,0,0,90.19,1,-0.211,0.114,-0.0165,1,0,-0.0165,0,0,0,0,0,0,2,2,0,0,VALID,0,0,0,0,0,1,0,0,0,0,0,0,0,0,0,0,0,0,0,0,882.14,890.63,2,0,0.06,0.06,370,14.29,0.08,0.06,24.72,LANDED,X10-G,0:/Integrated Flight Computer/aircraft/x10_g_cfg.ks (inferred preloaded)
25.06,TAKEOFF,TO_GROUND_ROLL,81.99,80,-1.99,3.64,-0.36,-0.18,0.06,90.3,0.113,1,0,0,0,0,0,0,0,0,0,90.19,0,1,0,-0.25,0,0,0.06,90,0,0,0,0,0,0,0,0,-0.218,0,0,0,0,90.19,1,-0.218,0.114,-0.0167,1,0,-0.0167,0,0,0,0,0,0,2,2,0,0,VALID,0,0,0,0,0,1,0,0,0,0,0,0,0,0,0,0,0,0,0,0,885.35,893.44,2,0,0.06,0.06,374,14.29,0.08,0.06,25,LANDED,X10-G,0:/Integrated Flight Computer/aircraft/x10_g_cfg.ks (inferred preloaded)
25.34,TAKEOFF,TO_GROUND_ROLL,83.51,80,-3.51,3.64,-0.36,-0.17,0.06,90.29,0.113,1,0,0,0,0,0,0,0,0,0,90.18,0,1,0,-0.25,0,0,0.07,90,0,0,0,0,0,0,0,0,-0.224,0,0,0,0,90.18,1,-0.224,0.115,-0.0167,1,0,-0.0167,0,0,0,0,0,0,2,2,0,0,VALID,0,0,0,0,0,1,0,0,0,0,0,0,0,0,0,0,0,0,0,0,888.82,896.51,2,0,0.06,0.06,378,14.29,0.08,0.06,25.28,LANDED,X10-G,0:/Integrated Flight Computer/aircraft/x10_g_cfg.ks (inferred preloaded)
25.62,TAKEOFF,TO_GROUND_ROLL,85.04,80,-5.04,3.64,-0.36,-0.17,0.06,90.29,0.114,1,0,0,0,0,0,0,0,0,0,90.17,0,1,0,-0.24,0,0,0.07,90,0,0,0,0,0,0,0,0,-0.23,0,0,0,0,90.17,1,-0.23,0.116,-0.017,1,0,-0.017,0,0,0,0,0,0,2,2,0,0,VALID,0,0,0,0,0,1,0,0,0,0,0,0,0,0,0,0,0,0,0,0,892.52,899.86,2,0,0.06,0.06,382,14.29,0.08,0.06,25.56,LANDED,X10-G,0:/Integrated Flight Computer/aircraft/x10_g_cfg.ks (inferred preloaded)
25.9,TAKEOFF,TO_GROUND_ROLL,86.57,80,-6.57,3.64,-0.37,-0.17,0.06,90.28,0.114,1,0,0,0,0,0,0,0,0,0,90.17,0,1,0,-0.24,0,0,0.07,90,0,0,0,0,0,0,0,0,-0.236,0,0,0,0,90.17,1,-0.236,0.117,-0.0174,1,0,-0.0174,0,0,0,0,0,0,2,2,0,0,VALID,0,0,0,0,0,1,0,0,0,0,0,0,0,0,0,0,0,0,0,0,896.46,903.46,2,0,0.06,0.06,386,14.29,0.08,0.06,25.84,LANDED,X10-G,0:/Integrated Flight Computer/aircraft/x10_g_cfg.ks (inferred preloaded)
26.18,TAKEOFF,TO_GROUND_ROLL,88.11,80,-8.11,3.64,-0.37,-0.17,0.06,90.28,0.114,1,0,0,0,0,0,0,0,0,0,90.16,0,1,0,-0.24,0,0,0.07,90,0,0,0,0,0,0,0,0,-0.242,0,0,0,0,90.16,1,-0.242,0.118,-0.0174,1,0,-0.0174,0,0,0,0,0,0,2,2,0,0,VALID,0,0,0,0,0,1,0,0,0,0,0,0,0,0,0,0,0,0,0,0,900.64,907.31,2,0,0.06,0.06,390,14.29,0.08,0.06,26.12,LANDED,X10-G,0:/Integrated Flight Computer/aircraft/x10_g_cfg.ks (inferred preloaded)
26.46,TAKEOFF,TO_GROUND_ROLL,89.65,80,-9.65,3.63,-0.37,-0.17,0.06,90.27,0.115,1,0,0,0,0,0,0,0,0,0,90.15,0,1,0,-0.24,0,0,0.08,90,0,0,0,0,0,0,0,0,-0.249,0,0,0,0,90.15,1,-0.249,0.118,-0.0176,1,0,-0.0176,0,0,0,0,0,0,2,2,0,0,VALID,0,0,0,0,0,1,0,0,0,0,0,0,0,0,0,0,0,0,0,0,905.03,911.4,2,0,0.06,0.06,394,14.29,0.08,0.06,26.4,LANDED,X10-G,0:/Integrated Flight Computer/aircraft/x10_g_cfg.ks (inferred preloaded)
26.74,TAKEOFF,TO_GROUND_ROLL,91.21,80,-11.21,3.63,-0.37,-0.17,0.06,90.27,0.114,1,0,0,0,0,0,0,0,0,0,90.15,0,1,0,-0.23,0,0,0.08,90,0,0,0,0,0,0,0,0,-0.255,0,0,0,0,90.15,1,-0.255,0.117,-0.0172,1,0,-0.0172,0,0,0,0,0,0,2,2,0,0,VALID,0,0,0,0,0,1,0,0,0,0,0,0,0,0,0,0,0,0,0,0,909.65,915.73,2,0,0.06,0.06,398,14.29,0.08,0.06,26.68,LANDED,X10-G,0:/Integrated Flight Computer/aircraft/x10_g_cfg.ks (inferred preloaded)
27.02,TAKEOFF,TO_GROUND_ROLL,92.77,80,-12.77,3.63,-0.38,-0.17,0.06,90.26,0.114,1,0,0,0,0,0,0,0,0,0,90.14,0,1,0,-0.23,0,0,0.08,90,0,0,0,0,0,0,0,0,-0.261,0,0,0,0,90.14,1,-0.261,0.118,-0.0174,1,0,-0.0174,0,0,0,0,0,0,2,2,0,0,VALID,0,0,0,0,0,1,0,0,0,0,0,0,0,0,0,0,0,0,0,0,914.47,920.28,2,0,0.06,0.06,402,14.29,0.08,0.06,26.96,LANDED,X10-G,0:/Integrated Flight Computer/aircraft/x10_g_cfg.ks (inferred preloaded)
27.3,TAKEOFF,TO_GROUND_ROLL,94.34,80,-14.34,3.63,-0.38,-0.16,0.06,90.25,0.115,1,0,0,0,0,0,0,0,0,0,90.14,0,1,0,-0.23,0,0,0.08,90,0,0,0,0,0,0,0,0,-0.267,0,0,0,0,90.14,1,-0.267,0.117,-0.017,1,0,-0.017,0,0,0,0,0,0,2,2,0,0,VALID,0,0,0,0,0,1,0,0,0,0,0,0,0,0,0,0,0,0,0,0,919.5,925.05,2,0,0.06,0.06,406,14.29,0.08,0.06,27.24,LANDED,X10-G,0:/Integrated Flight Computer/aircraft/x10_g_cfg.ks (inferred preloaded)
27.58,TAKEOFF,TO_GROUND_ROLL,95.92,80,-15.92,3.63,-0.38,-0.16,0.06,90.25,0.115,1,0,0,0,0,0,0,0,0,0,90.13,0,1,0,-0.23,0,0,0.09,90,0,0,0,0,0,0,0,0,-0.273,0,0,0,0,90.13,1,-0.273,0.118,-0.0172,1,0,-0.0172,0,0,0,0,0,0,2,2,0,0,VALID,0,0,0,0,0,1,0,0,0,0,0,0,0,0,0,0,0,0,0,0,924.72,930.03,2,0,0.06,0.06,410,14.29,0.08,0.06,27.52,LANDED,X10-G,0:/Integrated Flight Computer/aircraft/x10_g_cfg.ks (inferred preloaded)
27.86,TAKEOFF,TO_GROUND_ROLL,97.51,80,-17.51,3.63,-0.38,-0.16,0.05,90.24,0.115,1,0,0,0,0,0,0,0,0,0,90.12,0,1,0,-0.22,0,0,0.09,90,0,0,0,0,0,0,0,0,-0.279,0,0,0,0,90.12,1,-0.279,0.118,-0.0173,1,0,-0.0173,0,0,0,0,0,0,2,2,0,0,VALID,0,0,0,0,0,1,0,0,0,0,0,0,0,0,0,0,0,0,0,0,930.13,935.21,2,0,0.06,0.06,414,14.29,0.08,0.06,27.8,LANDED,X10-G,0:/Integrated Flight Computer/aircraft/x10_g_cfg.ks (inferred preloaded)
28.14,TAKEOFF,TO_GROUND_ROLL,99.11,80,-19.11,3.63,-0.38,-0.16,0.05,90.24,0.115,1,0,0,0,0,0,0,0,0,0,90.12,0,1,0,-0.22,0,0,0.09,90,0,0,0,0,0,0,0,0,-0.285,0,0,0,0,90.12,1,-0.285,0.119,-0.0176,1,0,-0.0176,0,0,0,0,0,0,2,2,0,0,VALID,0,0,0,0,0,1,0,0,0,0,0,0,0,0,0,0,0,0,0,0,935.72,940.58,2,0,0.06,0.06,418,14.29,0.08,0.06,28.08,LANDED,X10-G,0:/Integrated Flight Computer/aircraft/x10_g_cfg.ks (inferred preloaded)
28.42,TAKEOFF,TO_GROUND_ROLL,100.71,80,-20.71,3.63,-0.41,-0.15,0.09,90.23,0.115,1,0,0,0,0,0,0,0,0,0,90.11,0,1,0,-0.24,0,0,0.1,90,0,0,0,0,0,0,0,0,-0.291,0,0,0,0,90.11,1,-0.291,0.119,-0.0175,1,0,-0.0175,0,0,0,0,0,0,2,2,0,0,VALID,0,0,0,0,0,1,0,0,0,0,0,0,0,0,0,0,0,0,0,0,941.48,946.13,2,0,0.06,0.06,422,14.29,0.08,0.06,28.36,LANDED,X10-G,0:/Integrated Flight Computer/aircraft/x10_g_cfg.ks (inferred preloaded)
28.7,TAKEOFF,TO_GROUND_ROLL,102.33,80,-22.33,3.66,-0.35,-0.08,0.11,90.23,0.115,1,0,0,0,0,0,0,0,0,0,90.11,0,1,0,-0.2,0,0,0.1,90,0,0,0,0,0,0,0,0,-0.297,0,0,0,0,90.11,1,-0.297,0.12,-0.0178,1,0,-0.0178,0,0,0,0,0,0,2,2,0,0,VALID,0,0,0,0,0,1,0,0,0,0,0,0,0,0,0,0,0,0,0,0,947.4,951.86,2,0,0.06,0.06,426,14.29,0.08,0.06,28.64,LANDED,X10-G,0:/Integrated Flight Computer/aircraft/x10_g_cfg.ks (inferred preloaded)
28.98,TAKEOFF,TO_GROUND_ROLL,103.96,80,-23.96,3.63,-0.41,-0.16,0.07,90.22,0.115,1,0,0,0,0,0,0,0,0,0,90.1,0,1,0,-0.23,0,0,0.1,90,0,0,0,0,0,0,0,0,-0.303,0,0,0,0,90.1,1,-0.303,0.117,-0.0168,1,0,-0.0168,0,0,0,0,0,0,2,2,0,0,VALID,0,0,0,0,0,1,0,0,0,0,0,0,0,0,0,0,0,0,0,0,953.47,957.74,2,0,0.06,0.06,430,14.29,0.08,0.06,28.92,LANDED,X10-G,0:/Integrated Flight Computer/aircraft/x10_g_cfg.ks (inferred preloaded)
29.26,TAKEOFF,TO_GROUND_ROLL,105.6,80,-25.6,3.64,-0.38,-0.15,0.05,90.21,0.118,1,0,0,0,0,0,0,0,0,0,90.1,0,1,0,-0.21,0,0,0.1,90,0,0,0,0,0,0,0,0,-0.308,0,0,0,0,90.1,1,-0.308,0.118,-0.0174,1,0,-0.0174,0,0,0,0,0,0,2,2,0,0,VALID,0,0,0,0,0,1,0,0,0,0,0,0,0,0,0,0,0,0,0,0,959.68,963.78,2,0,0.06,0.06,434,14.29,0.08,0.06,29.2,LANDED,X10-G,0:/Integrated Flight Computer/aircraft/x10_g_cfg.ks (inferred preloaded)
29.54,TAKEOFF,TO_GROUND_ROLL,107.25,80,-27.25,3.63,-0.38,-0.16,0.04,90.21,0.115,1,0,0,0,0,0,0,0,0,0,90.09,0,1,0,-0.2,0,0,0.11,90,0,0,0,0,0,0,0,0,-0.314,0,0,0,0,90.09,1,-0.314,0.117,-0.0169,1,0,-0.0169,0,0,0,0,0,0,2,2,0,0,VALID,0,0,0,0,0,1,0,0,0,0,0,0,0,0,0,0,0,0,0,0,966.03,969.96,2,0,0.06,0.06,438,14.29,0.08,0.06,29.48,LANDED,X10-G,0:/Integrated Flight Computer/aircraft/x10_g_cfg.ks (inferred preloaded)
29.82,TAKEOFF,TO_GROUND_ROLL,108.91,80,-28.91,3.63,-0.39,-0.15,0.05,90.2,0.115,1,0,0,0,0,0,0,0,0,0,90.08,0,1,0,-0.2,0,0,0.11,90,0,0,0,0,0,0,0,0,-0.32,0,0,0,0,90.08,1,-0.32,0.117,-0.0171,1,0,-0.0171,0,0,0,0,0,0,2,2,0,0,VALID,0,0,0,0,0,1,0,0,0,0,0,0,0,0,0,0,0,0,0,0,972.5,976.27,2,0,0.06,0.06,442,14.29,0.08,0.06,29.76,LANDED,X10-G,0:/Integrated Flight Computer/aircraft/x10_g_cfg.ks (inferred preloaded)
30.1,TAKEOFF,TO_GROUND_ROLL,110.58,80,-30.58,3.63,-0.38,-0.15,0.04,90.2,0.117,1,0,0,0,0,0,0,0,0,0,90.08,0,1,0,-0.2,0,0,0.11,90,0,0,0,0,0,0,0,0,-0.325,0,0,0,0,90.08,1,-0.325,0.117,-0.0171,1,0,-0.0171,0,0,0,0,0,0,2,2,0,0,VALID,0,0,0,0,0,1,0,0,0,0,0,0,0,0,0,0,0,0,0,0,979.08,982.7,2,0,0.06,0.06,446,14.29,0.08,0.06,30.04,LANDED,X10-G,0:/Integrated Flight Computer/aircraft/x10_g_cfg.ks (inferred preloaded)
30.38,TAKEOFF,TO_GROUND_ROLL,112.27,80,-32.27,3.63,-0.38,-0.15,0.05,90.19,0.116,1,0,0,0,0,0,0,0,0,0,90.07,0,1,0,-0.2,0,0,0.12,90,0,0,0,0,0,0,0,0,-0.33,0,0,0,0,90.07,1,-0.33,0.117,-0.017,1,0,-0.017,0,0,0,0,0,0,2,2,0,0,VALID,0,0,0,0,0,1,0,0,0,0,0,0,0,0,0,0,0,0,0,0,985.76,989.23,2,0,0.06,0.06,450,14.29,0.08,0.06,30.32,LANDED,X10-G,0:/Integrated Flight Computer/aircraft/x10_g_cfg.ks (inferred preloaded)
30.66,TAKEOFF,TO_GROUND_ROLL,113.96,80,-33.96,3.63,-0.38,-0.15,0.04,90.18,0.115,1,0,0,0,0,0,0,0,0,0,90.07,0,1,0,-0.19,0,0,0.12,90,0,0,0,0,0,0,0,0,-0.336,0,0,0,0,90.07,1,-0.336,0.116,-0.0169,1,0,-0.0169,0,0,0,0,0,0,2,2,0,0,VALID,0,0,0,0,0,1,0,0,0,0,0,0,0,0,0,0,0,0,0,0,992.53,995.86,2,0,0.06,0.06,454,14.29,0.08,0.06,30.6,LANDED,X10-G,0:/Integrated Flight Computer/aircraft/x10_g_cfg.ks (inferred preloaded)
30.94,TAKEOFF,TO_GROUND_ROLL,115.67,80,-35.67,3.63,-0.38,-0.14,0.04,90.18,0.116,1,0,0,0,0,0,0,0,0,0,90.06,0,1,0,-0.19,0,0,0.12,90,0,0,0,0,0,0,0,0,-0.341,0,0,0,0,90.06,1,-0.341,0.116,-0.017,1,0,-0.017,0,0,0,0,0,0,2,2,0,0,VALID,0,0,0,0,0,1,0,0,0,0,0,0,0,0,0,0,0,0,0,0,999.36,1002.56,2,0,0.06,0.06,458,14.29,0.08,0.06,30.88,LANDED,X10-G,0:/Integrated Flight Computer/aircraft/x10_g_cfg.ks (inferred preloaded)
31.22,TAKEOFF,TO_GROUND_ROLL,117.39,80,-37.39,3.63,-0.38,-0.14,0.04,90.17,0.116,1,0,0,0,0,0,0,0,0,0,90.06,0,1,0,-0.19,0,0,0.13,90,0,0,0,0,0,0,0,0,-0.346,0,0,0,0,90.06,1,-0.346,0.115,-0.0166,1,0,-0.0166,0,0,0,0,0,0,2,2,0,0,VALID,0,0,0,0,0,1,0,0,0,0,0,0,0,0,0,0,0,0,0,0,1006.26,1009.34,2,0,0.06,0.06,462,14.29,0.08,0.06,31.16,LANDED,X10-G,0:/Integrated Flight Computer/aircraft/x10_g_cfg.ks (inferred preloaded)
31.5,TAKEOFF,TO_GROUND_ROLL,119.13,80,-39.13,3.63,-0.38,-0.14,0.04,90.17,0.116,1,0,0,0,0,0,0,0,0,0,90.05,0,1,0,-0.18,0,0,0.13,90,0,0,0,0,0,0,0,0,-0.351,0,0,0,0,90.05,1,-0.351,0.114,-0.0164,1,0,-0.0164,0,0,0,0,0,0,2,2,0,0,VALID,0,0,0,0,0,1,0,0,0,0,0,0,0,0,0,0,0,0,0,0,1013.21,1016.16,2,0,0.06,0.06,466,14.29,0.08,0.06,31.44,LANDED,X10-G,0:/Integrated Flight Computer/aircraft/x10_g_cfg.ks (inferred preloaded)
31.78,TAKEOFF,TO_GROUND_ROLL,120.87,80,-40.87,3.63,-0.38,-0.14,0.04,90.16,0.116,1,0,0,0,0,0,0,0,0,0,90.05,0,1,0,-0.18,0,0,0.13,90,0,0,0,0,0,0,0,0,-0.356,0,0,0,0,90.05,1,-0.356,0.114,-0.0164,1,0,-0.0164,0,0,0,0,0,0,2,2,0,0,VALID,0,0,0,0,0,1,0,0,0,0,0,0,0,0,0,0,0,0,0,0,1020.18,1023.02,2,0,0.06,0.06,470,14.29,0.08,0.06,31.72,LANDED,X10-G,0:/Integrated Flight Computer/aircraft/x10_g_cfg.ks (inferred preloaded)
32.06,TAKEOFF,TO_GROUND_ROLL,122.63,80,-42.63,3.63,-0.37,-0.14,0.03,90.16,0.116,1,0,0,0,0,0,0,0,0,0,90.04,0,1,0,-0.17,0,0,0.14,90,0,0,0,0,0,0,0,0,-0.361,0,0,0,0,90.04,1,-0.361,0.115,-0.0168,1,0,-0.0168,0,0,0,0,0,0,2,2,0,0,VALID,0,0,0,0,0,1,0,0,0,0,0,0,0,0,0,0,0,0,0,0,1027.17,1029.89,2,0,0.06,0.06,474,14.29,0.08,0.06,32,LANDED,X10-G,0:/Integrated Flight Computer/aircraft/x10_g_cfg.ks (inferred preloaded)
32.34,TAKEOFF,TO_GROUND_ROLL,124.4,80,-44.4,3.63,-0.37,-0.14,0.03,90.15,0.116,1,0,0,0,0,0,0,0,0,0,90.04,0,1,0,-0.17,0,0,0.14,90,0,0,0,0,0,0,0,0,-0.366,0,0,0,0,90.04,1,-0.366,0.115,-0.017,1,0,-0.017,0,0,0,0,0,0,2,2,0,0,VALID,0,0,0,0,0,1,0,0,0,0,0,0,0,0,0,0,0,0,0,0,1034.16,1036.78,2,0,0.06,0.06,478,14.29,0.08,0.06,32.28,LANDED,X10-G,0:/Integrated Flight Computer/aircraft/x10_g_cfg.ks (inferred preloaded)
32.62,TAKEOFF,TO_GROUND_ROLL,126.18,80,-46.18,3.64,-0.24,-0.1,0,90.15,0.117,1,0,0,0,0,0,0,0,0,0,90.03,0,1,0,-0.11,0,0,0.14,90,0,0,0,0,0,0,0,0,-0.371,0,0,0,0,90.03,1,-0.371,0.114,-0.0167,1,0,-0.0167,0,0,0,0,0,0,2,2,0,0,VALID,0,0,0,0,0,1,0,0,0,0,0,0,0,0,0,0,0,0,0,0,1041.13,1043.64,2,0,0.06,0.06,482,14.29,0.08,0.06,32.56,LANDED,X10-G,0:/Integrated Flight Computer/aircraft/x10_g_cfg.ks (inferred preloaded)
32.9,TAKEOFF,TO_GROUND_ROLL,127.98,80,-47.98,3.63,-0.44,-0.15,0.05,90.14,0.116,1,0,0,0,0,0,0,0,0,0,90.03,0,1,0,-0.2,0,0,0.15,90,0,0,0,0,0,0,0,0,-0.375,0,0,0,0,90.03,1,-0.375,0.11,-0.0154,1,0,-0.0154,0,0,0,0,0,0,2,2,0,0,VALID,0,0,0,0,0,1,0,0,0,0,0,0,0,0,0,0,0,0,0,0,1048.06,1050.47,2,0,0.06,0.06,486,14.29,0.08,0.06,32.84,LANDED,X10-G,0:/Integrated Flight Computer/aircraft/x10_g_cfg.ks (inferred preloaded)
33.18,TAKEOFF,TO_GROUND_ROLL,129.79,80,-49.79,3.64,-0.34,-0.1,0.04,90.13,0.121,1,0,0,0,0,0,0,0,0,0,90.02,0,1,0,-0.15,0,0,0.15,90,0,0,0,0,0,0,0,0,-0.38,0,0,0,0,90.02,1,-0.38,0.109,-0.0156,1,0,-0.0156,0,0,0,0,0,0,2,2,0,0,VALID,0,0,0,0,0,1,0,0,0,0,0,0,0,0,0,0,0,0,0,0,1054.95,1057.27,2,0,0.06,0.06,490,14.29,0.08,0.06,33.12,LANDED,X10-G,0:/Integrated Flight Computer/aircraft/x10_g_cfg.ks (inferred preloaded)
33.48,TAKEOFF,TO_ROTATE,131.74,80,-51.74,3.63,-0.37,-0.14,0.02,90.13,0.117,1,0,0,0,0,0,0,0,0,0,90.02,0.625,1,0,-0.16,0,0,0.15,90,0,0,0,0,0,0,0,0,-0.384,0,0,0,0,90.02,1,-0.384,0.107,-0.0153,1,0,-0.0153,0,0.179,0.625,0.762,0.08,0,2,2,0,0,VALID,0,0,0,0,0,1,0,0,0,0,0,0,0,0,0,0,0,0,0,0,1062.42,1064.65,2,0,0.06,0.06,494,13.33,0.08,0.06,33.4,LANDED,X10-G,0:/Integrated Flight Computer/aircraft/x10_g_cfg.ks (inferred preloaded)
33.76,TAKEOFF,TO_ROTATE,133.57,80,-53.57,3.65,-0.37,-0.07,0.09,90.12,0.114,1,0,0,0,0,0,0,0,0,0,90.01,1.633,1,0,-0.16,0,0,0.16,90,0,0,0,0,0,0,0,0,-0.388,0,0,0,0,90.01,1,-0.388,0.108,-0.0157,1,0,-0.0157,0,0.3009,1.633,1.699,0.08,0,2,2,0,0,VALID,0,0,0,0,0,1,0,0,0,0,0,0,0,0,0,0,0,0,0,0,1069.52,1071.67,2,0,0.06,0.06,498,14.29,0.08,0.06,33.68,LANDED,X10-G,0:/Integrated Flight Computer/aircraft/x10_g_cfg.ks (inferred preloaded)
34.04,TAKEOFF,TO_ROTATE,135.42,80,-55.42,3.68,-0.35,0.04,0.18,90.12,0.118,1,0,0,0,0,0,0,0,0,0,90.01,2.641,1,0,-0.15,0,0,0.16,90,0,0,0,0,0,0,0,0,-0.392,0,0,0,0,90.01,1,-0.392,0.104,-0.0146,1,0,-0.0146,0,0.4186,2.641,2.604,0.08,0,2,2,0,0,VALID,0,0,0,0,0,1,0,0,0,0,0,0,0,0,0,0,0,0,0,0,1076.74,1078.82,2,0,0.06,0.06,502,14.29,0.08,0.06,33.96,LANDED,X10-G,0:/Integrated Flight Computer/aircraft/x10_g_cfg.ks (inferred preloaded)
34.32,TAKEOFF,TO_ROTATE,137.27,80,-57.27,3.74,-0.26,0.22,0.34,90.11,0.123,1,0,0,0,0,0,0,0,0,0,90.01,3.649,1,0,-0.13,0,0,0.16,90,0,0,0,0,0,0,0,0,-0.396,0,0,0,0,90.01,1,-0.396,0.1,-0.0138,1,0,-0.0138,0,0.5263,3.649,3.433,0.08,0,2,2,0,0,VALID,0,0,0,0,0,1,0,0,0,0,0,0,0,0,0,0,0,0,0,0,1084.07,1086.09,2,0,0.06,0.06,506,14.29,0.08,0.06,34.24,LANDED,X10-G,0:/Integrated Flight Computer/aircraft/x10_g_cfg.ks (inferred preloaded)
34.6,TAKEOFF,TO_ROTATE,139.13,80,-59.13,3.89,-0.4,0.63,0.78,90.1,0.116,1,0,0,0,0,0,0,0,0,0,90.01,4.657,1,0,-0.15,0,0,0.17,90,0,0,0,0,0,0,0,0,-0.399,0,0,0,0,90.01,1,-0.399,0.095,-0.0126,1,0,-0.0126,0,0.6041,4.657,4.031,0.08,0,2,2,0,0,VALID,0,0,0,0,0,1,0,0,0,0,0,0,0,0,0,0,0,0,0,0,1091.52,1093.47,2,0,0.06,0.06,510,14.29,0.08,0.06,34.52,LANDED,X10-G,0:/Integrated Flight Computer/aircraft/x10_g_cfg.ks (inferred preloaded)
34.88,TAKEOFF,TO_ROTATE,141,80,-61,4.07,-0.27,1.24,1.35,90.09,0.118,1,0,0,0,0,0,0,0,0,0,90,5.665,1,0,-0.12,0,0,0.17,90,0,0,0,0,0,0,0,0,-0.403,0,0,0,0,90,1,-0.403,0.091,-0.0118,1,0,-0.0118,0,0.6553,5.665,4.425,0.08,0,2,2,0,0,VALID,0,0,0,0,0,1,0,0,0,0,0,0,0,0,0,0,0,0,0,0,1099.07,1100.96,2,0,0.06,0.06,514,14.29,0.08,0.06,34.8,LANDED,X10-G,0:/Integrated Flight Computer/aircraft/x10_g_cfg.ks (inferred preloaded)
35.16,TAKEOFF,TO_ROTATE,142.87,80,-62.87,4.27,-0.36,1.87,2.01,90.08,0.115,1,0,0,0,0,0,0,0,0,0,90,6.673,1,0,-0.14,0,0,0.18,90,0,0,0,0,0,0,0,0,-0.406,0,0,0,0,90,1,-0.406,0.084,-0.0106,1,0,-0.0106,0,0.7043,6.673,4.803,0.08,0,2,2,0,0,VALID,0,0,0,0,0,1,0,0,0,0,0,0,0,0,0,0,0,0,0,0,1106.72,1108.56,2,0,0.06,0.06,518,14.29,0.08,0.06,35.08,LANDED,X10-G,0:/Integrated Flight Computer/aircraft/x10_g_cfg.ks (inferred preloaded)
35.44,TAKEOFF,TO_ROTATE,144.75,80,-64.75,4.4,-0.29,2.34,2.46,90.07,0.107,1,0,0,0,0,0,0,0,0,0,90,7.681,1,0,-0.12,0,0,0.18,90,0,0,0,0,0,0,0,0,-0.409,0,0,0,0,90,1,-0.409,0.077,-0.0094,1,0,-0.0094,0,0.72,7.681,5.336,0.08,0,2,2,0,0,VALID,0,0,0,0,0,1,0,0,0,0,0,0,0,0,0,0,0,0,0,0,1114.47,1116.25,2,0,0.06,0.06,522,14.29,0.08,0.06,35.36,LANDED,X10-G,0:/Integrated Flight Computer/aircraft/x10_g_cfg.ks (inferred preloaded)
35.72,TAKEOFF,TO_ROTATE,146.64,80,-66.64,4.46,-0.34,2.56,2.69,90.06,0.112,1,0,0,0,0,0,0,0,0,0,89.99,8.689,1,0,-0.13,0,0,0.18,90,0,0,0,0,0,0,0,0,-0.411,0,0,0,0,89.99,1,-0.411,0.07,-0.0083,1,0,-0.0083,0,0.72,8.689,6.129,0.08,0,2,2,0,0,VALID,0,0,0,0,0,1,0,0,0,0,0,0,0,0,0,0,0,0,0,0,1122.33,1124.06,2,0,0.06,0.06,526,14.29,0.08,0.06,35.64,LANDED,X10-G,0:/Integrated Flight Computer/aircraft/x10_g_cfg.ks (inferred preloaded)
36,TAKEOFF,TO_ROTATE,148.54,80,-68.54,4.43,-0.3,2.47,2.59,90.06,0.106,1,0,0,0,0,0,0,0,0,0,89.99,9.697,1,0,-0.12,0,0,0.19,90,0,0,0,0,0,0,0,0,-0.413,0,0,0,0,89.99,1,-0.413,0.067,-0.0084,1,0,-0.0084,0,0.72,9.697,7.225,0.08,0,2,2,0,0,VALID,0,0,0,0,0,1,0,0,0,0,0,0,0,0,0,0,0,0,0,0,1130.31,1132,2,0,0.06,0.06,530,14.29,0.08,0.06,35.92,LANDED,X10-G,0:/Integrated Flight Computer/aircraft/x10_g_cfg.ks (inferred preloaded)
36.28,TAKEOFF,TO_ROTATE,150.45,80,-70.45,4.34,-0.28,2.17,2.27,90.05,0.112,1,0,0,0,0,0,0,0,0,0,89.99,10.705,1,0,-0.1,0,0,0.19,90,0,0,0,0,0,0,0,0,-0.415,0,0,0,0,89.99,1,-0.415,0.062,-0.0074,1,0,-0.0074,0,0.72,10.705,8.534,0.08,0,2,2,0,0,VALID,0,0,0,0,0,1,0,0,0,0,0,0,0,0,0,0,0,0,0,0,1138.43,1140.07,2,0,0.06,0.06,534,14.29,0.08,0.06,36.2,LANDED,X10-G,0:/Integrated Flight Computer/aircraft/x10_g_cfg.ks (inferred preloaded)
36.56,TAKEOFF,TO_ROTATE,152.38,80,-72.38,4.22,-0.33,1.83,1.95,90.04,0.11,1,0,0,0,0,0,0,0,0,0,89.99,11.5,1,0,-0.13,0,0,0.2,90,0,0,0,0,0,0,0,0,-0.417,0,0,0,0,89.99,1,-0.417,0.056,-0.0066,1,0,-0.0066,0,0.72,11.5,9.674,0.08,0,2,2,0,0,VALID,0,0,0,0,0,1,0,0,0,0,0,0,0,0,0,0,0,0,0,0,1146.7,1148.3,2,0,0.06,0.06,538,14.29,0.08,0.06,36.48,LANDED,X10-G,0:/Integrated Flight Computer/aircraft/x10_g_cfg.ks (inferred preloaded)
36.84,TAKEOFF,TO_ROTATE,154.33,80,-74.33,4.16,-0.28,1.61,1.71,90.04,0.114,1,0,0,0,0,0,0,0,0,0,89.99,11.5,1,0,-0.1,0,0,0.2,90,0,0,0,0,0,0,0,0,-0.419,0,0,0,0,89.99,1,-0.419,0.048,-0.005,1,0,-0.005,0,0.72,11.5,9.893,0.08,0,2,2,0,0,VALID,0,0,0,0,0,1,0,0,0,0,0,0,0,0,0,0,0,0,0,0,1155.12,1156.68,2,0,0.06,0.06,542,14.29,0.08,0.06,36.76,LANDED,X10-G,0:/Integrated Flight Computer/aircraft/x10_g_cfg.ks (inferred preloaded)
37.12,TAKEOFF,TO_ROTATE,156.29,80,-76.29,4.16,-0.29,1.6,1.71,90.03,0.114,1,0,0,0,0,0,0,0,0,0,89.99,11.5,1,0,-0.11,0,0,0.2,90,0,0,0,0,0,0,0,0,-0.42,0,0,0,0,89.99,1,-0.42,0.04,-0.0039,1,0,-0.0039,0,0.72,11.5,9.896,0.08,0,2,2,0,0,VALID,0,0,0,0,0,1,0,0,0,0,0,0,0,0,0,0,0,0,0,0,1163.68,1165.21,2,0,0.06,0.06,546,14.29,0.08,0.06,37.04,LANDED,X10-G,0:/Integrated Flight Computer/aircraft/x10_g_cfg.ks (inferred preloaded)
37.4,TAKEOFF,TO_ROTATE,158.27,80,-78.27,4.23,-0.26,1.81,1.9,90.02,0.113,1,0,0,0,0,0,0,0,0,0,89.99,11.5,1,0,-0.09,0,0,0.21,90,0,0,0,0,0,0,0,0,-0.421,0,0,0,0,89.99,1,-0.421,0.031,-0.0026,1,0,-0.0026,0,0.72,11.5,9.688,0.08,0,2,2,0,0,VALID,0,0,0,0,0,1,0,0,0,0,0,0,0,0,0,0,0,0,0,0,1172.39,1173.89,2,0,0.06,0.06,550,14.29,0.08,0.06,37.32,LANDED,X10-G,0:/Integrated Flight Computer/aircraft/x10_g_cfg.ks (inferred preloaded)
37.68,TAKEOFF,TO_ROTATE,160.26,80,-80.26,4.33,-0.26,2.13,2.23,90.01,0.112,1,0,0,0,0,0,0,0,0,0,89.98,11.5,1,0,-0.09,0,0,0.21,90,0,0,0,0,0,0,0,0,-0.421,0,0,0,0,89.98,1,-0.421,0.024,-0.002,1,0,-0.002,0,0.72,11.5,9.365,0.08,0,2,2,0,0,VALID,0,0,0,0,0,1,0,0,0,0,0,0,0,0,0,0,0,0,0,0,1181.24,1182.71,2,0,0.06,0.06,554,14.29,0.08,0.06,37.6,LANDED,X10-G,0:/Integrated Flight Computer/aircraft/x10_g_cfg.ks (inferred preloaded)
37.96,TAKEOFF,TO_ROTATE,162.26,80,-82.26,4.42,-0.25,2.44,2.52,90,0.109,1,0,0,0,0,0,0,0,0,0,89.98,11.5,1,0,-0.09,0,0,0.22,90,0,0,0,0,0,0,0,0,-0.421,0,0,0,0,89.98,1,-0.421,0.02,-0.0019,1,0,-0.0019,0,0.72,11.5,9.062,0.08,0,2,2,0,0,VALID,0,0,0,0,0,1,0,0,0,0,0,0,0,0,0,0,0,0,0,0,1190.23,1191.67,2,0,0.06,0.06,558,14.29,0.08,0.06,37.88,LANDED,X10-G,0:/Integrated Flight Computer/aircraft/x10_g_cfg.ks (inferred preloaded)
38.24,TAKEOFF,TO_ROTATE,164.28,80,-84.28,4.47,-0.25,2.6,2.69,90,0.108,1,0,0,0,0,0,0,0,0,0,89.98,11.5,1,0,-0.09,0,0,0.22,90,0,0,0,0,0,0,0,0,-0.421,0,0,0,0,89.98,1,-0.421,0.019,-0.002,1,0,-0.002,0,0.72,11.5,8.898,0.08,0,2,2,0,0,VALID,0,0,0,0,0,1,0,0,0,0,0,0,0,0,0,0,0,0,0,0,1199.35,1200.76,2,0,0.06,0.06,562,14.29,0.08,0.06,38.16,LANDED,X10-G,0:/Integrated Flight Computer/aircraft/x10_g_cfg.ks (inferred preloaded)
38.52,TAKEOFF,TO_ROTATE,166.31,80,-86.31,4.46,-0.24,2.58,2.66,90,0.108,1,0,0,0,0,0,0,0,0,0,89.98,11.5,1,0,-0.08,0,0,0.23,90,0,0,0,0,0,0,0,0,-0.421,0,0,0,0,89.98,1,-0.421,0.018,-0.002,1,0,-0.002,0,0.72,11.5,8.921,0.08,0,2,2,0,0,VALID,0,0,0,0,0,1,0,0,0,0,0,0,0,0,0,0,0,0,0,0,1208.62,1210,2,0,0.06,0.06,566,14.29,0.08,0.06,38.44,LANDED,X10-G,0:/Integrated Flight Computer/aircraft/x10_g_cfg.ks (inferred preloaded)
38.8,TAKEOFF,TO_ROTATE,168.36,80,-88.36,4.4,-0.23,2.41,2.49,90,0.108,1,0,0,0,0,0,0,0,0,0,89.98,11.5,1,0,-0.08,0,0,0.23,90,0,0,0,0,0,0,0,0,-0.421,0,0,0,0,89.98,1,-0.421,0.02,-0.0027,1,0,-0.0027,0,0.72,11.5,9.087,0.08,0,2,2,0,0,VALID,0,0,0,0,0,1,0,0,0,0,0,0,0,0,0,0,0,0,0,0,1218.04,1219.41,2,0,0.06,0.06,570,14.29,0.08,0.06,38.72,LANDED,X10-G,0:/Integrated Flight Computer/aircraft/x10_g_cfg.ks (inferred preloaded)
39.08,TAKEOFF,TO_ROTATE,170.43,80,-90.43,4.34,-0.22,2.21,2.28,90,0.109,1,0,0,0,0,0,0,0,0,0,89.98,11.5,1,0,-0.07,0,0,0.23,90,0,0,0,0,0,0,0,0,-0.421,0,0,0,0,89.98,1,-0.421,0.018,-0.0023,1,0,-0.0023,0,0.72,11.5,9.288,0.08,0,2,2,0,0,VALID,0,0,0,0,0,1,0,0,0,0,0,0,0,0,0,0,0,0,0,0,1227.63,1228.97,2,0,0.06,0.06,574,14.29,0.08,0.06,39,LANDED,X10-G,0:/Integrated Flight Computer/aircraft/x10_g_cfg.ks (inferred preloaded)
39.36,TAKEOFF,TO_ROTATE,172.52,80,-92.52,4.3,-0.25,2.08,2.17,90,0.11,1,0,0,0,0,0,0,0,0,0,89.98,11.5,1,0,-0.09,0,0,0.24,90,0,0,0,0,0,0,0,0,-0.421,0,0,0,0,89.98,1,-0.421,0.015,-0.0015,1,0,-0.0015,0,0.72,11.5,9.416,0.08,0,2,2,0,0,VALID,0,0,0,0,0,1,0,0,0,0,0,0,0,0,0,0,0,0,0,0,1237.39,1238.71,2,0,0.06,0.06,578,14.29,0.08,0.06,39.28,LANDED,X10-G,0:/Integrated Flight Computer/aircraft/x10_g_cfg.ks (inferred preloaded)
39.64,TAKEOFF,TO_ROTATE,174.62,80,-94.62,4.31,-0.16,2.1,2.15,89.99,0.112,1,0,0,0,0,0,0,0,0,0,89.98,11.5,1,0,-0.05,0,0,0.24,90,0,0,0,0,0,0,0,0,-0.421,0,0,0,0,89.98,1,-0.421,0.012,-0.001,1,0,-0.001,0,0.72,11.5,9.402,0.08,0,2,2,0,0,VALID,0,0,0,0,0,1,0,0,0,0,0,0,0,0,0,0,0,0,0,0,1247.31,1248.62,2,0,0.06,0.06,582,14.29,0.08,0.06,39.56,LANDED,X10-G,0:/Integrated Flight Computer/aircraft/x10_g_cfg.ks (inferred preloaded)
39.92,TAKEOFF,TO_ROTATE,176.74,80,-96.74,4.35,-0.19,2.25,2.31,89.99,0.109,1,0,0,0,0,0,0,0,0,0,89.98,11.5,1,0,-0.06,0,0,0.25,90,0,0,0,0,0,0,0,0,-0.42,0,0,0,0,89.98,1,-0.42,0.009,-0.0008,1,0,-0.0008,0,0.72,11.5,9.255,0.08,0,2,2,0,0,VALID,0,0,0,0,0,1,0,0,0,0,0,0,0,0,0,0,0,0,0,0,1257.4,1258.69,2,0,0.06,0.06,586,14.29,0.08,0.06,39.84,LANDED,X10-G,0:/Integrated Flight Computer/aircraft/x10_g_cfg.ks (inferred preloaded)
40.2,TAKEOFF,TO_ROTATE,178.88,80,-98.88,4.42,-0.15,2.46,2.51,89.99,0.11,1,0,0,0,0,0,0,0,0,0,89.98,11.5,1,0,-0.05,0,0,0.25,90,0,0,0,0,0,0,0,0,-0.42,0,0,0,0,89.98,1,-0.42,0.007,-0.0007,1,0,-0.0007,0,0.72,11.5,9.038,0.08,0,2,2,0,0,VALID,0,0,0,0,0,1,0,0,0,0,0,0,0,0,0,0,0,0,0,0,1267.64,1268.92,2,0,0.06,0.06,590,14.29,0.08,0.06,40.12,LANDED,X10-G,0:/Integrated Flight Computer/aircraft/x10_g_cfg.ks (inferred preloaded)
40.48,TAKEOFF,TO_ROTATE,181.04,80,-101.04,4.48,-0.15,2.66,2.7,89.99,0.107,1,0,0,0,0,0,0,0,0,0,89.98,11.5,1,0,-0.05,0,0,0.26,90,0,0,0,0,0,0,0,0,-0.419,0,0,0,0,89.98,1,-0.419,0.008,-0.0012,1,0,-0.0012,0,0.72,11.5,8.845,0.08,0,2,2,0,0,VALID,0,0,0,0,0,1,0,0,0,0,0,0,0,0,0,0,0,0,0,0,1278.04,1279.3,2,0,0.06,0.06,594,14.29,0.08,0.06,40.4,LANDED,X10-G,0:/Integrated Flight Computer/aircraft/x10_g_cfg.ks (inferred preloaded)
