t_s,phase,subphase,ias_ms,vapp_ms,spd_err_ms,agl_m,vs_ms,pitch_deg,aoa_deg,hdg_deg,bank_deg,thr_cmd,thr_cur,thr_intg,at_gain,at_tau_s,at_a_up,at_a_dn,at_kp_thr,at_ki_spd,at_thr_slew,aa_hdg_cmd_deg,aa_fpa_cmd_deg,aa_fbw,aa_dir,actual_fpa_deg,ftf_hdg_err_deg,ftf_fix_idx,kos_steer_pit_deg,kos_steer_hdg_deg,aa_dir_vx,aa_dir_vy,aa_dir_vz,aa_dir_pitch_deg,aa_dir_hdg_deg,ils_loc_m,ils_gs_m,ils_dist_km,loc_corr_deg,gs_corr_deg,flare_fpa_cmd,flare_tgt_vs,flare_frac,steer_hdg_deg,steer_blend,ro_loc_corr_deg,ro_hdg_err_deg,ro_yaw_tgt,ro_yaw_scale,ro_yaw_gate,yaw_cmd,roll_cmd,pitch_cmd,ro_pitch_tgt_deg,ro_pitch_err_deg,ro_pitch_ff,ro_roll_assist,flaps_cur,flaps_tgt,asc_j_ab,asc_j_rk,asc_validity,asc_q_pa,asc_q_raw_pa,asc_mach,asc_apo_m,asc_drag_n,asc_w_prop,asc_edot_aero,asc_edot_orb,asc_pitch_bias,asc_blend,asc_spooling,asc_ab_thr_ratio,asc_ab_t_now,asc_ab_t_avail,asc_ab_ign_on,asc_ab_flameouts,asc_rk_t_now,asc_rk_t_avail,asc_rk_ign_on,asc_rk_flameouts,ship_thrust,ship_avail_thrust,ship_ign_on,ship_flameouts,ifc_raw_dt_s,ifc_dt_s,ifc_loop_n,ifc_hz_est,ifc_raw_dt_max_s,ifc_raw_dt_min_s,phase_el_s,status,craft_name,cfg_file
0.1,APPROACH,ILS_TRACK,72.06,73,0.94,2257.84,-8.44,1.67,7.27,271.78,2.52,0,0,0,0,0,0,0,0,0,0,0,0,1,0,-6.68,0,0,0,90,0,0,0,0,0,0,0,33.854,0,0,0,0,0,271.77,0,0,0,0,0,0,0,0,0,0,0,0,0,0,0,0,0,VALID,0,0,0,0,0,1,0,0,0,0,0,0,0,0,0,0,0,0,0,0,208.94,363.9,2,0,0.1,0.1,1,3.7,0.1,0.02,0.1,FLYING,CF1-F,0:/Integrated Flight Computer/aircraft/cf1_f_cfg.ks (inferred preloaded)
0.38,APPROACH,ILS_TRACK,72.8,73,0.2,2255.56,-8.87,2.54,8.47,271.78,2.616,0,0,0,0,0,0,0,0,0,0,270.26,-5.063,0,0,-6.94,0,0,-5.06,270.25,0,0,0,0,0,-0.56,412.68,33.832,-0.138,0,0,0,0,271.77,0,0,0,0,0,0,0,0,0,0,0,0,0,1,1,0,0,VALID,0,0,0,0,0,1,0,0,0,0,0,0,0,0,0,0,0,0,0,0,194.57,363.52,2,0,0.06,0.06,4,10.71,0.1,0.06,0.38,FLYING,CF1-F,0:/Integrated Flight Computer/aircraft/cf1_f_cfg.ks (inferred preloaded)
0.64,APPROACH,ILS_TRACK,73.39,73,-0.39,2253.21,-9.04,2.49,8.47,271.57,2.312,0,0,0,0,0,0,0,0,0,0,270.19,-5.058,0,0,-7.01,0,0,-5.06,270.21,0,0,0,0,0,-0.34,411.51,33.809,-0.211,0,0,0,0,271.77,0,0,0,0,0,0,0,0,0,0,0,0,0,1,1,0,0,VALID,0,0,0,0,0,1,0,0,0,0,0,0,0,0,0,0,0,0,0,0,182.16,363.24,2,0,0.1,0.1,7,11.54,0.1,0.06,0.64,FLYING,CF1-F,0:/Integrated Flight Computer/aircraft/cf1_f_cfg.ks (inferred preloaded)
0.92,APPROACH,ILS_TRACK,73.98,73,-0.98,2250.46,-9.32,1.51,7.61,271.24,1.73,0,0,0,0,0,0,0,0,0,0,270.16,-5.05,0,0,-7.16,0,0,-5.05,270.16,0,0,0,0,0,-0.07,410.05,33.785,-0.237,0,0,0,0,271.77,0,0,0,0,0,0,0,0,0,0,0,0,0,1,1,0,0,VALID,0,0,0,0,0,1,0,0,0,0,0,0,0,0,0,0,0,0,0,0,169.69,362.97,2,0,0.08,0.08,11,14.29,0.1,0.06,0.92,FLYING,CF1-F,0:/Integrated Flight Computer/aircraft/cf1_f_cfg.ks (inferred preloaded)
1.2,APPROACH,ILS_TRACK,74.57,73,-1.57,2247.61,-9.96,0.56,7.02,271.13,1.472,0,0,0,0,0,0,0,0,0,0,270.16,-5.042,0,0,-7.57,0,0,-5.04,270.14,0,0,0,0,0,0.2,408.47,33.761,-0.24,0,0,0,0,271.77,0,0,0,0,0,0,0,0,0,0,0,0,0,1,1,0,0,VALID,0,0,0,0,0,1,0,0,0,0,0,0,0,0,0,0,0,0,0,0,158.07,362.71,2,0,0.08,0.08,15,14.29,0.08,0.06,1.2,FLYING,CF1-F,0:/Integrated Flight Computer/aircraft/cf1_f_cfg.ks (inferred preloaded)
1.48,APPROACH,ILS_TRACK,75.13,73,-2.13,2244.72,-10.53,0.45,7.25,271.22,1.381,0,0,0,0,0,0,0,0,0,0,270.14,-5.034,0,0,-7.96,0,0,-5.04,270.11,0,0,0,0,0,0.48,406.87,33.737,-0.26,0,0,0,0,271.77,0,0,0,0,0,0,0,0,0,0,0,0,0,1,1,0,0,VALID,0,0,0,0,0,1,0,0,0,0,0,0,0,0,0,0,0,0,0,0,147.26,362.47,2,0,0.08,0.08,19,14.29,0.08,0.06,1.48,FLYING,CF1-F,0:/Integrated Flight Computer/aircraft/cf1_f_cfg.ks (inferred preloaded)
1.76,APPROACH,ILS_TRACK,75.59,73,-2.59,2241.67,-10.83,0.21,7.18,271.27,1.281,0,0,0,0,0,0,0,0,0,0,270.09,-5.026,0,0,-8.14,0,0,-5.03,270.1,0,0,0,0,0,0.78,405.12,33.712,-0.311,0,0,0,0,271.77,0,0,0,0,0,0,0,0,0,0,0,0,0,1,1,0,0,VALID,0,0,0,0,0,1,0,0,0,0,0,0,0,0,0,0,0,0,0,0,137.21,362.3,2,0,0.08,0.08,23,14.29,0.08,0.06,1.76,FLYING,CF1-F,0:/Integrated Flight Computer/aircraft/cf1_f_cfg.ks (inferred preloaded)
2.04,APPROACH,ILS_TRACK,75.92,73,-2.92,2238.35,-11.24,-1.08,6.11,271.28,1.25,0,0,0,0,0,0,0,0,0,0,270.07,-5.016,0,0,-8.4,0,0,-5.02,270.09,0,0,0,0,0,1.09,403.12,33.687,-0.331,0,0,0,0,271.77,0,0,0,0,0,0,0,0,0,0,0,0,0,1,1,0,0,VALID,0,0,0,0,0,1,0,0,0,0,0,0,0,0,0,0,0,0,0,0,127.89,362.22,2,0,0.08,0.08,27,14.29,0.08,0.06,2.04,FLYING,CF1-F,0:/Integrated Flight Computer/aircraft/cf1_f_cfg.ks (inferred preloaded)
2.32,APPROACH,ILS_TRACK,76.23,73,-3.23,2234.86,-11.97,-2.52,5.1,271.29,1.228,0,0,0,0,0,0,0,0,0,0,270.04,-5.005,0,0,-8.88,0,0,-5.01,270.05,0,0,0,0,0,1.42,400.94,33.662,-0.359,0,0,0,0,271.77,0,0,0,0,0,0,0,0,0,0,0,0,0,1,1,0,0,VALID,0,0,0,0,0,1,0,0,0,0,0,0,0,0,0,0,0,0,0,0,119.2,362.17,2,0,0.08,0.08,31,14.29,0.08,0.06,2.32,FLYING,CF1-F,0:/Integrated Flight Computer/aircraft/cf1_f_cfg.ks (inferred preloaded)
2.6,APPROACH,ILS_TRACK,76.52,73,-3.52,2231.18,-12.91,-3.69,4.49,271.3,1.218,0,0,0,0,0,0,0,0,0,0,270.01,-4.993,0,0,-9.52,0,0,-5,270.02,0,0,0,0,0,1.77,398.57,33.638,-0.387,0,0,0,0,271.77,0,0,0,0,0,0,0,0,0,0,0,0,0,1,1,0,0,VALID,0,0,0,0,0,1,0,0,0,0,0,0,0,0,0,0,0,0,0,0,111.11,362.13,2,0,0.08,0.08,35,14.29,0.08,0.06,2.6,FLYING,CF1-F,0:/Integrated Flight Computer/aircraft/cf1_f_cfg.ks (inferred preloaded)
2.88,APPROACH,ILS_TRACK,76.8,73,-3.8,2227.35,-13.84,-4.12,4.64,271.33,1.219,0,0,0,0,0,0,0,0,0,0,270.01,-4.98,0,0,-10.17,0,0,-4.98,269.98,0,0,0,0,0,2.12,396.06,33.613,-0.392,0,0,0,0,271.77,0,0,0,0,0,0,0,0,0,0,0,0,0,1,1,0,0,VALID,0,0,0,0,0,1,0,0,0,0,0,0,0,0,0,0,0,0,0,0,103.58,362.12,2,0,0.08,0.08,39,14.29,0.08,0.06,2.88,FLYING,CF1-F,0:/Integrated Flight Computer/aircraft/cf1_f_cfg.ks (inferred preloaded)
3.16,APPROACH,ILS_TRACK,77.03,73,-4.03,2223.38,-14.77,-3.97,5.37,271.37,1.224,0,0,0,0,0,0,0,0,0,0,269.97,-4.967,0,0,-10.81,0,0,-4.97,269.99,0,0,0,0,0,2.48,393.4,33.588,-0.429,0,0,0,0,271.77,0,0,0,0,0,0,0,0,0,0,0,0,0,1,1,0,0,VALID,0,0,0,0,0,1,0,0,0,0,0,0,0,0,0,0,0,0,0,0,96.56,362.14,2,0,0.08,0.08,43,14.29,0.08,0.06,3.16,FLYING,CF1-F,0:/Integrated Flight Computer/aircraft/cf1_f_cfg.ks (inferred preloaded)
3.44,APPROACH,ILS_TRACK,77.2,73,-4.2,2219.43,-15.42,-2.32,7.44,271.43,1.121,0,0,0,0,0,0,0,0,0,0,269.92,-4.954,0,0,-11.28,0,0,-4.96,269.95,0,0,0,0,0,2.87,390.75,33.563,-0.475,0,0,0,0,271.77,0,0,0,0,0,0,0,0,0,0,0,0,0,1,1,0,0,VALID,0,0,0,0,0,1,0,0,0,0,0,0,0,0,0,0,0,0,0,0,90.04,362.22,2,0,0.08,0.08,47,14.29,0.08,0.06,3.44,FLYING,CF1-F,0:/Integrated Flight Computer/aircraft/cf1_f_cfg.ks (inferred preloaded)
3.72,APPROACH,ILS_TRACK,77.25,73,-4.25,2215.5,-15.26,-0.07,9.63,271.46,0.803,0,0,0,0,0,0,0,0,0,0,269.91,-4.941,0,0,-11.2,0,0,-4.94,269.93,0,0,0,0,0,3.25,388.13,33.538,-0.486,0,0,0,0,271.77,0,0,0,0,0,0,0,0,0,0,0,0,0,1,1,0,0,VALID,0,0,0,0,0,1,0,0,0,0,0,0,0,0,0,0,0,0,0,0,83.97,362.38,2,0,0.08,0.08,51,14.29,0.08,0.06,3.72,FLYING,CF1-F,0:/Integrated Flight Computer/aircraft/cf1_f_cfg.ks (inferred preloaded)
4,APPROACH,ILS_TRACK,77.16,73,-4.16,2211.43,-14.7,0.74,10.1,271.45,0.611,0,0,0,0,0,0,0,0,0,0,269.89,-4.927,0,0,-10.81,0,0,-4.93,269.88,0,0,0,0,0,3.66,385.38,33.513,-0.506,0,0,0,0,271.77,0,0,0,0,0,0,0,0,0,0,0,0,0,1,1,0,0,VALID,0,0,0,0,0,1,0,0,0,0,0,0,0,0,0,0,0,0,0,0,78.33,362.63,2,0,0.08,0.08,55,14.29,0.08,0.06,4,FLYING,CF1-F,0:/Integrated Flight Computer/aircraft/cf1_f_cfg.ks (inferred preloaded)
4.28,APPROACH,ILS_TRACK,77.02,73,-4.02,2207.33,-14.32,0.48,9.61,271.46,0.618,0,0,0,0,0,0,0,0,0,0,269.87,-4.913,0,0,-10.54,0,0,-4.92,269.86,0,0,0,0,0,4.07,382.58,33.488,-0.529,0,0,0,0,271.77,0,0,0,0,0,0,0,0,0,0,0,0,0,1,1,0,0,VALID,0,0,0,0,0,1,0,0,0,0,0,0,0,0,0,0,0,0,0,0,73.08,362.9,2,0,0.08,0.08,59,14.29,0.08,0.06,4.28,FLYING,CF1-F,0:/Integrated Flight Computer/aircraft/cf1_f_cfg.ks (inferred preloaded)
4.56,APPROACH,ILS_TRACK,76.9,73,-3.9,2203.33,-14.16,0.36,9.38,271.45,0.363,0,0,0,0,0,0,0,0,0,0,269.84,-4.899,0,0,-10.44,0,0,-4.9,269.84,0,0,0,0,0,4.49,379.87,33.463,-0.561,0,0,0,0,271.77,0,0,0,0,0,0,0,0,0,0,0,0,0,1,1,0,0,VALID,0,0,0,0,0,1,0,0,0,0,0,0,0,0,0,0,0,0,0,0,68.18,363.16,2,0,0.08,0.08,63,14.29,0.08,0.06,4.56,FLYING,CF1-F,0:/Integrated Flight Computer/aircraft/cf1_f_cfg.ks (inferred preloaded)
4.84,APPROACH,ILS_TRACK,76.77,73,-3.77,2199.41,-13.97,0.49,9.41,271.42,0.129,0,0,0,0,0,0,0,0,0,0,269.81,-4.886,0,0,-10.32,0,0,-4.89,269.85,0,0,0,0,0,4.92,377.25,33.439,-0.59,0,0,0,0,271.77,0,0,0,0,0,0,0,0,0,0,0,0,0,1,1,0,0,VALID,0,0,0,0,0,1,0,0,0,0,0,0,0,0,0,0,0,0,0,0,63.6,363.43,2,0,0.08,0.08,67,14.29,0.08,0.06,4.84,FLYING,CF1-F,0:/Integrated Flight Computer/aircraft/cf1_f_cfg.ks (inferred preloaded)
5.12,APPROACH,ILS_TRACK,76.62,73,-3.62,2195.56,-13.77,0.64,9.46,271.38,-0.077,0,0,0,0,0,0,0,0,0,0,269.81,-4.873,0,0,-10.2,0,0,-4.88,269.79,0,0,0,0,0,5.35,374.69,33.414,-0.593,0,0,0,0,271.77,0,0,0,0,0,0,0,0,0,0,0,0,0,1,1,0,0,VALID,0,0,0,0,0,1,0,0,0,0,0,0,0,0,0,0,0,0,0,0,59.34,363.7,2,0,0.08,0.08,71,14.29,0.08,0.06,5.12,FLYING,CF1-F,0:/Integrated Flight Computer/aircraft/cf1_f_cfg.ks (inferred preloaded)
5.4,APPROACH,ILS_TRACK,76.45,73,-3.45,2191.76,-13.58,0.81,9.53,271.34,-0.256,0,0,0,0,0,0,0,0,0,0,269.78,-4.861,0,0,-10.08,0,0,-4.86,269.78,0,0,0,0,0,5.78,372.18,33.389,-0.619,0,0,0,0,271.77,0,0,0,0,0,0,0,0,0,0,0,0,0,1,1,0,0,VALID,0,0,0,0,0,1,0,0,0,0,0,0,0,0,0,0,0,0,0,0,55.36,363.98,2,0,0.08,0.08,75,14.29,0.08,0.06,5.4,FLYING,CF1-F,0:/Integrated Flight Computer/aircraft/cf1_f_cfg.ks (inferred preloaded)
5.68,APPROACH,ILS_TRACK,76.26,73,-3.26,2188.01,-13.4,0.98,9.6,271.31,-0.41,0,0,0,0,0,0,0,0,0,0,269.78,-4.849,0,0,-9.97,0,0,-4.85,269.79,0,0,0,0,0,6.2,369.73,33.364,-0.619,0,0,0,0,271.77,0,0,0,0,0,0,0,0,0,0,0,0,0,1,1,0,0,VALID,0,0,0,0,0,1,0,0,0,0,0,0,0,0,0,0,0,0,0,0,51.65,364.28,2,0,0.08,0.08,79,14.29,0.08,0.06,5.68,FLYING,CF1-F,0:/Integrated Flight Computer/aircraft/cf1_f_cfg.ks (inferred preloaded)
5.96,APPROACH,ILS_TRACK,76.06,73,-3.06,2184.32,-13.21,1.15,9.67,271.27,-0.542,0,0,0,0,0,0,0,0,0,0,269.75,-4.837,0,0,-9.86,0,0,-4.84,269.79,0,0,0,0,0,6.62,367.32,33.34,-0.648,0,0,0,0,271.77,0,0,0,0,0,0,0,0,0,0,0,0,0,1,1,0,0,VALID,0,0,0,0,0,1,0,0,0,0,0,0,0,0,0,0,0,0,0,0,48.19,364.58,2,0,0.08,0.08,83,14.29,0.08,0.06,5.96,FLYING,CF1-F,0:/Integrated Flight Computer/aircraft/cf1_f_cfg.ks (inferred preloaded)
6.24,APPROACH,ILS_TRACK,75.84,73,-2.84,2180.68,-13.03,1.32,9.75,271.23,-0.655,0,0,0,0,0,0,0,0,0,0,269.74,-4.825,0,0,-9.75,0,0,-4.83,269.78,0,0,0,0,0,7.03,364.96,33.315,-0.656,0,0,0,0,271.77,0,0,0,0,0,0,0,0,0,0,0,0,0,1,1,0,0,VALID,0,0,0,0,0,1,0,0,0,0,0,0,0,0,0,0,0,0,0,0,44.96,364.89,2,0,0.08,0.08,87,14.29,0.08,0.06,6.24,FLYING,CF1-F,0:/Integrated Flight Computer/aircraft/cf1_f_cfg.ks (inferred preloaded)
6.52,APPROACH,ILS_TRACK,75.6,73,-2.6,2177.09,-12.84,1.49,9.84,271.19,-0.749,0,0,0,0,0,0,0,0,0,0,269.76,-4.813,0,0,-9.65,0,0,-4.82,269.75,0,0,0,0,0,7.42,362.65,33.291,-0.637,0,0,0,0,271.77,0,0,0,0,0,0,0,0,0,0,0,0,0,1,1,0,0,VALID,0,0,0,0,0,1,0,0,0,0,0,0,0,0,0,0,0,0,0,0,41.95,365.21,2,0,0.08,0.08,91,14.29,0.08,0.06,6.52,FLYING,CF1-F,0:/Integrated Flight Computer/aircraft/cf1_f_cfg.ks (inferred preloaded)
6.8,APPROACH,ILS_TRACK,75.35,73,-2.35,2173.55,-12.67,1.67,9.92,271.15,-0.828,0,0,0,0,0,0,0,0,0,0,269.75,-4.802,0,0,-9.55,0,0,-4.8,269.72,0,0,0,0,0,7.81,360.38,33.266,-0.648,0,0,0,0,271.77,0,0,0,0,0,0,0,0,0,0,0,0,0,1,1,0,0,VALID,0,0,0,0,0,1,0,0,0,0,0,0,0,0,0,0,0,0,0,0,39.14,365.53,2,0,0.08,0.08,95,14.29,0.08,0.06,6.8,FLYING,CF1-F,0:/Integrated Flight Computer/aircraft/cf1_f_cfg.ks (inferred preloaded)
7.08,APPROACH,ILS_TRACK,75.09,73,-2.09,2170.06,-12.49,1.84,10.02,271.11,-0.891,0,0,0,0,0,0,0,0,0,0,269.75,-4.791,0,0,-9.45,0,0,-4.79,269.75,0,0,0,0,0,8.19,358.16,33.242,-0.654,0,0,0,0,271.77,0,0,0,0,0,0,0,0,0,0,0,0,0,1,1,0,0,VALID,0,0,0,0,0,1,0,0,0,0,0,0,0,0,0,0,0,0,0,0,36.52,365.86,2,0,0.08,0.08,99,14.29,0.08,0.06,7.08,FLYING,CF1-F,0:/Integrated Flight Computer/aircraft/cf1_f_cfg.ks (inferred preloaded)
7.36,APPROACH,ILS_TRACK,74.81,73,-1.81,2166.62,-12.32,2.02,10.12,271.07,-0.942,0,0,0,0,0,0,0,0,0,0,269.75,-4.78,0,0,-9.36,0,0,-4.78,269.74,0,0,0,0,0,8.54,355.98,33.218,-0.65,0,0,0,0,271.77,0,0,0,0,0,0,0,0,0,0,0,0,0,1,1,0,0,VALID,0,0,0,0,0,1,0,0,0,0,0,0,0,0,0,0,0,0,0,0,34.08,366.2,2,0,0.08,0.08,103,14.29,0.08,0.06,7.36,FLYING,CF1-F,0:/Integrated Flight Computer/aircraft/cf1_f_cfg.ks (inferred preloaded)
7.64,APPROACH,ILS_TRACK,74.53,73,-1.53,2163.22,-12.16,2.21,10.22,271.03,-0.981,0,0,0,0,0,0,0,0,0,0,269.74,-4.769,0,0,-9.27,0,0,-4.77,269.74,0,0,0,0,0,8.89,353.85,33.194,-0.663,0,0,0,0,271.77,0,0,0,0,0,0,0,0,0,0,0,0,0,1,1,0,0,VALID,0,0,0,0,0,1,0,0,0,0,0,0,0,0,0,0,0,0,0,0,31.8,366.54,2,0,0.08,0.08,107,14.29,0.08,0.06,7.64,FLYING,CF1-F,0:/Integrated Flight Computer/aircraft/cf1_f_cfg.ks (inferred preloaded)
7.92,APPROACH,ILS_TRACK,74.23,73,-1.23,2159.88,-11.99,2.39,10.34,270.99,-1.009,0,0,0,0,0,0,0,0,0,0,269.74,-4.759,0,0,-9.19,0,0,-4.76,269.76,0,0,0,0,0,9.22,351.76,33.17,-0.656,0,0,0,0,271.77,0,0,0,0,0,0,0,0,0,0,0,0,0,1,1,0,0,VALID,0,0,0,0,0,1,0,0,0,0,0,0,0,0,0,0,0,0,0,0,29.67,366.89,2,0,0.08,0.08,111,14.29,0.08,0.06,7.92,FLYING,CF1-F,0:/Integrated Flight Computer/aircraft/cf1_f_cfg.ks (inferred preloaded)
8.2,APPROACH,ILS_TRACK,73.92,73,-0.92,2156.57,-11.84,2.58,10.45,270.95,-1.029,0,0,0,0,0,0,0,0,0,0,269.74,-4.749,0,0,-9.1,0,0,-4.75,269.74,0,0,0,0,0,9.54,349.71,33.146,-0.658,0,0,0,0,271.77,0,0,0,0,0,0,0,0,0,0,0,0,0,1,1,0,0,VALID,0,0,0,0,0,1,0,0,0,0,0,0,0,0,0,0,0,0,0,0,27.69,367.25,2,0,0.08,0.08,115,14.29,0.08,0.06,8.2,FLYING,CF1-F,0:/Integrated Flight Computer/aircraft/cf1_f_cfg.ks (inferred preloaded)
8.48,APPROACH,ILS_TRACK,73.6,73,-0.6,2153.32,-11.68,2.78,10.58,270.91,-1.04,0,0,0,0,0,0,0,0,0,0,269.74,-4.738,0,0,-9.02,0,0,-4.74,269.73,0,0,0,0,0,9.84,347.69,33.122,-0.656,0,0,0,0,271.77,0,0,0,0,0,0,0,0,0,0,0,0,0,1,1,0,0,VALID,0,0,0,0,0,1,0,0,0,0,0,0,0,0,0,0,0,0,0,0,25.84,367.6,2,0,0.08,0.08,119,14.29,0.08,0.06,8.48,FLYING,CF1-F,0:/Integrated Flight Computer/aircraft/cf1_f_cfg.ks (inferred preloaded)
8.76,APPROACH,ILS_TRACK,73.28,73,-0.28,2150.1,-11.53,2.95,10.69,270.88,-1.042,0,0,0,0,0,0,0,0,0,0,269.75,-4.729,0,0,-8.94,0,0,-4.73,269.76,0,0,0,0,0,10.12,345.72,33.098,-0.652,0,0,0,0,271.77,0,0,0,0,0,0,0,0,0,0,0,0,0,1,1,0,0,VALID,0,0,0,0,0,1,0,0,0,0,0,0,0,0,0,0,0,0,0,0,24.11,367.97,2,0,0.08,0.08,123,14.29,0.08,0.06,8.76,FLYING,CF1-F,0:/Integrated Flight Computer/aircraft/cf1_f_cfg.ks (inferred preloaded)
9.04,APPROACH,ILS_TRACK,72.94,73,0.06,2146.93,-11.38,3.14,10.81,270.84,-1.036,0,0,0,0,0,0,0,0,0,0,269.75,-4.719,0,0,-8.87,0,0,-4.72,269.76,0,0,0,0,0,10.39,343.78,33.075,-0.649,0,0,0,0,271.77,0,0,0,0,0,0,0,0,0,0,0,0,0,1,1,0,0,VALID,0,0,0,0,0,1,0,0,0,0,0,0,0,0,0,0,0,0,0,0,22.5,368.33,2,0,0.08,0.08,127,14.29,0.08,0.06,9.04,FLYING,CF1-F,0:/Integrated Flight Computer/aircraft/cf1_f_cfg.ks (inferred preloaded)
9.32,APPROACH,ILS_TRACK,72.6,73,0.4,2143.79,-11.24,3.33,10.95,270.81,-1.025,0,0,0,0,0,0,0,0,0,0,269.75,-4.709,0,0,-8.81,0,0,-4.71,269.76,0,0,0,0,0,10.64,341.88,33.051,-0.654,0,0,0,0,271.77,0,0,0,0,0,0,0,0,0,0,0,0,0,1,1,0,0,VALID,0,0,0,0,0,1,0,0,0,0,0,0,0,0,0,0,0,0,0,0,20.99,368.7,2,0,0.08,0.08,131,14.29,0.08,0.06,9.32,FLYING,CF1-F,0:/Integrated Flight Computer/aircraft/cf1_f_cfg.ks (inferred preloaded)
9.6,APPROACH,ILS_TRACK,72.25,73,0.75,2140.7,-11.1,3.54,11.1,270.77,-1.012,0,0,0,0,0,0,0,0,0,0,269.76,-4.7,0,0,-8.74,0,0,-4.7,269.77,0,0,0,0,0,10.88,340.01,33.028,-0.644,0,0,0,0,271.77,0,0,0,0,0,0,0,0,0,0,0,0,0,1,1,0,0,VALID,0,0,0,0,0,1,0,0,0,0,0,0,0,0,0,0,0,0,0,0,19.59,369.07,2,0,0.08,0.08,135,14.29,0.08,0.06,9.6,FLYING,CF1-F,0:/Integrated Flight Computer/aircraft/cf1_f_cfg.ks (inferred preloaded)
9.88,APPROACH,ILS_TRACK,71.89,73,1.11,2137.65,-10.97,3.74,11.25,270.74,-0.994,0,0,0,0,0,0,0,0,0,0,269.75,-4.691,0,0,-8.68,0,0,-4.69,269.77,0,0,0,0,0,11.1,338.17,33.005,-0.649,0,0,0,0,271.77,0,0,0,0,0,0,0,0,0,0,0,0,0,1,1,0,0,VALID,0,0,0,0,0,1,0,0,0,0,0,0,0,0,0,0,0,0,0,0,18.28,369.45,2,0,0.08,0.08,139,14.29,0.08,0.06,9.88,FLYING,CF1-F,0:/Integrated Flight Computer/aircraft/cf1_f_cfg.ks (inferred preloaded)
10.16,APPROACH,ILS_TRACK,71.53,73,1.47,2134.63,-10.84,3.95,11.41,270.7,-0.974,0,0,0,0,0,0,0,0,0,0,269.75,-4.682,0,0,-8.62,0,0,-4.68,269.78,0,0,0,0,0,11.3,336.37,32.981,-0.652,0,0,0,0,271.77,0,0,0,0,0,0,0,0,0,0,0,0,0,1,1,0,0,VALID,0,0,0,0,0,1,0,0,0,0,0,0,0,0,0,0,0,0,0,0,17.06,369.82,2,0,0.08,0.08,143,14.29,0.08,0.06,10.16,FLYING,CF1-F,0:/Integrated Flight Computer/aircraft/cf1_f_cfg.ks (inferred preloaded)
10.44,APPROACH,ILS_TRACK,71.16,73,1.84,2131.66,-10.71,4.17,11.57,270.67,-0.953,0,0,0,0,0,0,0,0,0,0,269.78,-4.673,0,0,-8.56,0,0,-4.67,269.76,0,0,0,0,0,11.49,334.59,32.958,-0.616,0,0,0,0,271.77,0,0,0,0,0,0,0,0,0,0,0,0,0,1,1,0,0,VALID,0,0,0,0,0,1,0,0,0,0,0,0,0,0,0,0,0,0,0,0,15.92,370.21,2,0,0.08,0.08,147,14.29,0.08,0.06,10.44,FLYING,CF1-F,0:/Integrated Flight Computer/aircraft/cf1_f_cfg.ks (inferred preloaded)
10.72,APPROACH,ILS_TRACK,70.78,73,2.22,2128.71,-10.58,4.39,11.74,270.64,-0.93,0,0,0,0,0,0,0,0,0,0,269.77,-4.664,0,0,-8.51,0,0,-4.67,269.81,0,0,0,0,0,11.67,332.85,32.935,-0.63,0,0,0,0,271.77,0,0,0,0,0,0,0,0,0,0,0,0,0,1,1,0,0,VALID,0,0,0,0,0,1,0,0,0,0,0,0,0,0,0,0,0,0,0,0,14.86,370.59,2,0,0.08,0.08,151,14.29,0.08,0.06,10.72,FLYING,CF1-F,0:/Integrated Flight Computer/aircraft/cf1_f_cfg.ks (inferred preloaded)
11,APPROACH,ILS_TRACK,70.39,73,2.61,2125.81,-10.46,4.61,11.92,270.61,-0.906,0,0,0,0,0,0,0,0,0,0,269.8,-4.656,0,0,-8.46,0,0,-4.66,269.77,0,0,0,0,0,11.83,331.14,32.913,-0.601,0,0,0,0,271.77,0,0,0,0,0,0,0,0,0,0,0,0,0,1,1,0,0,VALID,0,0,0,0,0,1,0,0,0,0,0,0,0,0,0,0,0,0,0,0,13.86,370.97,2,0,0.08,0.08,155,14.29,0.08,0.06,11,FLYING,CF1-F,0:/Integrated Flight Computer/aircraft/cf1_f_cfg.ks (inferred preloaded)
11.28,APPROACH,ILS_TRACK,70,73,3,2122.94,-10.34,4.84,12.11,270.58,-0.881,0,0,0,0,0,0,0,0,0,0,269.79,-4.647,0,0,-8.4,0,0,-4.65,269.78,0,0,0,0,0,11.98,329.45,32.89,-0.611,0,0,0,0,271.77,0,0,0,0,0,0,0,0,0,0,0,0,0,1,1,0,0,VALID,0,0,0,0,0,1,0,0,0,0,0,0,0,0,0,0,0,0,0,0,12.94,371.36,2,0,0.08,0.08,159,14.29,0.08,0.06,11.28,FLYING,CF1-F,0:/Integrated Flight Computer/aircraft/cf1_f_cfg.ks (inferred preloaded)
11.56,APPROACH,ILS_TRACK,69.61,73,3.39,2120.1,-10.22,5.08,12.3,270.55,-0.855,0,0,0,0,0,0,0,0,0,0,269.79,-4.639,0,0,-8.36,0,0,-4.64,269.81,0,0,0,0,0,12.12,327.79,32.867,-0.614,0,0,0,0,271.77,0,0,0,0,0,0,0,0,0,0,0,0,0,1,1,0,0,VALID,0,0,0,0,0,1,0,0,0,0,0,0,0,0,0,0,0,0,0,0,12.07,371.75,2,0,0.08,0.08,163,14.29,0.08,0.06,11.56,FLYING,CF1-F,0:/Integrated Flight Computer/aircraft/cf1_f_cfg.ks (inferred preloaded)
11.84,APPROACH,ILS_TRACK,69.2,73,3.8,2117.3,-10.1,5.32,12.51,270.53,-0.829,0,0,0,0,0,0,0,0,0,0,269.81,-4.631,0,0,-8.31,0,0,-4.63,269.79,0,0,0,0,0,12.24,326.16,32.845,-0.586,0,0,0,0,271.77,0,0,0,0,0,0,0,0,0,0,0,0,0,1,1,0,0,VALID,0,0,0,0,0,1,0,0,0,0,0,0,0,0,0,0,0,0,0,0,11.27,372.15,2,0,0.08,0.08,167,14.29,0.08,0.06,11.84,FLYING,CF1-F,0:/Integrated Flight Computer/aircraft/cf1_f_cfg.ks (inferred preloaded)
12.12,APPROACH,ILS_TRACK,68.8,73,4.2,2114.53,-9.99,5.58,12.73,270.5,-0.805,0,0,0,0,0,0,0,0,0,0,269.82,-4.623,0,0,-8.26,0,0,-4.62,269.79,0,0,0,0,0,12.35,324.56,32.823,-0.582,0,0,0,0,271.77,0,0,0,0,0,0,0,0,0,0,0,0,0,1,1,0,0,VALID,0,0,0,0,0,1,0,0,0,0,0,0,0,0,0,0,0,0,0,0,10.52,372.54,2,0,0.08,0.08,171,14.29,0.08,0.06,12.12,FLYING,CF1-F,0:/Integrated Flight Computer/aircraft/cf1_f_cfg.ks (inferred preloaded)
12.4,APPROACH,ILS_TRACK,68.38,73,4.62,2111.8,-9.87,5.85,12.95,270.47,-0.78,0,0,0,0,0,0,0,0,0,0,269.82,-4.615,0,0,-8.22,0,0,-4.62,269.82,0,0,0,0,0,12.45,322.99,32.801,-0.581,0,0,0,0,271.77,0,0,0,0,0,0,0,0,0,0,0,0,0,1,1,0,0,VALID,0,0,0,0,0,1,0,0,0,0,0,0,0,0,0,0,0,0,0,0,9.81,372.94,2,0,0.08,0.08,175,14.29,0.08,0.06,12.4,FLYING,CF1-F,0:/Integrated Flight Computer/aircraft/cf1_f_cfg.ks (inferred preloaded)
12.68,APPROACH,ILS_TRACK,67.97,73,5.03,2109.1,-9.76,6.11,13.18,270.45,-0.755,0,0,0,0,0,0,0,0,0,0,269.83,-4.607,0,0,-8.17,0,0,-4.61,269.82,0,0,0,0,0,12.54,321.44,32.779,-0.569,0,0,0,0,271.77,0,0,0,0,0,0,0,0,0,0,0,0,0,1,1,0,0,VALID,0,0,0,0,0,1,0,0,0,0,0,0,0,0,0,0,0,0,0,0,9.16,373.34,2,0,0.08,0.08,179,14.29,0.08,0.06,12.68,FLYING,CF1-F,0:/Integrated Flight Computer/aircraft/cf1_f_cfg.ks (inferred preloaded)
12.96,APPROACH,ILS_TRACK,67.55,73,5.45,2106.43,-9.65,6.38,13.41,270.42,-0.73,0,0,0,0,0,0,0,0,0,0,269.83,-4.6,0,0,-8.13,0,0,-4.6,269.82,0,0,0,0,0,12.62,319.91,32.757,-0.575,0,0,0,0,271.77,0,0,0,0,0,0,0,0,0,0,0,0,0,1,1,0,0,VALID,0,0,0,0,0,1,0,0,0,0,0,0,0,0,0,0,0,0,0,0,8.55,373.73,2,0,0.08,0.08,183,14.29,0.08,0.06,12.96,FLYING,CF1-F,0:/Integrated Flight Computer/aircraft/cf1_f_cfg.ks (inferred preloaded)
13.24,APPROACH,ILS_TRACK,67.13,73,5.87,2103.79,-9.54,6.65,13.65,270.4,-0.704,0,0,0,0,0,0,0,0,0,0,269.83,-4.592,0,0,-8.09,0,0,-4.59,269.85,0,0,0,0,0,12.69,318.41,32.735,-0.574,0,0,0,0,271.77,0,0,0,0,0,0,0,0,0,0,0,0,0,1,1,0,0,VALID,0,0,0,0,0,1,0,0,0,0,0,0,0,0,0,0,0,0,0,0,7.98,374.13,2,0,0.08,0.08,187,14.29,0.08,0.06,13.24,FLYING,CF1-F,0:/Integrated Flight Computer/aircraft/cf1_f_cfg.ks (inferred preloaded)
13.52,APPROACH,ILS_TRACK,66.71,73,6.29,2101.18,-9.44,6.93,13.89,270.38,-0.678,0,0,0,0,0,0,0,0,0,0,269.84,-4.585,0,0,-8.05,0,0,-4.59,269.84,0,0,0,0,0,12.74,316.93,32.713,-0.557,0,0,0,0,271.77,0,0,0,0,0,0,0,0,0,0,0,0,0,1,1,0,0,VALID,0,0,0,0,0,1,0,0,0,0,0,0,0,0,0,0,0,0,0,0,7.44,374.52,2,0,0.08,0.08,191,14.29,0.08,0.06,13.52,FLYING,CF1-F,0:/Integrated Flight Computer/aircraft/cf1_f_cfg.ks (inferred preloaded)
13.8,APPROACH,ILS_TRACK,66.3,73,6.7,2098.6,-9.33,7.21,14.14,270.36,-0.653,0,0,0,0,0,0,0,0,0,0,269.84,-4.577,0,0,-8.02,0,0,-4.58,269.86,0,0,0,0,0,12.79,315.48,32.692,-0.56,0,0,0,0,271.77,0,0,0,0,0,0,0,0,0,0,0,0,0,1,1,0,0,VALID,0,0,0,0,0,1,0,0,0,0,0,0,0,0,0,0,0,0,0,0,6.95,374.91,2,0,0.08,0.08,195,14.29,0.08,0.06,13.8,FLYING,CF1-F,0:/Integrated Flight Computer/aircraft/cf1_f_cfg.ks (inferred preloaded)
14.08,APPROACH,ILS_TRACK,65.9,73,7.1,2096.05,-9.24,7.5,14.4,270.33,-0.628,0,0,0,0,0,0,0,0,0,0,269.87,-4.57,0,0,-7.98,0,0,-4.57,269.84,0,0,0,0,0,12.82,314.05,32.671,-0.529,0,0,0,0,271.77,0,0,0,0,0,0,0,0,0,0,0,0,0,1,1,0,0,VALID,0,0,0,0,0,1,0,0,0,0,0,0,0,0,0,0,0,0,0,0,6.48,375.29,2,0,0.08,0.08,199,14.29,0.08,0.06,14.08,FLYING,CF1-F,0:/Integrated Flight Computer/aircraft/cf1_f_cfg.ks (inferred preloaded)
14.36,APPROACH,ILS_TRACK,65.51,73,7.49,2093.53,-9.15,7.79,14.66,270.31,-0.603,0,0,0,0,0,0,0,0,0,0,269.87,-4.563,0,0,-7.95,0,0,-4.56,269.86,0,0,0,0,0,12.85,312.63,32.649,-0.528,0,0,0,0,271.77,0,0,0,0,0,0,0,0,0,0,0,0,0,1,1,0,0,VALID,0,0,0,0,0,1,0,0,0,0,0,0,0,0,0,0,0,0,0,0,6.05,375.66,2,0,0.08,0.08,203,14.29,0.08,0.06,14.36,FLYING,CF1-F,0:/Integrated Flight Computer/aircraft/cf1_f_cfg.ks (inferred preloaded)
14.64,APPROACH,ILS_TRACK,65.16,73,7.84,2091.02,-9.05,8.02,14.86,270.3,-0.573,0,0,0,0,0,0,0,0,0,0,269.88,-4.556,0,0,-7.91,0,0,-4.56,269.86,0,0,0,0,0,12.87,311.23,32.628,-0.524,0,0,0,0,271.77,0,0,0,0,0,0,0,0,0,0,0,0,0,1,1,0,0,VALID,0,0,0,0,0,1,0,0,0,0,0,0,0,0,0,0,0,0,0,0,5.64,376.01,2,0,0.08,0.08,207,14.29,0.08,0.06,14.64,FLYING,CF1-F,0:/Integrated Flight Computer/aircraft/cf1_f_cfg.ks (inferred preloaded)
14.92,APPROACH,ILS_TRACK,64.86,73,8.14,2088.52,-8.98,8.14,14.95,270.28,-0.529,0,0,0,0,0,0,0,0,0,0,269.87,-4.549,0,0,-7.88,0,0,-4.55,269.88,0,0,0,0,0,12.88,309.83,32.607,-0.526,0,0,0,0,271.77,0,0,0,0,0,0,0,0,0,0,0,0,0,1,1,0,0,VALID,0,0,0,0,0,1,0,0,0,0,0,0,0,0,0,0,0,0,0,0,5.27,376.32,2,0,0.08,0.08,211,14.29,0.08,0.06,14.92,FLYING,CF1-F,0:/Integrated Flight Computer/aircraft/cf1_f_cfg.ks (inferred preloaded)
15.2,APPROACH,ILS_TRACK,64.61,73,8.39,2086.02,-8.94,8.18,14.98,270.28,-0.475,0,0,0,0,0,0,0,0,0,0,269.89,-4.542,0,0,-7.87,0,0,-4.54,269.86,0,0,0,0,0,12.88,308.42,32.586,-0.508,0,0,0,0,271.77,0,0,0,0,0,0,0,0,0,0,0,0,0,1,1,0,0,VALID,0,0,0,0,0,1,0,0,0,0,0,0,0,0,0,0,0,0,0,0,4.91,376.59,2,0,0.08,0.08,215,14.29,0.08,0.06,15.2,FLYING,CF1-F,0:/Integrated Flight Computer/aircraft/cf1_f_cfg.ks (inferred preloaded)
15.48,APPROACH,ILS_TRACK,64.38,73,8.62,2083.52,-8.92,8.17,14.98,270.27,-0.417,0,0,0,0,0,0,0,0,0,0,269.9,-4.535,0,0,-7.89,0,0,-4.54,269.88,0,0,0,0,0,12.88,307.01,32.565,-0.501,0,0,0,0,271.77,0,0,0,0,0,0,0,0,0,0,0,0,0,1,1,0,0,VALID,0,0,0,0,0,1,0,0,0,0,0,0,0,0,0,0,0,0,0,0,4.58,376.85,2,0,0.08,0.08,219,14.29,0.08,0.06,15.48,FLYING,CF1-F,0:/Integrated Flight Computer/aircraft/cf1_f_cfg.ks (inferred preloaded)
15.76,APPROACH,ILS_TRACK,64.16,73,8.84,2081.02,-8.93,8.14,14.98,270.27,-0.358,0,0,0,0,0,0,0,0,0,0,269.9,-4.528,0,0,-7.92,0,0,-4.53,269.89,0,0,0,0,0,12.87,305.6,32.545,-0.502,0,0,0,0,271.77,0,0,0,0,0,0,0,0,0,0,0,0,0,1,1,0,0,VALID,0,0,0,0,0,1,0,0,0,0,0,0,0,0,0,0,0,0,0,0,4.27,377.11,2,0,0.08,0.08,223,14.29,0.08,0.06,15.76,FLYING,CF1-F,0:/Integrated Flight Computer/aircraft/cf1_f_cfg.ks (inferred preloaded)
16.04,APPROACH,ILS_TRACK,63.95,73,9.05,2078.51,-8.95,8.1,14.99,270.28,-0.301,0,0,0,0,0,0,0,0,0,0,269.9,-4.521,0,0,-7.96,0,0,-4.52,269.88,0,0,0,0,0,12.85,304.18,32.524,-0.497,0,0,0,0,271.77,0,0,0,0,0,0,0,0,0,0,0,0,0,1,1,0,0,VALID,0,0,0,0,0,1,0,0,0,0,0,0,0,0,0,0,0,0,0,0,3.99,377.36,2,0,0.08,0.08,227,14.29,0.08,0.06,16.04,FLYING,CF1-F,0:/Integrated Flight Computer/aircraft/cf1_f_cfg.ks (inferred preloaded)
16.32,APPROACH,ILS_TRACK,63.74,73,9.26,2075.99,-8.99,8.05,14.99,270.28,-0.244,0,0,0,0,0,0,0,0,0,0,269.91,-4.514,0,0,-8.02,0,0,-4.52,269.9,0,0,0,0,0,12.83,302.74,32.503,-0.489,0,0,0,0,271.77,0,0,0,0,0,0,0,0,0,0,0,0,0,1,1,0,0,VALID,0,0,0,0,0,1,0,0,0,0,0,0,0,0,0,0,0,0,0,0,3.72,377.61,2,0,0.08,0.08,231,14.29,0.08,0.06,16.32,FLYING,CF1-F,0:/Integrated Flight Computer/aircraft/cf1_f_cfg.ks (inferred preloaded)
16.6,APPROACH,ILS_TRACK,63.53,73,9.47,2073.45,-9.04,7.99,14.99,270.28,-0.19,0,0,0,0,0,0,0,0,0,0,269.9,-4.506,0,0,-8.1,0,0,-4.51,269.9,0,0,0,0,0,12.81,301.28,32.483,-0.497,0,0,0,0,271.77,0,0,0,0,0,0,0,0,0,0,0,0,0,1,1,0,0,VALID,0,0,0,0,0,1,0,0,0,0,0,0,0,0,0,0,0,0,0,0,3.47,377.86,2,0,0.08,0.08,235,14.29,0.08,0.06,16.6,FLYING,CF1-F,0:/Integrated Flight Computer/aircraft/cf1_f_cfg.ks (inferred preloaded)
16.88,APPROACH,ILS_TRACK,63.33,73,9.67,2070.89,-9.12,7.91,14.99,270.29,-0.14,0,0,0,0,0,0,0,0,0,0,269.92,-4.499,0,0,-8.19,0,0,-4.5,269.91,0,0,0,0,0,12.78,299.8,32.462,-0.482,0,0,0,0,271.77,0,0,0,0,0,0,0,0,0,0,0,0,0,1,1,0,0,VALID,0,0,0,0,0,1,0,0,0,0,0,0,0,0,0,0,0,0,0,0,3.24,378.11,2,0,0.08,0.08,239,14.29,0.08,0.06,16.88,FLYING,CF1-F,0:/Integrated Flight Computer/aircraft/cf1_f_cfg.ks (inferred preloaded)
17.16,APPROACH,ILS_TRACK,63.14,73,9.86,2068.31,-9.21,7.82,14.99,270.3,-0.097,0,0,0,0,0,0,0,0,0,0,269.91,-4.491,0,0,-8.29,0,0,-4.49,269.93,0,0,0,0,0,12.76,298.29,32.442,-0.491,0,0,0,0,271.77,0,0,0,0,0,0,0,0,0,0,0,0,0,1,1,0,0,VALID,0,0,0,0,0,1,0,0,0,0,0,0,0,0,0,0,0,0,0,0,3.02,378.35,2,0,0.08,0.08,243,14.29,0.08,0.06,17.16,FLYING,CF1-F,0:/Integrated Flight Computer/aircraft/cf1_f_cfg.ks (inferred preloaded)
17.44,APPROACH,ILS_TRACK,62.95,73,10.05,2065.7,-9.31,7.71,14.99,270.3,-0.06,0,0,0,0,0,0,0,0,0,0,269.91,-4.484,0,0,-8.41,0,0,-4.49,269.91,0,0,0,0,0,12.73,296.74,32.422,-0.492,0,0,0,0,271.77,0,0,0,0,0,0,0,0,0,0,0,0,0,1,1,0,0,VALID,0,0,0,0,0,1,0,0,0,0,0,0,0,0,0,0,0,0,0,0,2.82,378.59,2,0,0.08,0.08,247,14.29,0.08,0.06,17.44,FLYING,CF1-F,0:/Integrated Flight Computer/aircraft/cf1_f_cfg.ks (inferred preloaded)
17.72,APPROACH,ILS_TRACK,62.77,73,10.23,2063.05,-9.43,7.6,14.99,270.31,-0.027,0,0,0,0,0,0,0,0,0,0,269.92,-4.476,0,0,-8.54,0,0,-4.48,269.93,0,0,0,0,0,12.69,295.16,32.401,-0.48,0,0,0,0,271.77,0,0,0,0,0,0,0,0,0,0,0,0,0,1,1,0,0,VALID,0,0,0,0,0,1,0,0,0,0,0,0,0,0,0,0,0,0,0,0,2.63,378.83,2,0,0.08,0.08,251,14.29,0.08,0.06,17.72,FLYING,CF1-F,0:/Integrated Flight Computer/aircraft/cf1_f_cfg.ks (inferred preloaded)
18,APPROACH,ILS_TRACK,62.6,73,10.4,2060.37,-9.57,7.47,14.99,270.31,0.001,0,0,0,0,0,0,0,0,0,0,269.92,-4.468,0,0,-8.68,0,0,-4.47,269.94,0,0,0,0,0,12.66,293.54,32.381,-0.479,0,0,0,0,271.77,0,0,0,0,0,0,0,0,0,0,0,0,0,1,1,0,0,VALID,0,0,0,0,0,1,0,0,0,0,0,0,0,0,0,0,0,0,0,0,2.46,379.07,2,0,0.08,0.08,255,14.29,0.08,0.06,18,FLYING,CF1-F,0:/Integrated Flight Computer/aircraft/cf1_f_cfg.ks (inferred preloaded)
18.28,APPROACH,ILS_TRACK,62.43,73,10.57,2057.65,-9.71,7.33,14.99,270.32,0.026,0,0,0,0,0,0,0,0,0,0,269.91,-4.459,0,0,-8.83,0,0,-4.46,269.92,0,0,0,0,0,12.63,291.88,32.361,-0.49,0,0,0,0,271.77,0,0,0,0,0,0,0,0,0,0,0,0,0,1,1,0,0,VALID,0,0,0,0,0,1,0,0,0,0,0,0,0,0,0,0,0,0,0,0,2.67,379.3,2,0,0.08,0.08,259,14.29,0.08,0.06,18.28,FLYING,CF1-F,0:/Integrated Flight Computer/aircraft/cf1_f_cfg.ks (inferred preloaded)
18.56,APPROACH,ILS_TRACK,62.27,73,10.73,2054.88,-9.87,7.19,14.99,270.33,0.048,0,0,0,0,0,0,0,0,0,0,269.92,-4.451,0,0,-9,0,0,-4.45,269.93,0,0,0,0,0,12.6,290.16,32.341,-0.479,0,0,0,0,271.77,0,0,0,0,0,0,0,0,0,0,0,0,0,1,1,0,0,VALID,0,0,0,0,0,1,0,0,0,0,0,0,0,0,0,0,0,0,0,0,3.27,379.53,2,0,0.08,0.08,263,14.29,0.08,0.06,18.56,FLYING,CF1-F,0:/Integrated Flight Computer/aircraft/cf1_f_cfg.ks (inferred preloaded)
18.84,APPROACH,ILS_TRACK,62.13,73,10.87,2052.06,-10.04,7.03,14.99,270.33,0.068,0,0,0,0,0,0,0,0,0,0,269.93,-4.442,0,0,-9.17,0,0,-4.44,269.94,0,0,0,0,0,12.56,288.4,32.321,-0.474,0,0,0,0,271.77,0,0,0,0,0,0,0,0,0,0,0,0,0,1,1,0,0,VALID,0,0,0,0,0,1,0,0,0,0,0,0,0,0,0,0,0,0,0,0,4.24,379.75,2,0,0.08,0.08,267,14.29,0.08,0.06,18.84,FLYING,CF1-F,0:/Integrated Flight Computer/aircraft/cf1_f_cfg.ks (inferred preloaded)
19.12,APPROACH,ILS_TRACK,61.99,73,11.01,2049.2,-10.22,6.87,14.99,270.34,0.085,0,0,0,0,0,0,0,0,0,0,269.94,-4.433,0,0,-9.35,0,0,-4.44,269.9,0,0,0,0,0,12.53,286.59,32.301,-0.456,0,0,0,0,271.77,0,0,0,0,0,0,0,0,0,0,0,0,0,1,1,0,0,VALID,0,0,0,0,0,1,0,0,0,0,0,0,0,0,0,0,0,0,0,0,5.55,379.97,2,0,0.08,0.08,271,14.29,0.08,0.06,19.12,FLYING,CF1-F,0:/Integrated Flight Computer/aircraft/cf1_f_cfg.ks (inferred preloaded)
19.4,APPROACH,ILS_TRACK,61.87,73,11.13,2046.28,-10.41,6.7,14.99,270.34,0.101,0,0,0,0,0,0,0,0,0,0,269.94,-4.424,0,0,-9.54,0,0,-4.43,269.92,0,0,0,0,0,12.5,284.71,32.281,-0.456,0,0,0,0,271.77,0,0,0,0,0,0,0,0,0,0,0,0,0,1,1,0,0,VALID,0,0,0,0,0,1,0,0,0,0,0,0,0,0,0,0,0,0,0,0,7.18,380.18,2,0,0.08,0.08,275,14.29,0.08,0.06,19.4,FLYING,CF1-F,0:/Integrated Flight Computer/aircraft/cf1_f_cfg.ks (inferred preloaded)
19.68,APPROACH,ILS_TRACK,61.77,73,11.23,2043.3,-10.61,6.53,14.99,270.35,0.114,0,0,0,0,0,0,0,0,0,0,269.92,-4.414,0,0,-9.73,0,0,-4.42,269.93,0,0,0,0,0,12.47,282.78,32.261,-0.48,0,0,0,0,271.77,0,0,0,0,0,0,0,0,0,0,0,0,0,1,1,0,0,VALID,0,0,0,0,0,1,0,0,0,0,0,0,0,0,0,0,0,0,0,0,9.08,380.38,2,0,0.08,0.08,279,14.29,0.08,0.06,19.68,FLYING,CF1-F,0:/Integrated Flight Computer/aircraft/cf1_f_cfg.ks (inferred preloaded)
19.96,APPROACH,ILS_TRACK,61.68,73,11.32,2040.27,-10.81,6.35,14.99,270.36,0.126,0,0,0,0,0,0,0,0,0,0,269.94,-4.404,0,0,-9.93,0,0,-4.41,269.93,0,0,0,0,0,12.44,280.8,32.241,-0.462,0,0,0,0,271.77,0,0,0,0,0,0,0,0,0,0,0,0,0,1,1,0,0,VALID,0,0,0,0,0,1,0,0,0,0,0,0,0,0,0,0,0,0,0,0,11.23,380.58,2,0,0.08,0.08,283,14.29,0.08,0.06,19.96,FLYING,CF1-F,0:/Integrated Flight Computer/aircraft/cf1_f_cfg.ks (inferred preloaded)
20.24,APPROACH,ILS_TRACK,61.6,73,11.4,2037.18,-11.02,6.18,14.99,270.36,0.137,0,0,0,0,0,0,0,0,0,0,269.93,-4.394,0,0,-10.13,0,0,-4.4,269.93,0,0,0,0,0,12.41,278.75,32.221,-0.474,0,0,0,0,271.77,0,0,0,0,0,0,0,0,0,0,0,0,0,1,1,0,0,VALID,0,0,0,0,0,1,0,0,0,0,0,0,0,0,0,0,0,0,0,0,13.58,380.77,2,0,0.08,0.08,287,14.29,0.08,0.06,20.24,FLYING,CF1-F,0:/Integrated Flight Computer/aircraft/cf1_f_cfg.ks (inferred preloaded)
20.52,APPROACH,ILS_TRACK,61.55,73,11.45,2034.04,-11.23,6,14.99,270.37,0.147,0,0,0,0,0,0,0,0,0,0,269.94,-4.383,0,0,-10.32,0,0,-4.39,269.94,0,0,0,0,0,12.38,276.64,32.202,-0.459,0,0,0,0,271.77,0,0,0,0,0,0,0,0,0,0,0,0,0,1,1,0,0,VALID,0,0,0,0,0,1,0,0,0,0,0,0,0,0,0,0,0,0,0,0,16.09,380.95,2,0,0.08,0.08,291,14.29,0.08,0.06,20.52,FLYING,CF1-F,0:/Integrated Flight Computer/aircraft/cf1_f_cfg.ks (inferred preloaded)
20.8,APPROACH,ILS_TRACK,61.51,73,11.49,2030.83,-11.44,5.82,14.99,270.38,0.156,0,0,0,0,0,0,0,0,0,0,269.91,-4.372,0,0,-10.52,0,0,-4.37,269.95,0,0,0,0,0,12.36,274.48,32.182,-0.486,0,0,0,0,271.77,0,0,0,0,0,0,0,0,0,0,0,0,0,1,1,0,0,VALID,0,0,0,0,0,1,0,0,0,0,0,0,0,0,0,0,0,0,0,0,18.72,381.12,2,0,0.08,0.08,295,14.29,0.08,0.06,20.8,FLYING,CF1-F,0:/Integrated Flight Computer/aircraft/cf1_f_cfg.ks (inferred preloaded)
21.08,APPROACH,ILS_TRACK,61.48,73,11.52,2027.57,-11.65,5.64,14.99,270.38,0.165,0,0,0,0,0,0,0,0,0,0,269.94,-4.361,0,0,-10.72,0,0,-4.36,269.9,0,0,0,0,0,12.34,272.25,32.162,-0.462,0,0,0,0,271.77,0,0,0,0,0,0,0,0,0,0,0,0,0,1,1,0,0,VALID,0,0,0,0,0,1,0,0,0,0,0,0,0,0,0,0,0,0,0,0,21.42,381.29,2,0,0.08,0.08,299,14.29,0.08,0.06,21.08,FLYING,CF1-F,0:/Integrated Flight Computer/aircraft/cf1_f_cfg.ks (inferred preloaded)
21.36,APPROACH,ILS_TRACK,61.48,73,11.52,2024.24,-11.86,5.47,14.99,270.39,0.172,0,0,0,0,0,0,0,0,0,0,269.93,-4.35,0,0,-10.91,0,0,-4.35,269.93,0,0,0,0,0,12.32,269.96,32.143,-0.475,0,0,0,0,271.77,0,0,0,0,0,0,0,0,0,0,0,0,0,1,1,0,0,VALID,0,0,0,0,0,1,0,0,0,0,0,0,0,0,0,0,0,0,0,0,24.17,381.44,2,0,0.08,0.08,303,14.29,0.08,0.06,21.36,FLYING,CF1-F,0:/Integrated Flight Computer/aircraft/cf1_f_cfg.ks (inferred preloaded)
21.64,APPROACH,ILS_TRACK,61.49,73,11.51,2020.86,-12.07,5.3,14.99,270.4,0.18,0,0,0,0,0,0,0,0,0,0,269.92,-4.338,0,0,-11.09,0,0,-4.34,269.93,0,0,0,0,0,12.3,267.62,32.123,-0.481,0,0,0,0,271.77,0,0,0,0,0,0,0,0,0,0,0,0,0,1,1,0,0,VALID,0,0,0,0,0,1,0,0,0,0,0,0,0,0,0,0,0,0,0,0,26.9,381.59,2,0,0.08,0.08,307,14.29,0.08,0.06,21.64,FLYING,CF1-F,0:/Integrated Flight Computer/aircraft/cf1_f_cfg.ks (inferred preloaded)
21.92,APPROACH,ILS_TRACK,61.51,73,11.49,2017.42,-12.27,5.14,14.99,270.4,0.186,0,0,0,0,0,0,0,0,0,0,269.93,-4.326,0,0,-11.27,0,0,-4.33,269.91,0,0,0,0,0,12.28,265.22,32.103,-0.468,0,0,0,0,271.77,0,0,0,0,0,0,0,0,0,0,0,0,0,1,1,0,0,VALID,0,0,0,0,0,1,0,0,0,0,0,0,0,0,0,0,0,0,0,0,29.59,381.73,2,0,0.08,0.08,311,14.29,0.08,0.06,21.92,FLYING,CF1-F,0:/Integrated Flight Computer/aircraft/cf1_f_cfg.ks (inferred preloaded)
22.2,APPROACH,ILS_TRACK,61.56,73,11.44,2013.93,-12.47,4.98,14.99,270.41,0.193,0,0,0,0,0,0,0,0,0,0,269.92,-4.314,0,0,-11.44,0,0,-4.32,269.93,0,0,0,0,0,12.27,262.76,32.083,-0.479,0,0,0,0,271.77,0,0,0,0,0,0,0,0,0,0,0,0,0,1,1,0,0,VALID,0,0,0,0,0,1,0,0,0,0,0,0,0,0,0,0,0,0,0,0,32.19,381.87,2,0,0.08,0.08,315,14.29,0.08,0.06,22.2,FLYING,CF1-F,0:/Integrated Flight Computer/aircraft/cf1_f_cfg.ks (inferred preloaded)
22.48,APPROACH,ILS_TRACK,61.62,73,11.38,2010.38,-12.67,4.84,14.99,270.42,0.197,0,0,0,0,0,0,0,0,0,0,269.93,-4.301,0,0,-11.6,0,0,-4.3,269.92,0,0,0,0,0,12.25,260.25,32.064,-0.474,0,0,0,0,271.77,0,0,0,0,0,0,0,0,0,0,0,0,0,1,1,0,0,VALID,0,0,0,0,0,1,0,0,0,0,0,0,0,0,0,0,0,0,0,0,34.67,381.99,2,0,0.08,0.08,319,14.29,0.08,0.06,22.48,FLYING,CF1-F,0:/Integrated Flight Computer/aircraft/cf1_f_cfg.ks (inferred preloaded)
22.76,APPROACH,ILS_TRACK,61.69,73,11.31,2006.78,-12.85,4.69,14.99,270.43,0.198,0,0,0,0,0,0,0,0,0,0,269.93,-4.288,0,0,-11.76,0,0,-4.29,269.9,0,0,0,0,0,12.24,257.68,32.044,-0.469,0,0,0,0,271.77,0,0,0,0,0,0,0,0,0,0,0,0,0,1,1,0,0,VALID,0,0,0,0,0,1,0,0,0,0,0,0,0,0,0,0,0,0,0,0,36.99,382.11,2,0,0.08,0.08,323,14.29,0.08,0.06,22.76,FLYING,CF1-F,0:/Integrated Flight Computer/aircraft/cf1_f_cfg.ks (inferred preloaded)
23.04,APPROACH,ILS_TRACK,61.77,73,11.23,2003.14,-13.03,4.56,14.99,270.43,0.199,0,0,0,0,0,0,0,0,0,0,269.92,-4.275,0,0,-11.9,0,0,-4.28,269.92,0,0,0,0,0,12.23,255.07,32.024,-0.483,0,0,0,0,271.77,0,0,0,0,0,0,0,0,0,0,0,0,0,1,1,0,0,VALID,0,0,0,0,0,1,0,0,0,0,0,0,0,0,0,0,0,0,0,0,39.11,382.23,2,0,0.08,0.08,327,14.29,0.08,0.06,23.04,FLYING,CF1-F,0:/Integrated Flight Computer/aircraft/cf1_f_cfg.ks (inferred preloaded)
23.32,APPROACH,ILS_TRACK,61.87,73,11.13,1999.44,-13.2,4.44,14.99,270.44,0.199,0,0,0,0,0,0,0,0,0,0,269.91,-4.262,0,0,-12.04,0,0,-4.27,269.92,0,0,0,0,0,12.23,252.41,32.005,-0.49,0,0,0,0,271.77,0,0,0,0,0,0,0,0,0,0,0,0,0,1,1,0,0,VALID,0,0,0,0,0,1,0,0,0,0,0,0,0,0,0,0,0,0,0,0,41.01,382.34,2,0,0.08,0.08,331,14.29,0.08,0.06,23.32,FLYING,CF1-F,0:/Integrated Flight Computer/aircraft/cf1_f_cfg.ks (inferred preloaded)
23.6,APPROACH,ILS_TRACK,61.97,73,11.03,1995.7,-13.36,4.32,14.99,270.44,0.198,0,0,0,0,0,0,0,0,0,0,269.92,-4.249,0,0,-12.16,0,0,-4.25,269.91,0,0,0,0,0,12.22,249.71,31.985,-0.48,0,0,0,0,271.77,0,0,0,0,0,0,0,0,0,0,0,0,0,1,1,0,0,VALID,0,0,0,0,0,1,0,0,0,0,0,0,0,0,0,0,0,0,0,0,42.67,382.44,2,0,0.08,0.08,335,14.29,0.08,0.06,23.6,FLYING,CF1-F,0:/Integrated Flight Computer/aircraft/cf1_f_cfg.ks (inferred preloaded)
23.88,APPROACH,ILS_TRACK,62.09,73,10.91,1991.92,-13.52,4.22,14.99,270.45,0.195,0,0,0,0,0,0,0,0,0,0,269.92,-4.235,0,0,-12.27,0,0,-4.24,269.9,0,0,0,0,0,12.22,246.97,31.965,-0.482,0,0,0,0,271.77,0,0,0,0,0,0,0,0,0,0,0,0,0,1,1,0,0,VALID,0,0,0,0,0,1,0,0,0,0,0,0,0,0,0,0,0,0,0,0,44.06,382.55,2,0,0.08,0.08,339,14.29,0.08,0.06,23.88,FLYING,CF1-F,0:/Integrated Flight Computer/aircraft/cf1_f_cfg.ks (inferred preloaded)
24.16,APPROACH,ILS_TRACK,62.21,73,10.79,1988.09,-13.66,4.12,14.99,270.45,0.19,0,0,0,0,0,0,0,0,0,0,269.91,-4.221,0,0,-12.38,0,0,-4.22,269.9,0,0,0,0,0,12.22,244.18,31.945,-0.491,0,0,0,0,271.77,0,0,0,0,0,0,0,0,0,0,0,0,0,1,1,0,0,VALID,0,0,0,0,0,1,0,0,0,0,0,0,0,0,0,0,0,0,0,0,45.16,382.65,2,0,0.08,0.08,343,14.29,0.08,0.06,24.16,FLYING,CF1-F,0:/Integrated Flight Computer/aircraft/cf1_f_cfg.ks (inferred preloaded)
24.44,APPROACH,ILS_TRACK,62.34,73,10.66,1984.23,-13.79,4.03,14.99,270.46,0.183,0,0,0,0,0,0,0,0,0,0,269.92,-4.207,0,0,-12.47,0,0,-4.21,269.91,0,0,0,0,0,12.22,241.37,31.926,-0.48,0,0,0,0,271.77,0,0,0,0,0,0,0,0,0,0,0,0,0,1,1,0,0,VALID,0,0,0,0,0,1,0,0,0,0,0,0,0,0,0,0,0,0,0,0,45.95,382.74,2,0,0.08,0.08,347,14.29,0.08,0.06,24.44,FLYING,CF1-F,0:/Integrated Flight Computer/aircraft/cf1_f_cfg.ks (inferred preloaded)
24.72,APPROACH,ILS_TRACK,62.47,73,10.53,1980.34,-13.91,3.96,14.99,270.46,0.176,0,0,0,0,0,0,0,0,0,0,269.91,-4.193,0,0,-12.55,0,0,-4.2,269.91,0,0,0,0,0,12.22,238.52,31.906,-0.494,0,0,0,0,271.77,0,0,0,0,0,0,0,0,0,0,0,0,0,1,1,0,0,VALID,0,0,0,0,0,1,0,0,0,0,0,0,0,0,0,0,0,0,0,0,46.43,382.84,2,0,0.08,0.08,351,14.29,0.08,0.06,24.72,FLYING,CF1-F,0:/Integrated Flight Computer/aircraft/cf1_f_cfg.ks (inferred preloaded)
25,APPROACH,ILS_TRACK,62.6,73,10.4,1976.42,-14.02,3.89,14.99,270.47,0.168,0,0,0,0,0,0,0,0,0,0,269.9,-4.178,0,0,-12.62,0,0,-4.18,269.9,0,0,0,0,0,12.23,235.64,31.886,-0.496,0,0,0,0,271.77,0,0,0,0,0,0,0,0,0,0,0,0,0,1,1,0,0,VALID,0,0,0,0,0,1,0,0,0,0,0,0,0,0,0,0,0,0,0,0,46.6,382.94,2,0,0.08,0.08,355,14.29,0.08,0.06,25,FLYING,CF1-F,0:/Integrated Flight Computer/aircraft/cf1_f_cfg.ks (inferred preloaded)
25.28,APPROACH,ILS_TRACK,62.74,73,10.26,1972.47,-14.11,3.83,14.99,270.47,0.159,0,0,0,0,0,0,0,0,0,0,269.92,-4.164,0,0,-12.68,0,0,-4.17,269.91,0,0,0,0,0,12.23,232.74,31.866,-0.48,0,0,0,0,271.77,0,0,0,0,0,0,0,0,0,0,0,0,0,1,1,0,0,VALID,0,0,0,0,0,1,0,0,0,0,0,0,0,0,0,0,0,0,0,0,45.94,383.03,2,0,0.08,0.08,359,14.29,0.08,0.06,25.28,FLYING,CF1-F,0:/Integrated Flight Computer/aircraft/cf1_f_cfg.ks (inferred preloaded)
25.56,APPROACH,ILS_TRACK,62.87,73,10.13,1968.5,-14.2,3.78,14.99,270.47,0.149,0,0,0,0,0,0,0,0,0,0,269.9,-4.149,0,0,-12.73,0,0,-4.15,269.9,0,0,0,0,0,12.24,229.81,31.846,-0.5,0,0,0,0,271.77,0,0,0,0,0,0,0,0,0,0,0,0,0,1,1,0,0,VALID,0,0,0,0,0,1,0,0,0,0,0,0,0,0,0,0,0,0,0,0,44.21,383.13,2,0,0.08,0.08,363,14.29,0.08,0.06,25.56,FLYING,CF1-F,0:/Integrated Flight Computer/aircraft/cf1_f_cfg.ks (inferred preloaded)
25.84,APPROACH,ILS_TRACK,63,73,10,1964.5,-14.28,3.74,14.99,270.47,0.14,0,0,0,0,0,0,0,0,0,0,269.9,-4.134,0,0,-12.77,0,0,-4.14,269.9,0,0,0,0,0,12.25,226.86,31.826,-0.502,0,0,0,0,271.77,0,0,0,0,0,0,0,0,0,0,0,0,0,1,1,0,0,VALID,0,0,0,0,0,1,0,0,0,0,0,0,0,0,0,0,0,0,0,0,41.63,383.24,2,0,0.08,0.08,367,14.29,0.08,0.06,25.84,FLYING,CF1-F,0:/Integrated Flight Computer/aircraft/cf1_f_cfg.ks (inferred preloaded)
26.12,APPROACH,ILS_TRACK,63.11,73,9.89,1960.49,-14.35,3.7,14.99,270.48,0.131,0,0,0,0,0,0,0,0,0,0,269.9,-4.119,0,0,-12.81,0,0,-4.12,269.92,0,0,0,0,0,12.27,223.9,31.806,-0.504,0,0,0,0,271.77,0,0,0,0,0,0,0,0,0,0,0,0,0,1,1,0,0,VALID,0,0,0,0,0,1,0,0,0,0,0,0,0,0,0,0,0,0,0,0,38.82,383.35,2,0,0.08,0.08,371,14.29,0.08,0.06,26.12,FLYING,CF1-F,0:/Integrated Flight Computer/aircraft/cf1_f_cfg.ks (inferred preloaded)
26.4,APPROACH,ILS_TRACK,63.22,73,9.78,1956.45,-14.41,3.67,14.99,270.48,0.121,0,0,0,0,0,0,0,0,0,0,269.89,-4.105,0,0,-12.84,0,0,-4.11,269.92,0,0,0,0,0,12.28,220.92,31.786,-0.505,0,0,0,0,271.77,0,0,0,0,0,0,0,0,0,0,0,0,0,1,1,0,0,VALID,0,0,0,0,0,1,0,0,0,0,0,0,0,0,0,0,0,0,0,0,36.2,383.47,2,0,0.08,0.08,375,14.29,0.08,0.06,26.4,FLYING,CF1-F,0:/Integrated Flight Computer/aircraft/cf1_f_cfg.ks (inferred preloaded)
26.68,APPROACH,ILS_TRACK,63.32,73,9.68,1952.4,-14.47,3.64,14.99,270.48,0.112,0,0,0,0,0,0,0,0,0,0,269.89,-4.09,0,0,-12.87,0,0,-4.09,269.91,0,0,0,0,0,12.29,217.92,31.766,-0.507,0,0,0,0,271.77,0,0,0,0,0,0,0,0,0,0,0,0,0,1,1,0,0,VALID,0,0,0,0,0,1,0,0,0,0,0,0,0,0,0,0,0,0,0,0,33.76,383.6,2,0,0.08,0.08,379,14.29,0.08,0.06,26.68,FLYING,CF1-F,0:/Integrated Flight Computer/aircraft/cf1_f_cfg.ks (inferred preloaded)
26.96,APPROACH,ILS_TRACK,63.41,73,9.59,1948.34,-14.52,3.61,14.99,270.48,0.104,0,0,0,0,0,0,0,0,0,0,269.89,-4.075,0,0,-12.89,0,0,-4.08,269.9,0,0,0,0,0,12.31,214.91,31.746,-0.509,0,0,0,0,271.77,0,0,0,0,0,0,0,0,0,0,0,0,0,1,1,0,0,VALID,0,0,0,0,0,1,0,0,0,0,0,0,0,0,0,0,0,0,0,0,31.48,383.73,2,0,0.08,0.08,383,14.29,0.08,0.06,26.96,FLYING,CF1-F,0:/Integrated Flight Computer/aircraft/cf1_f_cfg.ks (inferred preloaded)
27.24,APPROACH,ILS_TRACK,63.49,73,9.51,1944.27,-14.56,3.59,14.99,270.48,0.096,0,0,0,0,0,0,0,0,0,0,269.89,-4.059,0,0,-12.91,0,0,-4.06,269.9,0,0,0,0,0,12.33,211.89,31.726,-0.507,0,0,0,0,271.77,0,0,0,0,0,0,0,0,0,0,0,0,0,1,1,0,0,VALID,0,0,0,0,0,1,0,0,0,0,0,0,0,0,0,0,0,0,0,0,29.36,383.87,2,0,0.08,0.08,387,14.29,0.08,0.06,27.24,FLYING,CF1-F,0:/Integrated Flight Computer/aircraft/cf1_f_cfg.ks (inferred preloaded)
27.52,APPROACH,ILS_TRACK,63.56,73,9.44,1940.18,-14.6,3.57,14.99,270.48,0.088,0,0,0,0,0,0,0,0,0,0,269.89,-4.044,0,0,-12.93,0,0,-4.05,269.88,0,0,0,0,0,12.35,208.86,31.705,-0.512,0,0,0,0,271.77,0,0,0,0,0,0,0,0,0,0,0,0,0,1,1,0,0,VALID,0,0,0,0,0,1,0,0,0,0,0,0,0,0,0,0,0,0,0,0,27.38,384.02,2,0,0.08,0.08,391,14.29,0.08,0.06,27.52,FLYING,CF1-F,0:/Integrated Flight Computer/aircraft/cf1_f_cfg.ks (inferred preloaded)
27.8,APPROACH,ILS_TRACK,63.63,73,9.37,1936.08,-14.63,3.55,14.99,270.48,0.081,0,0,0,0,0,0,0,0,0,0,269.88,-4.029,0,0,-12.95,0,0,-4.03,269.88,0,0,0,0,0,12.37,205.82,31.685,-0.519,0,0,0,0,271.77,0,0,0,0,0,0,0,0,0,0,0,0,0,1,1,0,0,VALID,0,0,0,0,0,1,0,0,0,0,0,0,0,0,0,0,0,0,0,0,25.53,384.17,2,0,0.08,0.08,395,14.29,0.08,0.06,27.8,FLYING,CF1-F,0:/Integrated Flight Computer/aircraft/cf1_f_cfg.ks (inferred preloaded)
28.08,APPROACH,ILS_TRACK,63.69,73,9.31,1931.98,-14.66,3.53,14.99,270.48,0.075,0,0,0,0,0,0,0,0,0,0,269.88,-4.014,0,0,-12.96,0,0,-4.02,269.9,0,0,0,0,0,12.39,202.78,31.665,-0.521,0,0,0,0,271.77,0,0,0,0,0,0,0,0,0,0,0,0,0,1,1,0,0,VALID,0,0,0,0,0,1,0,0,0,0,0,0,0,0,0,0,0,0,0,0,23.81,384.32,2,0,0.08,0.08,399,14.29,0.08,0.06,28.08,FLYING,CF1-F,0:/Integrated Flight Computer/aircraft/cf1_f_cfg.ks (inferred preloaded)
28.36,APPROACH,ILS_TRACK,63.74,73,9.26,1927.87,-14.68,3.52,14.99,270.48,0.069,0,0,0,0,0,0,0,0,0,0,269.88,-3.999,0,0,-12.97,0,0,-4,269.88,0,0,0,0,0,12.41,199.72,31.645,-0.516,0,0,0,0,271.77,0,0,0,0,0,0,0,0,0,0,0,0,0,1,1,0,0,VALID,0,0,0,0,0,1,0,0,0,0,0,0,0,0,0,0,0,0,0,0,22.21,384.48,2,0,0.08,0.08,403,14.29,0.08,0.06,28.36,FLYING,CF1-F,0:/Integrated Flight Computer/aircraft/cf1_f_cfg.ks (inferred preloaded)
28.64,APPROACH,ILS_TRACK,63.79,73,9.21,1923.75,-14.71,3.51,14.99,270.48,0.063,0,0,0,0,0,0,0,0,0,0,269.88,-3.983,0,0,-12.98,0,0,-3.99,269.87,0,0,0,0,0,12.43,196.66,31.625,-0.518,0,0,0,0,271.77,0,0,0,0,0,0,0,0,0,0,0,0,0,1,1,0,0,VALID,0,0,0,0,0,1,0,0,0,0,0,0,0,0,0,0,0,0,0,0,20.71,384.65,2,0,0.08,0.08,407,14.29,0.08,0.06,28.64,FLYING,CF1-F,0:/Integrated Flight Computer/aircraft/cf1_f_cfg.ks (inferred preloaded)
28.92,APPROACH,ILS_TRACK,63.83,73,9.17,1919.63,-14.73,3.49,14.99,270.48,0.058,0,0,0,0,0,0,0,0,0,0,269.87,-3.968,0,0,-12.99,0,0,-3.97,269.9,0,0,0,0,0,12.45,193.6,31.605,-0.525,0,0,0,0,271.77,0,0,0,0,0,0,0,0,0,0,0,0,0,1,1,0,0,VALID,0,0,0,0,0,1,0,0,0,0,0,0,0,0,0,0,0,0,0,0,19.32,384.81,2,0,0.08,0.08,411,14.29,0.08,0.06,28.92,FLYING,CF1-F,0:/Integrated Flight Computer/aircraft/cf1_f_cfg.ks (inferred preloaded)
29.2,APPROACH,ILS_TRACK,63.86,73,9.14,1915.5,-14.74,3.48,14.99,270.48,0.053,0,0,0,0,0,0,0,0,0,0,269.89,-3.953,0,0,-13,0,0,-3.96,269.88,0,0,0,0,0,12.47,190.53,31.584,-0.514,0,0,0,0,271.77,0,0,0,0,0,0,0,0,0,0,0,0,0,1,1,0,0,VALID,0,0,0,0,0,1,0,0,0,0,0,0,0,0,0,0,0,0,0,0,18.02,384.98,2,0,0.08,0.08,415,14.29,0.08,0.06,29.2,FLYING,CF1-F,0:/Integrated Flight Computer/aircraft/cf1_f_cfg.ks (inferred preloaded)
29.48,APPROACH,ILS_TRACK,63.9,73,9.1,1911.37,-14.76,3.48,14.99,270.48,0.048,0,0,0,0,0,0,0,0,0,0,269.89,-3.937,0,0,-13,0,0,-3.94,269.88,0,0,0,0,0,12.49,187.46,31.564,-0.51,0,0,0,0,271.77,0,0,0,0,0,0,0,0,0,0,0,0,0,1,1,0,0,VALID,0,0,0,0,0,1,0,0,0,0,0,0,0,0,0,0,0,0,0,0,16.8,385.16,2,0,0.08,0.08,419,14.29,0.08,0.06,29.48,FLYING,CF1-F,0:/Integrated Flight Computer/aircraft/cf1_f_cfg.ks (inferred preloaded)
29.76,APPROACH,ILS_TRACK,63.92,73,9.08,1907.24,-14.77,3.47,14.99,270.48,0.045,0,0,0,0,0,0,0,0,0,0,269.88,-3.922,0,0,-13.01,0,0,-3.93,269.89,0,0,0,0,0,12.52,184.38,31.544,-0.522,0,0,0,0,271.77,0,0,0,0,0,0,0,0,0,0,0,0,0,1,1,0,0,VALID,0,0,0,0,0,1,0,0,0,0,0,0,0,0,0,0,0,0,0,0,15.67,385.34,2,0,0.08,0.08,423,14.29,0.08,0.06,29.76,FLYING,CF1-F,0:/Integrated Flight Computer/aircraft/cf1_f_cfg.ks (inferred preloaded)
30.04,APPROACH,ILS_TRACK,63.95,73,9.05,1903.1,-14.78,3.46,14.99,270.48,0.041,0,0,0,0,0,0,0,0,0,0,269.88,-3.907,0,0,-13.02,0,0,-3.91,269.89,0,0,0,0,0,12.54,181.3,31.524,-0.521,0,0,0,0,271.77,0,0,0,0,0,0,0,0,0,0,0,0,0,1,1,0,0,VALID,0,0,0,0,0,1,0,0,0,0,0,0,0,0,0,0,0,0,0,0,14.62,385.52,2,0,0.08,0.08,427,14.29,0.08,0.06,30.04,FLYING,CF1-F,0:/Integrated Flight Computer/aircraft/cf1_f_cfg.ks (inferred preloaded)
30.32,APPROACH,ILS_TRACK,63.97,73,9.03,1898.96,-14.79,3.45,14.99,270.48,0.038,0,0,0,0,0,0,0,0,0,0,269.87,-3.891,0,0,-13.02,0,0,-3.89,269.88,0,0,0,0,0,12.57,178.22,31.504,-0.531,0,0,0,0,271.77,0,0,0,0,0,0,0,0,0,0,0,0,0,1,1,0,0,VALID,0,0,0,0,0,1,0,0,0,0,0,0,0,0,0,0,0,0,0,0,13.63,385.7,2,0,0.08,0.08,431,14.29,0.08,0.06,30.32,FLYING,CF1-F,0:/Integrated Flight Computer/aircraft/cf1_f_cfg.ks (inferred preloaded)
30.6,APPROACH,ILS_TRACK,63.98,73,9.02,1894.81,-14.8,3.44,14.99,270.48,0.035,0,0,0,0,0,0,0,0,0,0,269.89,-3.876,0,0,-13.02,0,0,-3.88,269.87,0,0,0,0,0,12.59,175.13,31.483,-0.509,0,0,0,0,271.77,0,0,0,0,0,0,0,0,0,0,0,0,0,1,1,0,0,VALID,0,0,0,0,0,1,0,0,0,0,0,0,0,0,0,0,0,0,0,0,12.71,385.89,2,0,0.08,0.08,435,14.29,0.08,0.06,30.6,FLYING,CF1-F,0:/Integrated Flight Computer/aircraft/cf1_f_cfg.ks (inferred preloaded)
30.88,APPROACH,ILS_TRACK,64,73,9,1890.66,-14.81,3.44,14.99,270.48,0.034,0,0,0,0,0,0,0,0,0,0,269.87,-3.86,0,0,-13.03,0,0,-3.86,269.88,0,0,0,0,0,12.61,172.04,31.463,-0.527,0,0,0,0,271.77,0,0,0,0,0,0,0,0,0,0,0,0,0,1,1,0,0,VALID,0,0,0,0,0,1,0,0,0,0,0,0,0,0,0,0,0,0,0,0,11.86,386.07,2,0,0.08,0.08,439,14.29,0.08,0.06,30.88,FLYING,CF1-F,0:/Integrated Flight Computer/aircraft/cf1_f_cfg.ks (inferred preloaded)
31.16,APPROACH,ILS_TRACK,64.01,73,8.99,1886.51,-14.82,3.43,14.99,270.48,0.032,0,0,0,0,0,0,0,0,0,0,269.87,-3.845,0,0,-13.03,0,0,-3.85,269.89,0,0,0,0,0,12.64,168.95,31.443,-0.534,0,0,0,0,271.77,0,0,0,0,0,0,0,0,0,0,0,0,0,1,1,0,0,VALID,0,0,0,0,0,1,0,0,0,0,0,0,0,0,0,0,0,0,0,0,11.06,386.26,2,0,0.08,0.08,443,14.29,0.08,0.06,31.16,FLYING,CF1-F,0:/Integrated Flight Computer/aircraft/cf1_f_cfg.ks (inferred preloaded)
31.44,APPROACH,ILS_TRACK,64.02,73,8.98,1882.36,-14.83,3.42,14.99,270.48,0.03,0,0,0,0,0,0,0,0,0,0,269.87,-3.829,0,0,-13.04,0,0,-3.83,269.87,0,0,0,0,0,12.66,165.86,31.423,-0.529,0,0,0,0,271.77,0,0,0,0,0,0,0,0,0,0,0,0,0,1,1,0,0,VALID,0,0,0,0,0,1,0,0,0,0,0,0,0,0,0,0,0,0,0,0,10.32,386.46,2,0,0.08,0.08,447,14.29,0.08,0.06,31.44,FLYING,CF1-F,0:/Integrated Flight Computer/aircraft/cf1_f_cfg.ks (inferred preloaded)
31.72,APPROACH,ILS_TRACK,64.02,73,8.98,1878.21,-14.83,3.41,14.99,270.48,0.029,0,0,0,0,0,0,0,0,0,0,269.87,-3.814,0,0,-13.04,0,0,-3.82,269.87,0,0,0,0,0,12.69,162.76,31.403,-0.53,0,0,0,0,271.77,0,0,0,0,0,0,0,0,0,0,0,0,0,1,1,0,0,VALID,0,0,0,0,0,1,0,0,0,0,0,0,0,0,0,0,0,0,0,0,9.62,386.65,2,0,0.08,0.08,451,14.29,0.08,0.06,31.72,FLYING,CF1-F,0:/Integrated Flight Computer/aircraft/cf1_f_cfg.ks (inferred preloaded)
32,APPROACH,ILS_TRACK,64.03,73,8.97,1874.05,-14.84,3.4,14.99,270.48,0.027,0,0,0,0,0,0,0,0,0,0,269.89,-3.798,0,0,-13.05,0,0,-3.8,269.86,0,0,0,0,0,12.71,159.67,31.382,-0.514,0,0,0,0,271.77,0,0,0,0,0,0,0,0,0,0,0,0,0,1,1,0,0,VALID,0,0,0,0,0,1,0,0,0,0,0,0,0,0,0,0,0,0,0,0,8.97,386.85,2,0,0.08,0.08,455,14.29,0.08,0.06,32,FLYING,CF1-F,0:/Integrated Flight Computer/aircraft/cf1_f_cfg.ks (inferred preloaded)
32.28,APPROACH,ILS_TRACK,64.03,73,8.97,1869.89,-14.85,3.39,14.99,270.48,0.026,0,0,0,0,0,0,0,0,0,0,269.87,-3.783,0,0,-13.06,0,0,-3.79,269.85,0,0,0,0,0,12.73,156.57,31.362,-0.532,0,0,0,0,271.77,0,0,0,0,0,0,0,0,0,0,0,0,0,1,1,0,0,VALID,0,0,0,0,0,1,0,0,0,0,0,0,0,0,0,0,0,0,0,0,8.37,387.04,2,0,0.08,0.08,459,14.29,0.08,0.06,32.28,FLYING,CF1-F,0:/Integrated Flight Computer/aircraft/cf1_f_cfg.ks (inferred preloaded)
32.56,APPROACH,ILS_TRACK,64.03,73,8.97,1865.73,-14.86,3.38,14.99,270.48,0.025,0,0,0,0,0,0,0,0,0,0,269.9,-3.767,0,0,-13.06,0,0,-3.77,269.83,0,0,0,0,0,12.76,153.46,31.342,-0.505,0,0,0,0,271.77,0,0,0,0,0,0,0,0,0,0,0,0,0,1,1,0,0,VALID,0,0,0,0,0,1,0,0,0,0,0,0,0,0,0,0,0,0,0,0,7.81,387.24,2,0,0.08,0.08,463,14.29,0.08,0.06,32.56,FLYING,CF1-F,0:/Integrated Flight Computer/aircraft/cf1_f_cfg.ks (inferred preloaded)
32.84,APPROACH,ILS_TRACK,64.02,73,8.98,1861.57,-14.87,3.37,14.99,270.48,0.024,0,0,0,0,0,0,0,0,0,0,269.87,-3.752,0,0,-13.07,0,0,-3.76,269.87,0,0,0,0,0,12.78,150.36,31.322,-0.534,0,0,0,0,271.77,0,0,0,0,0,0,0,0,0,0,0,0,0,1,1,0,0,VALID,0,0,0,0,0,1,0,0,0,0,0,0,0,0,0,0,0,0,0,0,7.28,387.44,2,0,0.08,0.08,467,14.29,0.08,0.06,32.84,FLYING,CF1-F,0:/Integrated Flight Computer/aircraft/cf1_f_cfg.ks (inferred preloaded)
33.12,APPROACH,ILS_TRACK,64.02,73,8.98,1857.41,-14.88,3.36,14.99,270.48,0.023,0,0,0,0,0,0,0,0,0,0,269.86,-3.736,0,0,-13.08,0,0,-3.74,269.88,0,0,0,0,0,12.81,147.25,31.302,-0.541,0,0,0,0,271.77,0,0,0,0,0,0,0,0,0,0,0,0,0,1,1,0,0,VALID,0,0,0,0,0,1,0,0,0,0,0,0,0,0,0,0,0,0,0,0,6.79,387.64,2,0,0.08,0.08,471,14.29,0.08,0.06,33.12,FLYING,CF1-F,0:/Integrated Flight Computer/aircraft/cf1_f_cfg.ks (inferred preloaded)
33.4,APPROACH,ILS_TRACK,64.02,73,8.98,1853.24,-14.88,3.35,14.99,270.48,0.022,0,0,0,0,0,0,0,0,0,0,269.86,-3.721,0,0,-13.09,0,0,-3.72,269.87,0,0,0,0,0,12.83,144.14,31.282,-0.536,0,0,0,0,271.77,0,0,0,0,0,0,0,0,0,0,0,0,0,1,1,0,0,VALID,0,0,0,0,0,1,0,0,0,0,0,0,0,0,0,0,0,0,0,0,6.33,387.84,2,0,0.08,0.08,475,14.29,0.08,0.06,33.4,FLYING,CF1-F,0:/Integrated Flight Computer/aircraft/cf1_f_cfg.ks (inferred preloaded)
33.68,APPROACH,ILS_TRACK,64.01,73,8.99,1849.07,-14.9,3.34,14.99,270.48,0.021,0,0,0,0,0,0,0,0,0,0,269.85,-3.705,0,0,-13.1,0,0,-3.71,269.87,0,0,0,0,0,12.86,141.02,31.261,-0.554,0,0,0,0,271.77,0,0,0,0,0,0,0,0,0,0,0,0,0,1,1,0,0,VALID,0,0,0,0,0,1,0,0,0,0,0,0,0,0,0,0,0,0,0,0,5.91,388.05,2,0,0.08,0.08,479,14.29,0.08,0.06,33.68,FLYING,CF1-F,0:/Integrated Flight Computer/aircraft/cf1_f_cfg.ks (inferred preloaded)
33.96,APPROACH,ILS_TRACK,64,73,9,1844.89,-14.91,3.33,14.99,270.48,0.02,0,0,0,0,0,0,0,0,0,0,269.87,-3.69,0,0,-13.11,0,0,-3.69,269.85,0,0,0,0,0,12.88,137.9,31.241,-0.532,0,0,0,0,271.77,0,0,0,0,0,0,0,0,0,0,0,0,0,1,1,0,0,VALID,0,0,0,0,0,1,0,0,0,0,0,0,0,0,0,0,0,0,0,0,5.51,388.25,2,0,0.08,0.08,483,14.29,0.08,0.06,33.96,FLYING,CF1-F,0:/Integrated Flight Computer/aircraft/cf1_f_cfg.ks (inferred preloaded)
34.24,APPROACH,ILS_TRACK,64,73,9,1840.71,-14.92,3.31,14.99,270.48,0.019,0,0,0,0,0,0,0,0,0,0,269.86,-3.674,0,0,-13.12,0,0,-3.68,269.87,0,0,0,0,0,12.9,134.78,31.221,-0.544,0,0,0,0,271.77,0,0,0,0,0,0,0,0,0,0,0,0,0,1,1,0,0,VALID,0,0,0,0,0,1,0,0,0,0,0,0,0,0,0,0,0,0,0,0,5.14,388.45,2,0,0.08,0.08,487,14.29,0.08,0.06,34.24,FLYING,CF1-F,0:/Integrated Flight Computer/aircraft/cf1_f_cfg.ks (inferred preloaded)
34.52,APPROACH,ILS_TRACK,63.99,73,9.01,1836.53,-14.93,3.3,14.99,270.48,0.018,0,0,0,0,0,0,0,0,0,0,269.86,-3.658,0,0,-13.13,0,0,-3.66,269.86,0,0,0,0,0,12.93,131.65,31.201,-0.537,0,0,0,0,271.77,0,0,0,0,0,0,0,0,0,0,0,0,0,1,1,0,0,VALID,0,0,0,0,0,1,0,0,0,0,0,0,0,0,0,0,0,0,0,0,4.79,388.66,2,0,0.08,0.08,491,14.29,0.08,0.06,34.52,FLYING,CF1-F,0:/Integrated Flight Computer/aircraft/cf1_f_cfg.ks (inferred preloaded)
34.8,APPROACH,ILS_TRACK,63.98,73,9.02,1832.35,-14.95,3.28,14.99,270.48,0.018,0,0,0,0,0,0,0,0,0,0,269.86,-3.643,0,0,-13.15,0,0,-3.65,269.84,0,0,0,0,0,12.95,128.52,31.181,-0.54,0,0,0,0,271.77,0,0,0,0,0,0,0,0,0,0,0,0,0,1,1,0,0,VALID,0,0,0,0,0,1,0,0,0,0,0,0,0,0,0,0,0,0,0,0,4.47,388.86,2,0,0.08,0.08,495,14.29,0.08,0.06,34.8,FLYING,CF1-F,0:/Integrated Flight Computer/aircraft/cf1_f_cfg.ks (inferred preloaded)
35.08,APPROACH,ILS_TRACK,63.97,73,9.03,1828.16,-14.96,3.27,14.99,270.48,0.017,0,0,0,0,0,0,0,0,0,0,269.86,-3.627,0,0,-13.16,0,0,-3.63,269.87,0,0,0,0,0,12.97,125.39,31.161,-0.542,0,0,0,0,271.77,0,0,0,0,0,0,0,0,0,0,0,0,0,1,1,0,0,VALID,0,0,0,0,0,1,0,0,0,0,0,0,0,0,0,0,0,0,0,0,4.17,389.07,2,0,0.08,0.08,499,14.29,0.08,0.06,35.08,FLYING,CF1-F,0:/Integrated Flight Computer/aircraft/cf1_f_cfg.ks (inferred preloaded)
35.36,APPROACH,ILS_TRACK,63.96,73,9.04,1823.96,-14.98,3.25,14.99,270.47,0.016,0,0,0,0,0,0,0,0,0,0,269.86,-3.611,0,0,-13.18,0,0,-3.62,269.85,0,0,0,0,0,13,122.25,31.141,-0.542,0,0,0,0,271.77,0,0,0,0,0,0,0,0,0,0,0,0,0,1,1,0,0,VALID,0,0,0,0,0,1,0,0,0,0,0,0,0,0,0,0,0,0,0,0,3.89,389.28,2,0,0.08,0.08,503,14.29,0.08,0.06,35.36,FLYING,CF1-F,0:/Integrated Flight Computer/aircraft/cf1_f_cfg.ks (inferred preloaded)
35.66,APPROACH,ILS_TRACK,63.96,73,9.04,1819.46,-14.99,3.23,14.99,270.47,0.015,0,0,0,0,0,0,0,0,0,0,269.86,-3.594,0,0,-13.19,0,0,-3.6,269.85,0,0,0,0,0,13.02,118.88,31.119,-0.538,0,0,0,0,271.77,0,0,0,0,0,0,0,0,0,0,0,0,0,1,1,0,0,VALID,0,0,0,0,0,1,0,0,0,0,0,0,0,0,0,0,0,0,0,0,3.61,389.5,2,0,0.1,0.1,507,13.33,0.1,0.06,35.66,FLYING,CF1-F,0:/Integrated Flight Computer/aircraft/cf1_f_cfg.ks (inferred preloaded)
35.98,APPROACH,ILS_TRACK,63.94,73,9.06,1814.66,-15.01,3.21,14.99,270.47,0.015,0,0,0,0,0,0,0,0,0,0,269.87,-3.576,0,0,-13.21,0,0,-3.58,269.85,0,0,0,0,0,13.05,115.27,31.096,-0.53,0,0,0,0,271.77,0,0,0,0,0,0,0,0,0,0,0,0,0,1,1,0,0,VALID,0,0,0,0,0,1,0,0,0,0,0,0,0,0,0,0,0,0,0,0,3.33,389.74,2,0,0.1,0.1,511,12.5,0.1,0.06,35.98,FLYING,CF1-F,0:/Integrated Flight Computer/aircraft/cf1_f_cfg.ks (inferred preloaded)
36.3,APPROACH,ILS_TRACK,63.93,73,9.07,1809.85,-15.03,3.19,14.99,270.47,0.014,0,0,0,0,0,0,0,0,0,0,269.87,-3.558,0,0,-13.23,0,0,-3.56,269.86,0,0,0,0,0,13.07,111.66,31.073,-0.533,0,0,0,0,271.77,0,0,0,0,0,0,0,0,0,0,0,0,0,1,1,0,0,VALID,0,0,0,0,0,1,0,0,0,0,0,0,0,0,0,0,0,0,0,0,3.08,389.97,2,0,0.1,0.1,515,12.5,0.1,0.06,36.3,FLYING,CF1-F,0:/Integrated Flight Computer/aircraft/cf1_f_cfg.ks (inferred preloaded)
36.58,APPROACH,ILS_TRACK,63.93,73,9.07,1805.63,-15.05,3.17,14.99,270.47,0.013,0,0,0,0,0,0,0,0,0,0,269.86,-3.543,0,0,-13.25,0,0,-3.55,269.86,0,0,0,0,0,13.1,108.5,31.053,-0.54,0,0,0,0,271.77,0,0,0,0,0,0,0,0,0,0,0,0,0,1,1,0,0,VALID,0,0,0,0,0,1,0,0,0,0,0,0,0,0,0,0,0,0,0,0,2.87,390.18,2,0,0.08,0.08,519,14.29,0.1,0.06,36.58,FLYING,CF1-F,0:/Integrated Flight Computer/aircraft/cf1_f_cfg.ks (inferred preloaded)
36.86,APPROACH,ILS_TRACK,63.92,73,9.08,1801.41,-15.07,3.15,14.99,270.47,0.013,0,0,0,0,0,0,0,0,0,0,269.86,-3.527,0,0,-13.27,0,0,-3.53,269.87,0,0,0,0,0,13.12,105.33,31.033,-0.543,0,0,0,0,271.77,0,0,0,0,0,0,0,0,0,0,0,0,0,1,1,0,0,VALID,0,0,0,0,0,1,0,0,0,0,0,0,0,0,0,0,0,0,0,0,2.68,390.39,2,0,0.08,0.08,523,14.29,0.08,0.06,36.86,FLYING,CF1-F,0:/Integrated Flight Computer/aircraft/cf1_f_cfg.ks (inferred preloaded)
37.14,APPROACH,ILS_TRACK,63.91,73,9.09,1797.18,-15.09,3.12,14.99,270.47,0.013,0,0,0,0,0,0,0,0,0,0,269.85,-3.511,0,0,-13.29,0,0,-3.51,269.86,0,0,0,0,0,13.14,102.15,31.013,-0.547,0,0,0,0,271.77,0,0,0,0,0,0,0,0,0,0,0,0,0,1,1,0,0,VALID,0,0,0,0,0,1,0,0,0,0,0,0,0,0,0,0,0,0,0,0,2.5,390.6,2,0,0.08,0.08,527,14.29,0.08,0.06,37.14,FLYING,CF1-F,0:/Integrated Flight Computer/aircraft/cf1_f_cfg.ks (inferred preloaded)
37.42,APPROACH,ILS_TRACK,63.9,73,9.1,1792.95,-15.12,3.1,14.99,270.47,0.013,0,0,0,0,0,0,0,0,0,0,269.86,-3.495,0,0,-13.31,0,0,-3.5,269.84,0,0,0,0,0,13.16,98.97,30.993,-0.543,0,0,0,0,271.77,0,0,0,0,0,0,0,0,0,0,0,0,0,1,1,0,0,VALID,0,0,0,0,0,1,0,0,0,0,0,0,0,0,0,0,0,0,0,0,2.33,390.81,2,0,0.08,0.08,531,14.29,0.08,0.06,37.42,FLYING,CF1-F,0:/Integrated Flight Computer/aircraft/cf1_f_cfg.ks (inferred preloaded)
37.7,APPROACH,ILS_TRACK,63.9,73,9.1,1788.71,-15.14,3.08,14.99,270.47,0.013,0,0,0,0,0,0,0,0,0,0,269.85,-3.479,0,0,-13.33,0,0,-3.48,269.86,0,0,0,0,0,13.19,95.78,30.973,-0.549,0,0,0,0,271.77,0,0,0,0,0,0,0,0,0,0,0,0,0,1,1,0,0,VALID,0,0,0,0,0,1,0,0,0,0,0,0,0,0,0,0,0,0,0,0,2.17,391.02,2,0,0.08,0.08,535,14.29,0.08,0.06,37.7,FLYING,CF1-F,0:/Integrated Flight Computer/aircraft/cf1_f_cfg.ks (inferred preloaded)
37.98,APPROACH,ILS_TRACK,63.89,73,9.11,1784.46,-15.16,3.06,14.99,270.47,0.013,0,0,0,0,0,0,0,0,0,0,269.86,-3.463,0,0,-13.35,0,0,-3.47,269.84,0,0,0,0,0,13.21,92.58,30.953,-0.537,0,0,0,0,271.77,0,0,0,0,0,0,0,0,0,0,0,0,0,1,1,0,0,VALID,0,0,0,0,0,1,0,0,0,0,0,0,0,0,0,0,0,0,0,0,2.03,391.23,2,0,0.08,0.08,539,14.29,0.08,0.06,37.98,FLYING,CF1-F,0:/Integrated Flight Computer/aircraft/cf1_f_cfg.ks (inferred preloaded)
38.26,APPROACH,ILS_TRACK,63.88,73,9.12,1780.21,-15.19,3.03,14.99,270.47,0.012,0,0,0,0,0,0,0,0,0,0,269.85,-3.447,0,0,-13.37,0,0,-3.45,269.85,0,0,0,0,0,13.23,89.38,30.933,-0.55,0,0,0,0,271.77,0,0,0,0,0,0,0,0,0,0,0,0,0,1,1,0,0,VALID,0,0,0,0,0,1,0,0,0,0,0,0,0,0,0,0,0,0,0,0,1.89,391.44,2,0,0.08,0.08,543,14.29,0.08,0.06,38.26,FLYING,CF1-F,0:/Integrated Flight Computer/aircraft/cf1_f_cfg.ks (inferred preloaded)
38.54,APPROACH,ILS_TRACK,63.88,73,9.12,1775.95,-15.21,3.01,14.99,270.47,0.012,0,0,0,0,0,0,0,0,0,0,269.84,-3.431,0,0,-13.39,0,0,-3.43,269.86,0,0,0,0,0,13.25,86.17,30.913,-0.556,0,0,0,0,271.77,0,0,0,0,0,0,0,0,0,0,0,0,0,1,1,0,0,VALID,0,0,0,0,0,1,0,0,0,0,0,0,0,0,0,0,0,0,0,0,1.76,391.65,2,0,0.08,0.08,547,14.29,0.08,0.06,38.54,FLYING,CF1-F,0:/Integrated Flight Computer/aircraft/cf1_f_cfg.ks (inferred preloaded)
38.82,APPROACH,ILS_TRACK,63.87,73,9.13,1771.68,-15.24,2.99,14.99,270.47,0.012,0,0,0,0,0,0,0,0,0,0,269.87,-3.415,0,0,-13.41,0,0,-3.42,269.83,0,0,0,0,0,13.27,82.95,30.893,-0.528,0,0,0,0,271.77,0,0,0,0,0,0,0,0,0,0,0,0,0,1,1,0,0,VALID,0,0,0,0,0,1,0,0,0,0,0,0,0,0,0,0,0,0,0,0,1.65,391.85,2,0,0.08,0.08,551,14.29,0.08,0.06,38.82,FLYING,CF1-F,0:/Integrated Flight Computer/aircraft/cf1_f_cfg.ks (inferred preloaded)
39.1,APPROACH,ILS_TRACK,63.87,73,9.13,1767.41,-15.26,2.96,14.99,270.47,0.013,0,0,0,0,0,0,0,0,0,0,269.85,-8.987,0,0,-13.44,0,0,-3.4,269.84,0.975,-0.0027,0.2223,6,269.85,13.29,79.72,30.873,-0.547,-14.691,0,0,0,271.77,0,0,0,0,0,0,0,0,0,0,0,0,0,1,1,0,0,VALID,0,0,0,0,0,1,0,0,0,0,0,0,0,0,0,0,0,0,0,0,1.53,392.06,2,0,0.08,0.08,555,14.29,0.08,0.06,39.1,FLYING,CF1-F,0:/Integrated Flight Computer/aircraft/cf1_f_cfg.ks (inferred preloaded)
39.4,APPROACH,ILS_TRACK,63.86,73,9.14,1762.82,-15.29,2.94,14.99,270.47,0.012,0,0,0,0,0,0,0,0,0,0,269.86,-8.987,0,1,-13.46,0,0,6,269.83,0.975,-0.0026,0.2222,6,269.86,13.32,76.26,30.852,-0.543,-13.632,0,0,0,271.77,0,0,0,0,0,0,0,0,0,0,0,0,0,2,2,0,0,VALID,0,0,0,0,0,1,0,0,0,0,0,0,0,0,0,0,0,0,0,0,1.42,392.29,2,0,0.08,0.08,559,13.33,0.1,0.06,39.4,FLYING,CF1-F,0:/Integrated Flight Computer/aircraft/cf1_f_cfg.ks (inferred preloaded)
39.68,APPROACH,ILS_TRACK,63.85,73,9.15,1758.53,-15.3,2.92,14.98,270.47,0.011,0,0,0,0,0,0,0,0,0,0,269.85,-8.985,0,1,-13.47,0,0,6,269.85,0.975,-0.0027,0.2222,6,269.85,13.34,73.02,30.832,-0.547,-12.644,0,0,0,271.77,0,0,0,0,0,0,0,0,0,0,0,0,0,2,2,0,0,VALID,0,0,0,0,0,1,0,0,0,0,0,0,0,0,0,0,0,0,0,0,1.33,392.5,2,0,0.08,0.08,563,14.29,0.08,0.06,39.68,FLYING,CF1-F,0:/Integrated Flight Computer/aircraft/cf1_f_cfg.ks (inferred preloaded)
39.96,APPROACH,ILS_TRACK,63.82,73,9.18,1754.25,-15.3,2.9,14.98,270.47,0.01,0,0,0,0,0,0,0,0,0,0,269.83,-8.982,0,1,-13.48,0,0,6,269.87,0.975,-0.0031,0.2222,6,269.83,13.36,69.77,30.812,-0.571,-11.666,0,0,0,271.77,0,0,0,0,0,0,0,0,0,0,0,0,0,2,2,0,0,VALID,0,0,0,0,0,1,0,0,0,0,0,0,0,0,0,0,0,0,0,0,1.24,392.73,2,0,0.08,0.08,567,14.29,0.08,0.06,39.96,FLYING,CF1-F,0:/Integrated Flight Computer/aircraft/cf1_f_cfg.ks (inferred preloaded)
40.26,APPROACH,ILS_TRACK,63.73,73,9.27,1749.66,-15.29,2.89,14.98,270.47,0.01,0,0,0,0,0,0,0,0,0,0,269.84,-8.982,0,1,-13.49,0,0,6,269.85,0.975,-0.0029,0.2221,6,269.84,13.38,66.3,30.79,-0.559,-10.635,0,0,0,271.77,0,0,0,0,0,0,0,0,0,0,0,0,0,2,2,0,0,VALID,0,0,0,0,0,1,0,0,0,0,0,0,0,0,0,0,0,0,0,0,1.15,393.01,2,0,0.1,0.1,571,13.33,0.1,0.06,40.26,FLYING,CF1-F,0:/Integrated Flight Computer/aircraft/cf1_f_cfg.ks (inferred preloaded)
