t_s,phase,subphase,ias_ms,vapp_ms,spd_err_ms,agl_m,vs_ms,pitch_deg,aoa_deg,hdg_deg,bank_deg,thr_cmd,thr_cur,thr_intg,at_gain,at_tau_s,at_a_up,at_a_dn,at_kp_thr,at_ki_spd,at_thr_slew,aa_hdg_cmd_deg,aa_fpa_cmd_deg,aa_fbw,aa_dir,actual_fpa_deg,ftf_hdg_err_deg,ftf_fix_idx,kos_steer_pit_deg,kos_steer_hdg_deg,aa_dir_vx,aa_dir_vy,aa_dir_vz,aa_dir_pitch_deg,aa_dir_hdg_deg,ils_loc_m,ils_gs_m,ils_dist_km,loc_corr_deg,gs_corr_deg,gs_latched,active_gs_ang_deg,ils_intercept_alt_m,d_gs_ms,fpa_preclamped_deg,gs_nom_alt_m,flare_fpa_cmd,flare_tgt_vs,flare_frac,steer_hdg_deg,steer_blend,ro_loc_corr_deg,ro_hdg_err_deg,ro_yaw_tgt,ro_yaw_scale,ro_yaw_gate,yaw_cmd,roll_cmd,pitch_cmd,ro_pitch_tgt_deg,ro_pitch_err_deg,ro_pitch_ff,ro_roll_assist,flaps_cur,flaps_tgt,asc_j_ab,asc_j_rk,asc_validity,asc_q_pa,asc_q_raw_pa,asc_mach,asc_apo_m,asc_drag_n,asc_w_prop,asc_edot_aero,asc_edot_orb,asc_pitch_bias,asc_blend,asc_spooling,asc_ab_thr_ratio,asc_ab_t_now,asc_ab_t_avail,asc_ab_ign_on,asc_ab_flameouts,asc_rk_t_now,asc_rk_t_avail,asc_rk_ign_on,asc_rk_flameouts,ship_thrust,ship_avail_thrust,ship_ign_on,ship_flameouts,ifc_raw_dt_s,ifc_dt_s,ifc_loop_n,ifc_hz_est,ifc_raw_dt_max_s,ifc_raw_dt_min_s,phase_el_s,status,craft_name,cfg_file
0.12,TAKEOFF,TO_PREFLIGHT,1.6,80,78.4,3.62,-0.01,-0.17,0.13,90.31,0.106,0.04,0,0,0,0,0,0,0,0,0,90.4,0,1,0,-0.32,0,0,0,90,0,0,0,0,0,0,0,0,0,0,0,3,0,0,0,69,0,0,0,90.4,1,0,-0.089,0,0,1,0,0,0,0,0,0,0,0,1,0,0,VALID,0,0,0,0,0,1,0,0,0,0,0,0,0,0,0,0,0,0,0,0,0,517.68,2,0,0.1,0.1,1,3.45,0.1,0.02,0.02,LANDED,CF1-H,0:/Integrated Flight Computer/aircraft/cf1_h_cfg.ks (inferred preloaded)
0.38,TAKEOFF,TO_PREFLIGHT,1.6,80,78.4,3.61,-0.01,-0.19,0.06,90.31,0.107,0.112,0,0,0,0,0,0,0,0,0,90.4,0,1,0,-0.25,0,0,0,90,0,0,0,0,0,0,0,0,0,0,0,3,0,0,0,69,0,0,0,90.4,1,0,-0.088,0,0,1,0,0,0,0,0,0,0,1,1,0,0,VALID,0,0,0,0,0,1,0,0,0,0,0,0,0,0,0,0,0,0,0,0,0.35,517.68,2,0,0.04,0.04,6,19.23,0.1,0.04,0.28,LANDED,CF1-H,0:/Integrated Flight Computer/aircraft/cf1_h_cfg.ks (inferred preloaded)
0.64,TAKEOFF,TO_PREFLIGHT,1.47,80,78.53,3.6,0,-0.26,-0.21,90.32,0.108,0.216,0,0,0,0,0,0,0,0,0,90.4,0,1,0,-0.06,0,0,0,90,0,0,0,0,0,0,0,0,0,0,0,3,0,0,0,69,0,0,0,90.4,1,0,-0.088,0,0,1,0,0,0,0,0,0,0,1,1,0,0,VALID,0,0,0,0,0,1,0,0,0,0,0,0,0,0,0,0,0,0,0,0,1.44,517.71,2,0,0.04,0.04,11,19.23,0.08,0.04,0.54,LANDED,CF1-H,0:/Integrated Flight Computer/aircraft/cf1_h_cfg.ks (inferred preloaded)
0.9,TAKEOFF,TO_PREFLIGHT,1.16,80,78.84,3.59,0,-0.32,-0.12,90.32,0.109,0.32,0,0,0,0,0,0,0,0,0,90.4,0,1,0,-0.18,0,0,0,90,0,0,0,0,0,0,0,0,0,0,0,3,0,0,0,69,0,0,0,90.4,1,0,-0.088,0,0,1,0,0,0,0,0,0,0,1,1,0,0,VALID,0,0,0,0,0,1,0,0,0,0,0,0,0,0,0,0,0,0,0,0,3.35,517.79,2,0,0.04,0.04,16,19.23,0.08,0.04,0.8,LANDED,CF1-H,0:/Integrated Flight Computer/aircraft/cf1_h_cfg.ks (inferred preloaded)
1.16,TAKEOFF,TO_PREFLIGHT,0.71,80,79.29,3.59,0,-0.34,-0.04,90.33,0.108,0.424,0,0,0,0,0,0,0,0,0,90.4,0,1,0,-0.19,0,0,0,90,0,0,0,0,0,0,0,0,0,0,0,3,0,0,0,69,0,0,0,90.4,1,0,-0.088,0,0,1,0,0,0,0,0,0,0,1,1,0,0,VALID,0,0,0,0,0,1,0,0,0,0,0,0,0,0,0,0,0,0,0,0,6.06,517.9,2,0,0.04,0.04,21,19.23,0.08,0.04,1.06,LANDED,CF1-H,0:/Integrated Flight Computer/aircraft/cf1_h_cfg.ks (inferred preloaded)
1.42,TAKEOFF,TO_PREFLIGHT,0.22,80,79.78,3.59,0,-0.32,1.26,90.32,0.106,0.528,0,0,0,0,0,0,0,0,0,90.4,0,1,0,-0.11,0,0,0,90,0,0,0,0,0,0,0,0,0,0,0,3,0,0,0,69,0,0,0,90.4,1,0,-0.088,0,0,1,0,0,0,0,0,0,0,1,1,0,0,VALID,0,0,0,0,0,1,0,0,0,0,0,0,0,0,0,0,0,0,0,0,9.57,518.02,2,0,0.04,0.04,26,19.23,0.08,0.04,1.32,LANDED,CF1-H,0:/Integrated Flight Computer/aircraft/cf1_h_cfg.ks (inferred preloaded)
1.68,TAKEOFF,TO_PREFLIGHT,0.06,80,79.94,3.62,-0.03,-0.15,25.35,90.32,0.105,0.632,0,0,0,0,0,0,0,0,0,90.4,0,1,0,-1.47,0,0,0,90,0,0,0,0,0,0,0,0,0,0,0,3,0,0,0,69,0,0,0,90.4,1,0,-0.088,0,0,1,0,0,0,0,0,0,0,1,1,0,0,VALID,0,0,0,0,0,1,0,0,0,0,0,0,0,0,0,0,0,0,0,0,13.86,518.06,2,0,0.04,0.04,31,19.23,0.08,0.04,1.58,LANDED,CF1-H,0:/Integrated Flight Computer/aircraft/cf1_h_cfg.ks (inferred preloaded)
1.94,TAKEOFF,TO_PREFLIGHT,0.01,80,79.99,3.62,0.02,-0.12,-28.07,90.33,0.106,0.736,0,0,0,0,0,0,0,0,0,90.4,0,1,0,0.91,0,0,0,90,0,0,0,0,0,0,0,0,0,0,0,3,0,0,0,69,0,0,0,90.4,1,0,-0.088,0,0,1,0,0,0,0,0,0,0,1,1,0,0,VALID,0,0,0,0,0,1,0,0,0,0,0,0,0,0,0,0,0,0,0,0,18.92,518.07,2,0,0.04,0.04,36,19.23,0.08,0.04,1.84,LANDED,CF1-H,0:/Integrated Flight Computer/aircraft/cf1_h_cfg.ks (inferred preloaded)
2.26,TAKEOFF,TO_PREFLIGHT,0.06,80,79.94,3.6,0,-0.26,-3.32,90.33,0.109,0.864,0,0,0,0,0,0,0,0,0,90.4,0,1,0,0.03,0,0,0,90,0,0,0,0,0,0,0,0,0,0,0,3,0,0,0,69,0,0,0,90.4,1,0,-0.088,0,0,1,0,0,0,0,0,0,0,1,1,0,0,VALID,0,0,0,0,0,1,0,0,0,0,0,0,0,0,0,0,0,0,0,0,26.17,518.06,2,0,0.08,0.08,41,15.63,0.08,0.04,2.16,LANDED,CF1-H,0:/Integrated Flight Computer/aircraft/cf1_h_cfg.ks (inferred preloaded)
2.54,TAKEOFF,TO_PREFLIGHT,0.01,80,79.99,3.61,-0.01,-0.2,80.79,90.33,0.109,0.976,0,0,0,0,0,0,0,0,0,90.4,0,1,0,-0.44,0,0,0,90,0,0,0,0,0,0,0,0,0,0,0,3,0,0,0,69,0,0,0,90.4,1,0,-0.088,0,0,1,0,0,0,0,0,0,0,1,1,0,0,VALID,0,0,0,0,0,1,0,0,0,0,0,0,0,0,0,0,0,0,0,0,33.42,518.07,2,0,0.08,0.08,45,14.29,0.08,0.06,2.44,LANDED,CF1-H,0:/Integrated Flight Computer/aircraft/cf1_h_cfg.ks (inferred preloaded)
2.82,TAKEOFF,TO_PREFLIGHT,0.02,80,79.98,3.61,0,-0.19,-6.46,90.34,0.108,1,0,0,0,0,0,0,0,0,0,90.4,0,1,0,0.25,0,0,0,90,0,0,0,0,0,0,0,0,0,0,0,3,0,0,0,69,0,0,0,90.4,1,0,-0.088,0,0,1,0,0,0,0,0,0,0,1,1,0,0,VALID,0,0,0,0,0,1,0,0,0,0,0,0,0,0,0,0,0,0,0,0,41.39,518.06,2,0,0.08,0.08,49,14.29,0.08,0.06,2.72,LANDED,CF1-H,0:/Integrated Flight Computer/aircraft/cf1_h_cfg.ks (inferred preloaded)
3.1,TAKEOFF,TO_PREFLIGHT,0.05,80,79.95,3.61,0,-0.24,-3.62,90.34,0.106,1,0,0,0,0,0,0,0,0,0,90.4,0,1,0,0.1,0,0,0,90,0,0,0,0,0,0,0,0,0,0,0,3,0,0,0,69,0,0,0,90.4,1,0,-0.088,0,0,1,0,0,0,0,0,0,0,1,1,0,0,VALID,0,0,0,0,0,1,0,0,0,0,0,0,0,0,0,0,0,0,0,0,49.33,518.06,2,0,0.08,0.08,53,14.29,0.08,0.06,3,LANDED,CF1-H,0:/Integrated Flight Computer/aircraft/cf1_h_cfg.ks (inferred preloaded)
3.38,TAKEOFF,TO_GROUND_ROLL,0.05,80,79.95,3.61,0,-0.21,2.4,90.34,0.106,1,0,0,0,0,0,0,0,0,0,90.4,0,1,0,-0.28,0,0,0,90,0,0,0,0,0,0,0,0,0,0,0,3,0,0,0,69,0,0,0,90.4,1,0,-0.057,0.0004,0.25,1,0.0004,0,0,0,0,0,0,1,1,0,0,VALID,0,0,0,0,0,1,0,0,0,0,0,0,0,0,0,0,0,0,0,0,57.15,518.06,2,0,0.08,0.08,57,14.29,0.08,0.06,3.3,LANDED,CF1-H,0:/Integrated Flight Computer/aircraft/cf1_h_cfg.ks (inferred preloaded)
3.66,TAKEOFF,TO_GROUND_ROLL,0.27,80,79.73,3.62,-0.01,-0.1,1.08,90.34,0.107,1,0,0,0,0,0,0,0,0,0,90.4,0,1,0,-0.35,0,0,0,90,0,0,0,0,0,0,0,0,0,0,0,3,0,0,0,69,0,0,0,90.4,1,0,-0.054,0.0004,0.25,1,0.0004,0,0,0,0,0,0,1,1,0,0,VALID,0,0,0,0,0,1,0,0,0,0,0,0,0,0,0,0,0,0,0,0,64.82,518,2,0,0.08,0.08,61,14.29,0.08,0.06,3.58,LANDED,CF1-H,0:/Integrated Flight Computer/aircraft/cf1_h_cfg.ks (inferred preloaded)
3.94,TAKEOFF,TO_GROUND_ROLL,0.6,80,79.4,3.62,0,-0.16,-0.39,90.35,0.108,1,0,0,0,0,0,0,0,0,0,90.4,0,1,0,0.09,0,0,0,90,0,0,0,0,0,0,0,0,0,0,0,3,0,0,0,69,0,0,0,90.4,1,0,-0.05,0.0003,0.25,1,0.0003,0,0,0,0,0,0,1,1,0,0,VALID,0,0,0,0,0,1,0,0,0,0,0,0,0,0,0,0,0,0,0,0,72.37,517.92,2,0,0.08,0.08,65,14.29,0.08,0.06,3.86,LANDED,CF1-H,0:/Integrated Flight Computer/aircraft/cf1_h_cfg.ks (inferred preloaded)
4.22,TAKEOFF,TO_GROUND_ROLL,0.97,80,79.03,3.62,-0.01,-0.14,0.47,90.35,0.107,1,0,0,0,0,0,0,0,0,0,90.4,0,1,0,-0.71,0,0,0,90,0,0,0,0,0,0,0,0,0,0,0,3,0,0,0,69,0,0,0,90.4,1,0,-0.045,0.0003,0.25,1,0.0003,0,0,0,0,0,0,1,1,0,0,VALID,0,0,0,0,0,1,0,0,0,0,0,0,0,0,0,0,0,0,0,0,79.78,517.83,2,0,0.08,0.08,69,14.29,0.08,0.06,4.14,LANDED,CF1-H,0:/Integrated Flight Computer/aircraft/cf1_h_cfg.ks (inferred preloaded)
4.5,TAKEOFF,TO_GROUND_ROLL,1.38,80,78.62,3.62,-0.01,-0.13,0.09,90.36,0.106,1,0,0,0,0,0,0,0,0,0,90.4,0,1,0,-0.25,0,0,0,90,0,0,0,0,0,0,0,0,0,0,0,3,0,0,0,69,0,0,0,90.4,1,0,-0.039,0.0003,0.25,1,0.0003,0,0,0,0,0,0,1,1,0,0,VALID,0,0,0,0,0,1,0,0,0,0,0,0,0,0,0,0,0,0,0,0,87.07,517.73,2,0,0.08,0.08,73,14.29,0.08,0.06,4.42,LANDED,CF1-H,0:/Integrated Flight Computer/aircraft/cf1_h_cfg.ks (inferred preloaded)
4.78,TAKEOFF,TO_GROUND_ROLL,1.82,80,78.18,3.62,-0.01,-0.15,0.14,90.36,0.106,1,0,0,0,0,0,0,0,0,0,90.4,0,1,0,-0.36,0,0,0,90,0,0,0,0,0,0,0,0,0,0,0,3,0,0,0,69,0,0,0,90.4,1,0,-0.033,0.0002,0.25,1,0.0002,0,0,0,0,0,0,1,1,0,0,VALID,0,0,0,0,0,1,0,0,0,0,0,0,0,0,0,0,0,0,0,0,94.22,517.62,2,0,0.08,0.08,77,14.29,0.08,0.06,4.7,LANDED,CF1-H,0:/Integrated Flight Computer/aircraft/cf1_h_cfg.ks (inferred preloaded)
5.06,TAKEOFF,TO_GROUND_ROLL,2.3,80,77.7,3.62,-0.01,-0.13,0.2,90.37,0.107,1,0,0,0,0,0,0,0,0,0,90.4,0,1,0,-0.37,0,0,0,90,0,0,0,0,0,0,0,0,0,0,0,3,0,0,0,69,0,0,0,90.4,1,0,-0.027,0.0002,0.25,1,0.0002,0,0,0,0,0,0,1,1,0,0,VALID,0,0,0,0,0,1,0,0,0,0,0,0,0,0,0,0,0,0,0,0,101.26,517.49,2,0,0.08,0.08,81,14.29,0.08,0.06,4.98,LANDED,CF1-H,0:/Integrated Flight Computer/aircraft/cf1_h_cfg.ks (inferred preloaded)
5.34,TAKEOFF,TO_GROUND_ROLL,2.81,80,77.19,3.62,-0.01,-0.13,0.14,90.37,0.107,1,0,0,0,0,0,0,0,0,0,90.4,0,1,0,-0.3,0,0,0,90,0,0,0,0,0,0,0,0,0,0,0,3,0,0,0,69,0,0,0,90.4,1,0,-0.021,0.0001,0.25,1,0.0001,0,0,0,0,0,0,1,1,0,0,VALID,0,0,0,0,0,1,0,0,0,0,0,0,0,0,0,0,0,0,0,0,108.17,517.36,2,0,0.08,0.08,85,14.29,0.08,0.06,5.26,LANDED,CF1-H,0:/Integrated Flight Computer/aircraft/cf1_h_cfg.ks (inferred preloaded)
5.62,TAKEOFF,TO_GROUND_ROLL,3.35,80,76.65,3.62,-0.02,-0.13,0.2,90.38,0.107,1,0,0,0,0,0,0,0,0,0,90.4,0,1,0,-0.36,0,0,0,90,0,0,0,0,0,0,0,0,0,0,0,3,0,0,0,69,0,0,0,90.4,1,0,-0.015,0.0001,0.25,1,0.0001,0,0,0,0,0,0,1,1,0,0,VALID,0,0,0,0,0,1,0,0,0,0,0,0,0,0,0,0,0,0,0,0,114.96,517.21,2,0,0.08,0.08,89,14.29,0.08,0.06,5.54,LANDED,CF1-H,0:/Integrated Flight Computer/aircraft/cf1_h_cfg.ks (inferred preloaded)
5.9,TAKEOFF,TO_GROUND_ROLL,3.93,80,76.07,3.62,-0.02,-0.12,0.17,90.39,0.106,1,0,0,0,0,0,0,0,0,0,90.4,0,1,0,-0.32,0,0,0,90,0,0,0,0,0,0,0,0,-0.001,0,0,3,0,0,0,69,0,0,0,90.4,1,-0.001,-0.009,0.0001,0.25,1,0.0001,0,0,0,0,0,0,1,1,0,0,VALID,0,0,0,0,0,1,0,0,0,0,0,0,0,0,0,0,0,0,0,0,121.63,517.05,2,0,0.08,0.08,93,14.29,0.08,0.06,5.82,LANDED,CF1-H,0:/Integrated Flight Computer/aircraft/cf1_h_cfg.ks (inferred preloaded)
6.18,TAKEOFF,TO_GROUND_ROLL,4.54,80,75.46,3.62,-0.03,-0.13,0.17,90.39,0.106,1,0,0,0,0,0,0,0,0,0,90.4,0,1,0,-0.33,0,0,0,90,0,0,0,0,0,0,0,0,-0.001,0,0,3,0,0,0,69,0,0,0,90.4,1,-0.001,-0.004,0,0.25,1,0,0,0,0,0,0,0,1,1,0,0,VALID,0,0,0,0,0,1,0,0,0,0,0,0,0,0,0,0,0,0,0,0,128.17,516.88,2,0,0.08,0.08,97,14.29,0.08,0.06,6.1,LANDED,CF1-H,0:/Integrated Flight Computer/aircraft/cf1_h_cfg.ks (inferred preloaded)
6.46,TAKEOFF,TO_GROUND_ROLL,5.19,80,74.81,3.62,-0.03,-0.12,0.18,90.39,0.107,1,0,0,0,0,0,0,0,0,0,90.41,0,1,0,-0.33,0,0,0,90,0,0,0,0,0,0,0,0,-0.001,0,0,3,0,0,0,69,0,0,0,90.41,1,-0.001,-0.02,0.0001,0.25,1,0.0001,0,0,0,0,0,0,1,1,0,0,VALID,0,0,0,0,0,1,0,0,0,0,0,0,0,0,0,0,0,0,0,0,134.61,516.69,2,0,0.08,0.08,101,14.29,0.08,0.06,6.38,LANDED,CF1-H,0:/Integrated Flight Computer/aircraft/cf1_h_cfg.ks (inferred preloaded)
6.74,TAKEOFF,TO_GROUND_ROLL,5.86,80,74.14,3.62,-0.03,-0.12,0.18,90.38,0.107,1,0,0,0,0,0,0,0,0,0,90.4,0,1,0,-0.33,0,0,0,90,0,0,0,0,0,0,0,0,-0.001,0,0,3,0,0,0,69,0,0,0,90.4,1,-0.001,-0.019,0.0001,0.25,1,0.0001,0,0,0,0,0,0,1,1,0,0,VALID,0,0,0,0,0,1,0,0,0,0,0,0,0,0,0,0,0,0,0,0,140.92,516.5,2,0,0.08,0.08,105,14.29,0.08,0.06,6.66,LANDED,CF1-H,0:/Integrated Flight Computer/aircraft/cf1_h_cfg.ks (inferred preloaded)
7.02,TAKEOFF,TO_GROUND_ROLL,6.56,80,73.44,3.62,-0.04,-0.12,0.19,90.38,0.108,1,0,0,0,0,0,0,0,0,0,90.4,0,1,0,-0.33,0,0,0,90,0,0,0,0,0,0,0,0,-0.001,0,0,3,0,0,0,69,0,0,0,90.4,1,-0.001,-0.013,0.0001,0.25,1,0.0001,0,0,0,0,0,0,1,1,0,0,VALID,0,0,0,0,0,1,0,0,0,0,0,0,0,0,0,0,0,0,0,0,147.12,516.28,2,0,0.08,0.08,109,14.29,0.08,0.06,6.94,LANDED,CF1-H,0:/Integrated Flight Computer/aircraft/cf1_h_cfg.ks (inferred preloaded)
7.3,TAKEOFF,TO_GROUND_ROLL,7.3,80,72.7,3.62,-0.04,-0.11,0.19,90.39,0.107,1,0,0,0,0,0,0,0,0,0,90.39,0,1,0,-0.33,0,0,0,90,0,0,0,0,0,0,0,0,-0.002,0,0,3,0,0,0,69,0,0,0,90.39,1,-0.002,-0.006,0,0.25,1,0,0,0,0,0,0,0,1,1,0,0,VALID,0,0,0,0,0,1,0,0,0,0,0,0,0,0,0,0,0,0,0,0,153.21,516.06,2,0,0.08,0.08,113,14.29,0.08,0.06,7.22,LANDED,CF1-H,0:/Integrated Flight Computer/aircraft/cf1_h_cfg.ks (inferred preloaded)
7.58,TAKEOFF,TO_GROUND_ROLL,8.06,80,71.94,3.62,-0.05,-0.11,0.19,90.39,0.106,1,0,0,0,0,0,0,0,0,0,90.39,0,1,0,-0.33,0,0,0,90,0,0,0,0,0,0,0,0,-0.002,0,0,3,0,0,0,69,0,0,0,90.39,1,-0.002,0,0,0.25,1,0,0,0,0,0,0,0,1,1,0,0,VALID,0,0,0,0,0,1,0,0,0,0,0,0,0,0,0,0,0,0,0,0,159.18,515.82,2,0,0.08,0.08,117,14.29,0.08,0.06,7.5,LANDED,CF1-H,0:/Integrated Flight Computer/aircraft/cf1_h_cfg.ks (inferred preloaded)
7.86,TAKEOFF,TO_GROUND_ROLL,8.86,80,71.14,3.62,-0.05,-0.11,0.19,90.4,0.105,1,0,0,0,0,0,0,0,0,0,90.4,0,1,0,-0.33,0,0,0,90,0,0,0,0,0,0,0,0,-0.002,0,0,3,0,0,0,69,0,0,0,90.4,1,-0.002,0.003,0,0.25,1,0,0,0,0,0,0,0,1,1,0,0,VALID,0,0,0,0,0,1,0,0,0,0,0,0,0,0,0,0,0,0,0,0,165.05,515.56,2,0,0.08,0.08,121,14.29,0.08,0.06,7.78,LANDED,CF1-H,0:/Integrated Flight Computer/aircraft/cf1_h_cfg.ks (inferred preloaded)
8.14,TAKEOFF,TO_GROUND_ROLL,9.68,80,70.32,3.62,-0.06,-0.11,0.2,90.39,0.106,1,0,0,0,0,0,0,0,0,0,90.4,0,1,0,-0.33,0,0,0,90,0,0,0,0,0,0,0,0,-0.003,0,0,3,0,0,0,69,0,0,0,90.4,1,-0.003,-0.008,0,0.25,1,0,0,0,0,0,0,0,1,1,0,0,VALID,0,0,0,0,0,1,0,0,0,0,0,0,0,0,0,0,0,0,0,0,170.8,515.29,2,0,0.08,0.08,125,14.29,0.08,0.06,8.06,LANDED,CF1-H,0:/Integrated Flight Computer/aircraft/cf1_h_cfg.ks (inferred preloaded)
8.42,TAKEOFF,TO_GROUND_ROLL,10.53,80,69.47,3.62,-0.06,-0.11,0.2,90.39,0.108,1,0,0,0,0,0,0,0,0,0,90.4,0,1,0,-0.33,0,0,0,90,0,0,0,0,0,0,0,0,-0.003,0,0,3,0,0,0,69,0,0,0,90.4,1,-0.003,-0.01,0.0001,0.25,1,0.0001,0,0,0,0,0,0,1,1,0,0,VALID,0,0,0,0,0,1,0,0,0,0,0,0,0,0,0,0,0,0,0,0,176.45,515,2,0,0.08,0.08,129,14.29,0.08,0.06,8.34,LANDED,CF1-H,0:/Integrated Flight Computer/aircraft/cf1_h_cfg.ks (inferred preloaded)
8.7,TAKEOFF,TO_GROUND_ROLL,11.4,80,68.6,3.62,-0.06,-0.1,0.19,90.39,0.109,1,0,0,0,0,0,0,0,0,0,90.4,0,1,0,-0.32,0,0,0,90,0,0,0,0,0,0,0,0,-0.003,0,0,3,0,0,0,69,0,0,0,90.4,1,-0.003,-0.007,0,0.25,1,0,0,0,0,0,0,0,1,1,0,0,VALID,0,0,0,0,0,1,0,0,0,0,0,0,0,0,0,0,0,0,0,0,181.98,514.7,2,0,0.08,0.08,133,14.29,0.08,0.06,8.62,LANDED,CF1-H,0:/Integrated Flight Computer/aircraft/cf1_h_cfg.ks (inferred preloaded)
8.98,TAKEOFF,TO_GROUND_ROLL,12.31,80,67.69,3.62,-0.07,-0.1,0.2,90.39,0.109,1,0,0,0,0,0,0,0,0,0,90.4,0,1,0,-0.32,0,0,0,90,0,0,0,0,0,0,0,0,-0.004,0,0,3,0,0,0,69,0,0,0,90.4,1,-0.004,-0.01,0.0001,0.25,1,0.0001,0,0,0,0,0,0,1,1,0,0,VALID,0,0,0,0,0,1,0,0,0,0,0,0,0,0,0,0,0,0,0,0,187.41,514.38,2,0,0.08,0.08,137,14.29,0.08,0.06,8.9,LANDED,CF1-H,0:/Integrated Flight Computer/aircraft/cf1_h_cfg.ks (inferred preloaded)
9.26,TAKEOFF,TO_GROUND_ROLL,13.23,80,66.77,3.62,-0.07,-0.1,0.2,90.38,0.107,1,0,0,0,0,0,0,0,0,0,90.4,0,1,0,-0.32,0,0,0,90,0,0,0,0,0,0,0,0,-0.004,0,0,3,0,0,0,69,0,0,0,90.4,1,-0.004,-0.018,0.0001,0.25,1,0.0001,0,0,0,0,0,0,1,1,0,0,VALID,0,0,0,0,0,1,0,0,0,0,0,0,0,0,0,0,0,0,0,0,192.74,514.04,2,0,0.08,0.08,141,14.29,0.08,0.06,9.18,LANDED,CF1-H,0:/Integrated Flight Computer/aircraft/cf1_h_cfg.ks (inferred preloaded)
9.54,TAKEOFF,TO_GROUND_ROLL,14.19,80,65.81,3.63,-0.08,-0.1,0.2,90.38,0.107,1,0,0,0,0,0,0,0,0,0,90.39,0,1,0,-0.32,0,0,0,90,0,0,0,0,0,0,0,0,-0.005,0,0,3,0,0,0,69,0,0,0,90.39,1,-0.005,-0.015,0.0001,0.25,1,0.0001,0,0,0,0,0,0,1,1,0,0,VALID,0,0,0,0,0,1,0,0,0,0,0,0,0,0,0,0,0,0,0,0,197.96,513.69,2,0,0.08,0.08,145,14.29,0.08,0.06,9.46,LANDED,CF1-H,0:/Integrated Flight Computer/aircraft/cf1_h_cfg.ks (inferred preloaded)
9.82,TAKEOFF,TO_GROUND_ROLL,15.17,80,64.83,3.63,-0.09,-0.1,0.21,90.38,0.107,1,0,0,0,0,0,0,0,0,0,90.39,0,1,0,-0.33,0,0,0,90,0,0,0,0,0,0,0,0,-0.006,0,0,3,0,0,0,69,0,0,0,90.39,1,-0.006,-0.008,0.0001,0.25,1,0.0001,0,0,0,0,0,0,1,1,0,0,VALID,0,0,0,0,0,1,0,0,0,0,0,0,0,0,0,0,0,0,0,0,203.08,513.31,2,0,0.08,0.08,149,14.29,0.08,0.06,9.74,LANDED,CF1-H,0:/Integrated Flight Computer/aircraft/cf1_h_cfg.ks (inferred preloaded)
10.1,TAKEOFF,TO_GROUND_ROLL,16.17,80,63.83,3.63,-0.09,-0.09,0.21,90.39,0.106,1,0,0,0,0,0,0,0,0,0,90.39,0,1,0,-0.32,0,0,0,90,0,0,0,0,0,0,0,0,-0.006,0,0,3,0,0,0,69,0,0,0,90.39,1,-0.006,-0.003,0,0.25,1,0,0,0,0,0,0,0,1,1,0,0,VALID,0,0,0,0,0,1,0,0,0,0,0,0,0,0,0,0,0,0,0,0,208.09,512.92,2,0,0.08,0.08,153,14.29,0.08,0.06,10.02,LANDED,CF1-H,0:/Integrated Flight Computer/aircraft/cf1_h_cfg.ks (inferred preloaded)
10.38,TAKEOFF,TO_GROUND_ROLL,17.2,80,62.8,3.63,-0.1,-0.09,0.21,90.39,0.105,1,0,0,0,0,0,0,0,0,0,90.39,0,1,0,-0.32,0,0,0.01,90,0,0,0,0,0,0,0,0,-0.007,0,0,3,0,0,0,69,0,0,0,90.39,1,-0.007,-0.002,0,0.25,1,0,0,0,0,0,0,0,1,1,0,0,VALID,0,0,0,0,0,1,0,0,0,0,0,0,0,0,0,0,0,0,0,0,213,512.51,2,0,0.08,0.08,157,14.29,0.08,0.06,10.3,LANDED,CF1-H,0:/Integrated Flight Computer/aircraft/cf1_h_cfg.ks (inferred preloaded)
10.66,TAKEOFF,TO_GROUND_ROLL,18.25,80,61.75,3.63,-0.1,-0.09,0.21,90.39,0.105,1,0,0,0,0,0,0,0,0,0,90.4,0,1,0,-0.32,0,0,0.01,90,0,0,0,0,0,0,0,0,-0.008,0,0,3,0,0,0,69,0,0,0,90.4,1,-0.008,-0.006,0,0.25,1,0,0,0,0,0,0,0,1,1,0,0,VALID,0,0,0,0,0,1,0,0,0,0,0,0,0,0,0,0,0,0,0,0,217.81,512.08,2,0,0.08,0.08,161,14.29,0.08,0.06,10.58,LANDED,CF1-H,0:/Integrated Flight Computer/aircraft/cf1_h_cfg.ks (inferred preloaded)
10.94,TAKEOFF,TO_GROUND_ROLL,19.33,80,60.67,3.63,-0.11,-0.09,0.21,90.39,0.107,1,0,0,0,0,0,0,0,0,0,90.39,0,1,0,-0.32,0,0,0.01,90,0,0,0,0,0,0,0,0,-0.008,0,0,3,0,0,0,69,0,0,0,90.39,1,-0.008,-0.006,0,0.25,1,0,0,0,0,0,0,0,1,1,0,0,VALID,0,0,0,0,0,1,0,0,0,0,0,0,0,0,0,0,0,0,0,0,222.52,511.64,2,0,0.08,0.08,165,14.29,0.08,0.06,10.86,LANDED,CF1-H,0:/Integrated Flight Computer/aircraft/cf1_h_cfg.ks (inferred preloaded)
11.22,TAKEOFF,TO_GROUND_ROLL,20.43,80,59.57,3.63,-0.11,-0.09,0.21,90.39,0.109,1,0,0,0,0,0,0,0,0,0,90.39,0,1,0,-0.32,0,0,0.01,90,0,0,0,0,0,0,0,0,-0.009,0,0,3,0,0,0,69,0,0,0,90.39,1,-0.009,-0.005,0,0.255,0,0,0,0,0,0,0,0,1,1,0,0,VALID,0,0,0,0,0,1,0,0,0,0,0,0,0,0,0,0,0,0,0,0,227.14,511.17,2,0,0.08,0.08,169,14.29,0.08,0.06,11.14,LANDED,CF1-H,0:/Integrated Flight Computer/aircraft/cf1_h_cfg.ks (inferred preloaded)
11.5,TAKEOFF,TO_GROUND_ROLL,21.55,80,58.45,3.63,-0.12,-0.08,0.21,90.38,0.109,1,0,0,0,0,0,0,0,0,0,90.39,0,1,0,-0.32,0,0,0.01,90,0,0,0,0,0,0,0,0,-0.01,0,0,3,0,0,0,69,0,0,0,90.39,1,-0.01,-0.012,0.0001,0.267,0,0.0001,0,0,0,0,0,0,1,1,0,0,VALID,0,0,0,0,0,1,0,0,0,0,0,0,0,0,0,0,0,0,0,0,231.65,510.68,2,0,0.08,0.08,173,14.29,0.08,0.06,11.42,LANDED,CF1-H,0:/Integrated Flight Computer/aircraft/cf1_h_cfg.ks (inferred preloaded)
11.78,TAKEOFF,TO_GROUND_ROLL,22.69,80,57.31,3.63,-0.12,-0.08,0.21,90.38,0.109,1,0,0,0,0,0,0,0,0,0,90.39,0,1,0,-0.31,0,0,0.01,90,0,0,0,0,0,0,0,0,-0.011,0,0,3,0,0,0,69,0,0,0,90.39,1,-0.011,-0.019,0.0001,0.279,0,0.0001,0,0,0,0,0,0,1,1,0,0,VALID,0,0,0,0,0,1,0,0,0,0,0,0,0,0,0,0,0,0,0,0,236.07,510.18,2,0,0.08,0.08,177,14.29,0.08,0.06,11.7,LANDED,CF1-H,0:/Integrated Flight Computer/aircraft/cf1_h_cfg.ks (inferred preloaded)
12.06,TAKEOFF,TO_GROUND_ROLL,23.85,80,56.15,3.63,-0.13,-0.08,0.21,90.37,0.109,1,0,0,0,0,0,0,0,0,0,90.39,0,1,0,-0.31,0,0,0.01,90,0,0,0,0,0,0,0,0,-0.012,0,0,3,0,0,0,69,0,0,0,90.39,1,-0.012,-0.017,0.0001,0.291,0,0.0001,0,0,0,0,0,0,1,1,0,0,VALID,0,0,0,0,0,1,0,0,0,0,0,0,0,0,0,0,0,0,0,0,240.39,509.65,2,0,0.08,0.08,181,14.29,0.08,0.06,11.98,LANDED,CF1-H,0:/Integrated Flight Computer/aircraft/cf1_h_cfg.ks (inferred preloaded)
12.34,TAKEOFF,TO_GROUND_ROLL,25.03,80,54.97,3.63,-0.14,-0.08,0.21,90.37,0.107,1,0,0,0,0,0,0,0,0,0,90.38,0,1,0,-0.31,0,0,0.01,90,0,0,0,0,0,0,0,0,-0.013,0,0,3,0,0,0,69,0,0,0,90.38,1,-0.013,-0.01,0.0001,0.304,0,0.0001,0,0,0,0,0,0,1,1,0,0,VALID,0,0,0,0,0,1,0,0,0,0,0,0,0,0,0,0,0,0,0,0,244.62,509.1,2,0,0.08,0.08,185,14.29,0.08,0.06,12.26,LANDED,CF1-H,0:/Integrated Flight Computer/aircraft/cf1_h_cfg.ks (inferred preloaded)
12.62,TAKEOFF,TO_GROUND_ROLL,26.23,80,53.77,3.63,-0.14,-0.08,0.22,90.38,0.103,1,0,0,0,0,0,0,0,0,0,90.38,0,1,0,-0.31,0,0,0.01,90,0,0,0,0,0,0,0,0,-0.014,0,0,3,0,0,0,69,0,0,0,90.38,1,-0.014,-0.003,0,0.317,0,0,0,0,0,0,0,0,1,1,0,0,VALID,0,0,0,0,0,1,0,0,0,0,0,0,0,0,0,0,0,0,0,0,248.75,508.54,2,0,0.08,0.08,189,14.29,0.08,0.06,12.54,LANDED,CF1-H,0:/Integrated Flight Computer/aircraft/cf1_h_cfg.ks (inferred preloaded)
12.9,TAKEOFF,TO_GROUND_ROLL,27.46,80,52.54,3.63,-0.15,-0.08,0.22,90.38,0.1,1,0,0,0,0,0,0,0,0,0,90.38,0,1,0,-0.31,0,0,0.01,90,0,0,0,0,0,0,0,0,-0.015,0,0,3,0,0,0,69,0,0,0,90.38,1,-0.015,0.003,0,0.33,0,0,0,0,0,0,0,0,1,1,0,0,VALID,0,0,0,0,0,1,0,0,0,0,0,0,0,0,0,0,0,0,0,0,252.79,507.95,2,0,0.08,0.08,193,14.29,0.08,0.06,12.82,LANDED,CF1-H,0:/Integrated Flight Computer/aircraft/cf1_h_cfg.ks (inferred preloaded)
13.18,TAKEOFF,TO_GROUND_ROLL,28.7,80,51.3,3.63,-0.15,-0.07,0.22,90.39,0.103,1,0,0,0,0,0,0,0,0,0,90.38,0,1,0,-0.31,0,0,0.01,90,0,0,0,0,0,0,0,0,-0.016,0,0,3,0,0,0,69,0,0,0,90.38,1,-0.016,0.002,0,0.343,0,0,0,0,0,0,0,0,1,1,0,0,VALID,0,0,0,0,0,1,0,0,0,0,0,0,0,0,0,0,0,0,0,0,256.74,507.34,2,0,0.08,0.08,197,14.29,0.08,0.06,13.1,LANDED,CF1-H,0:/Integrated Flight Computer/aircraft/cf1_h_cfg.ks (inferred preloaded)
13.46,TAKEOFF,TO_GROUND_ROLL,29.96,80,50.04,3.63,-0.16,-0.07,0.22,90.38,0.11,1,0,0,0,0,0,0,0,0,0,90.39,0,1,0,-0.31,0,0,0.01,90,0,0,0,0,0,0,0,0,-0.017,0,0,3,0,0,0,69,0,0,0,90.39,1,-0.017,-0.012,0.0001,0.357,0,0.0001,0,0,0,0,0,0,1,1,0,0,VALID,0,0,0,0,0,1,0,0,0,0,0,0,0,0,0,0,0,0,0,0,260.6,506.71,2,0,0.08,0.08,201,14.29,0.08,0.06,13.38,LANDED,CF1-H,0:/Integrated Flight Computer/aircraft/cf1_h_cfg.ks (inferred preloaded)
13.74,TAKEOFF,TO_GROUND_ROLL,31.23,80,48.77,3.63,-0.17,-0.07,0.22,90.36,0.117,1,0,0,0,0,0,0,0,0,0,90.39,0,1,0,-0.31,0,0,0.01,90,0,0,0,0,0,0,0,0,-0.018,0,0,3,0,0,0,69,0,0,0,90.39,1,-0.018,-0.028,0.0003,0.37,0,0.0003,0,0,0,0,0,0,1,1,0,0,VALID,0,0,0,0,0,1,0,0,0,0,0,0,0,0,0,0,0,0,0,0,264.36,506.07,2,0,0.08,0.08,205,14.29,0.08,0.06,13.66,LANDED,CF1-H,0:/Integrated Flight Computer/aircraft/cf1_h_cfg.ks (inferred preloaded)
14.02,TAKEOFF,TO_GROUND_ROLL,32.53,80,47.47,3.63,-0.17,-0.07,0.22,90.36,0.12,1,0,0,0,0,0,0,0,0,0,90.38,0,1,0,-0.31,0,0,0.01,90,0,0,0,0,0,0,0,0,-0.019,0,0,3,0,0,0,69,0,0,0,90.38,1,-0.019,-0.025,0.0003,0.384,0,0.0003,0,0,0,0,0,0,1,1,0,0,VALID,0,0,0,0,0,1,0,0,0,0,0,0,0,0,0,0,0,0,0,0,268.04,505.4,2,0,0.08,0.08,209,14.29,0.08,0.06,13.94,LANDED,CF1-H,0:/Integrated Flight Computer/aircraft/cf1_h_cfg.ks (inferred preloaded)
14.3,TAKEOFF,TO_GROUND_ROLL,33.84,80,46.16,3.63,-0.18,-0.07,0.22,90.36,0.111,1,0,0,0,0,0,0,0,0,0,90.38,0,1,0,-0.3,0,0,0.02,90,0,0,0,0,0,0,0,0,-0.02,0,0,3,0,0,0,69,0,0,0,90.38,1,-0.02,-0.017,0.0002,0.398,0,0.0002,0,0,0,0,0,0,1,1,0,0,VALID,0,0,0,0,0,1,0,0,0,0,0,0,0,0,0,0,0,0,0,0,271.63,504.71,2,0,0.08,0.08,213,14.29,0.08,0.06,14.22,LANDED,CF1-H,0:/Integrated Flight Computer/aircraft/cf1_h_cfg.ks (inferred preloaded)
14.58,TAKEOFF,TO_GROUND_ROLL,35.17,80,44.83,3.63,-0.19,-0.07,0.22,90.36,0.099,1,0,0,0,0,0,0,0,0,0,90.38,0,1,0,-0.3,0,0,0.02,90,0,0,0,0,0,0,0,0,-0.022,0,0,3,0,0,0,69,0,0,0,90.38,1,-0.022,-0.01,0.0001,0.413,0,0.0001,0,0,0,0,0,0,1,1,0,0,VALID,0,0,0,0,0,1,0,0,0,0,0,0,0,0,0,0,0,0,0,0,275.12,504,2,0,0.08,0.08,217,14.29,0.08,0.06,14.5,LANDED,CF1-H,0:/Integrated Flight Computer/aircraft/cf1_h_cfg.ks (inferred preloaded)
14.86,TAKEOFF,TO_GROUND_ROLL,36.52,80,43.48,3.63,-0.19,-0.06,0.22,90.37,0.093,1,0,0,0,0,0,0,0,0,0,90.37,0,1,0,-0.3,0,0,0.02,90,0,0,0,0,0,0,0,0,-0.023,0,0,3,0,0,0,69,0,0,0,90.37,1,-0.023,-0.007,0.0001,0.427,0,0.0001,0,0,0,0,0,0,1,1,0,0,VALID,0,0,0,0,0,1,0,0,0,0,0,0,0,0,0,0,0,0,0,0,278.54,503.27,2,0,0.08,0.08,221,14.29,0.08,0.06,14.78,LANDED,CF1-H,0:/Integrated Flight Computer/aircraft/cf1_h_cfg.ks (inferred preloaded)
15.14,TAKEOFF,TO_GROUND_ROLL,37.88,80,42.12,3.63,-0.2,-0.06,0.22,90.37,0.099,1,0,0,0,0,0,0,0,0,0,90.37,0,1,0,-0.3,0,0,0.02,90,0,0,0,0,0,0,0,0,-0.025,0,0,3,0,0,0,69,0,0,0,90.37,1,-0.025,-0.003,0,0.442,0,0,0,0,0,0,0,0,1,1,0,0,VALID,0,0,0,0,0,1,0,0,0,0,0,0,0,0,0,0,0,0,0,0,281.86,502.52,2,0,0.08,0.08,225,14.29,0.08,0.06,15.06,LANDED,CF1-H,0:/Integrated Flight Computer/aircraft/cf1_h_cfg.ks (inferred preloaded)
15.42,TAKEOFF,TO_GROUND_ROLL,39.26,80,40.74,3.63,-0.21,-0.06,0.22,90.37,0.107,1,0,0,0,0,0,0,0,0,0,90.37,0,1,0,-0.3,0,0,0.02,90,0,0,0,0,0,0,0,0,-0.026,0,0,3,0,0,0,69,0,0,0,90.37,1,-0.026,0.001,0,0.456,0,0,0,0,0,0,0,0,1,1,0,0,VALID,0,0,0,0,0,1,0,0,0,0,0,0,0,0,0,0,0,0,0,0,285.11,501.75,2,0,0.08,0.08,229,14.29,0.08,0.06,15.34,LANDED,CF1-H,0:/Integrated Flight Computer/aircraft/cf1_h_cfg.ks (inferred preloaded)
15.7,TAKEOFF,TO_GROUND_ROLL,40.65,80,39.35,3.63,-0.21,-0.06,0.22,90.38,0.11,1,0,0,0,0,0,0,0,0,0,90.37,0,1,0,-0.3,0,0,0.02,90,0,0,0,0,0,0,0,0,-0.028,0,0,3,0,0,0,69,0,0,0,90.37,1,-0.028,0.004,0,0.471,0,0,0,0,0,0,0,0,1,1,0,0,VALID,0,0,0,0,0,1,0,0,0,0,0,0,0,0,0,0,0,0,0,0,288.26,500.95,2,0,0.08,0.08,233,14.29,0.08,0.06,15.62,LANDED,CF1-H,0:/Integrated Flight Computer/aircraft/cf1_h_cfg.ks (inferred preloaded)
15.98,TAKEOFF,TO_GROUND_ROLL,42.05,80,37.95,3.63,-0.22,-0.06,0.22,90.38,0.107,1,0,0,0,0,0,0,0,0,0,90.37,0,1,0,-0.3,0,0,0.02,90,0,0,0,0,0,0,0,0,-0.029,0,0,3,0,0,0,69,0,0,0,90.37,1,-0.029,0.003,0,0.486,0,0,0,0,0,0,0,0,1,1,0,0,VALID,0,0,0,0,0,1,0,0,0,0,0,0,0,0,0,0,0,0,0,0,291.34,500.14,2,0,0.08,0.08,237,14.29,0.08,0.06,15.9,LANDED,CF1-H,0:/Integrated Flight Computer/aircraft/cf1_h_cfg.ks (inferred preloaded)
16.26,TAKEOFF,TO_GROUND_ROLL,43.47,80,36.53,3.63,-0.22,-0.06,0.22,90.37,0.105,1,0,0,0,0,0,0,0,0,0,90.37,0,1,0,-0.3,0,0,0.02,90,0,0,0,0,0,0,0,0,-0.031,0,0,3,0,0,0,69,0,0,0,90.37,1,-0.031,0.001,0,0.502,0,0,0,0,0,0,0,0,1,1,0,0,VALID,0,0,0,0,0,1,0,0,0,0,0,0,0,0,0,0,0,0,0,0,294.33,499.31,2,0,0.08,0.08,241,14.29,0.08,0.06,16.18,LANDED,CF1-H,0:/Integrated Flight Computer/aircraft/cf1_h_cfg.ks (inferred preloaded)
16.54,TAKEOFF,TO_GROUND_ROLL,44.91,80,35.09,3.63,-0.23,-0.05,0.22,90.37,0.106,1,0,0,0,0,0,0,0,0,0,90.37,0,1,0,-0.29,0,0,0.02,90,0,0,0,0,0,0,0,0,-0.032,0,0,3,0,0,0,69,0,0,0,90.37,1,-0.032,-0.002,0,0.517,0,0,0,0,0,0,0,0,1,1,0,0,VALID,0,0,0,0,0,1,0,0,0,0,0,0,0,0,0,0,0,0,0,0,297.25,498.47,2,0,0.08,0.08,245,14.29,0.08,0.06,16.46,LANDED,CF1-H,0:/Integrated Flight Computer/aircraft/cf1_h_cfg.ks (inferred preloaded)
16.82,TAKEOFF,TO_GROUND_ROLL,46.35,80,33.65,3.63,-0.24,-0.05,0.22,90.37,0.11,1,0,0,0,0,0,0,0,0,0,90.37,0,1,0,-0.29,0,0,0.03,90,0,0,0,0,0,0,0,0,-0.034,0,0,3,0,0,0,69,0,0,0,90.37,1,-0.034,-0.002,0,0.532,0,0,0,0,0,0,0,0,1,1,0,0,VALID,0,0,0,0,0,1,0,0,0,0,0,0,0,0,0,0,0,0,0,0,300.08,497.6,2,0,0.08,0.08,249,14.29,0.08,0.06,16.74,LANDED,CF1-H,0:/Integrated Flight Computer/aircraft/cf1_h_cfg.ks (inferred preloaded)
17.1,TAKEOFF,TO_GROUND_ROLL,47.81,80,32.19,3.63,-0.24,-0.05,0.23,90.36,0.111,1,0,0,0,0,0,0,0,0,0,90.37,0,1,0,-0.29,0,0,0.03,90,0,0,0,0,0,0,0,0,-0.036,0,0,3,0,0,0,69,0,0,0,90.37,1,-0.036,-0.005,0.0001,0.548,0,0.0001,0,0,0,0,0,0,1,1,0,0,VALID,0,0,0,0,0,1,0,0,0,0,0,0,0,0,0,0,0,0,0,0,302.83,496.71,2,0,0.08,0.08,253,14.29,0.08,0.06,17.02,LANDED,CF1-H,0:/Integrated Flight Computer/aircraft/cf1_h_cfg.ks (inferred preloaded)
17.38,TAKEOFF,TO_GROUND_ROLL,49.29,80,30.71,3.63,-0.25,-0.05,0.22,90.36,0.11,1,0,0,0,0,0,0,0,0,0,90.36,0,1,0,-0.29,0,0,0.03,90,0,0,0,0,0,0,0,0,-0.038,0,0,3,0,0,0,69,0,0,0,90.36,1,-0.038,-0.007,0.0001,0.564,0,0.0001,0,0,0,0,0,0,1,1,0,0,VALID,0,0,0,0,0,1,0,0,0,0,0,0,0,0,0,0,0,0,0,0,305.51,495.81,2,0,0.08,0.08,257,14.29,0.08,0.06,17.3,LANDED,CF1-H,0:/Integrated Flight Computer/aircraft/cf1_h_cfg.ks (inferred preloaded)
17.66,TAKEOFF,TO_GROUND_ROLL,50.77,80,29.23,3.63,-0.26,-0.05,0.22,90.35,0.108,1,0,0,0,0,0,0,0,0,0,90.36,0,1,0,-0.29,0,0,0.03,90,0,0,0,0,0,0,0,0,-0.04,0,0,3,0,0,0,69,0,0,0,90.36,1,-0.04,-0.008,0.0001,0.58,0,0.0001,0,0,0,0,0,0,1,1,0,0,VALID,0,0,0,0,0,1,0,0,0,0,0,0,0,0,0,0,0,0,0,0,308.11,494.89,2,0,0.08,0.08,261,14.29,0.08,0.06,17.58,LANDED,CF1-H,0:/Integrated Flight Computer/aircraft/cf1_h_cfg.ks (inferred preloaded)
17.94,TAKEOFF,TO_GROUND_ROLL,52.26,80,27.74,3.64,-0.26,-0.05,0.23,90.35,0.107,1,0,0,0,0,0,0,0,0,0,90.36,0,1,0,-0.29,0,0,0.03,90,0,0,0,0,0,0,0,0,-0.041,0,0,3,0,0,0,69,0,0,0,90.36,1,-0.041,-0.007,0.0001,0.596,0,0.0001,0,0,0,0,0,0,1,1,0,0,VALID,0,0,0,0,0,1,0,0,0,0,0,0,0,0,0,0,0,0,0,0,310.63,493.95,2,0,0.08,0.08,265,14.29,0.08,0.06,17.86,LANDED,CF1-H,0:/Integrated Flight Computer/aircraft/cf1_h_cfg.ks (inferred preloaded)
18.22,TAKEOFF,TO_GROUND_ROLL,53.77,80,26.23,3.64,-0.27,-0.05,0.22,90.35,0.106,1,0,0,0,0,0,0,0,0,0,90.36,0,1,0,-0.28,0,0,0.03,90,0,0,0,0,0,0,0,0,-0.043,0,0,3,0,0,0,69,0,0,0,90.36,1,-0.043,-0.008,0.0001,0.612,0,0.0001,0,0,0,0,0,0,1,1,0,0,VALID,0,0,0,0,0,1,0,0,0,0,0,0,0,0,0,0,0,0,0,0,313.08,492.99,2,0,0.08,0.08,269,14.29,0.08,0.06,18.14,LANDED,CF1-H,0:/Integrated Flight Computer/aircraft/cf1_h_cfg.ks (inferred preloaded)
18.5,TAKEOFF,TO_GROUND_ROLL,55.29,80,24.71,3.64,-0.27,-0.04,0.22,90.35,0.107,1,0,0,0,0,0,0,0,0,0,90.36,0,1,0,-0.28,0,0,0.03,90,0,0,0,0,0,0,0,0,-0.045,0,0,3,0,0,0,69,0,0,0,90.36,1,-0.045,-0.009,0.0001,0.628,0,0.0001,0,0,0,0,0,0,1,1,0,0,VALID,0,0,0,0,0,1,0,0,0,0,0,0,0,0,0,0,0,0,0,0,315.46,492.02,2,0,0.08,0.08,273,14.29,0.08,0.06,18.42,LANDED,CF1-H,0:/Integrated Flight Computer/aircraft/cf1_h_cfg.ks (inferred preloaded)
18.78,TAKEOFF,TO_GROUND_ROLL,56.82,80,23.18,3.64,-0.28,-0.04,0.22,90.34,0.108,1,0,0,0,0,0,0,0,0,0,90.35,0,1,0,-0.28,0,0,0.04,90,0,0,0,0,0,0,0,0,-0.047,0,0,3,0,0,0,69,0,0,0,90.35,1,-0.047,-0.01,0.0002,0.644,0,0.0002,0,0,0,0,0,0,1,1,0,0,VALID,0,0,0,0,0,1,0,0,0,0,0,0,0,0,0,0,0,0,0,0,317.77,491.03,2,0,0.08,0.08,277,14.29,0.08,0.06,18.7,LANDED,CF1-H,0:/Integrated Flight Computer/aircraft/cf1_h_cfg.ks (inferred preloaded)
19.06,TAKEOFF,TO_GROUND_ROLL,58.35,80,21.65,3.64,-0.28,-0.04,0.23,90.34,0.109,1,0,0,0,0,0,0,0,0,0,90.35,0,1,0,-0.28,0,0,0.04,90,0,0,0,0,0,0,0,0,-0.049,0,0,3,0,0,0,69,0,0,0,90.35,1,-0.049,-0.011,0.0002,0.661,0,0.0002,0,0,0,0,0,0,1,1,0,0,VALID,0,0,0,0,0,1,0,0,0,0,0,0,0,0,0,0,0,0,0,0,320,490.02,2,0,0.08,0.08,281,14.29,0.08,0.06,18.98,LANDED,CF1-H,0:/Integrated Flight Computer/aircraft/cf1_h_cfg.ks (inferred preloaded)
19.34,TAKEOFF,TO_GROUND_ROLL,59.9,80,20.1,3.64,-0.29,-0.03,0.24,90.34,0.109,1,0,0,0,0,0,0,0,0,0,90.35,0,1,0,-0.28,0,0,0.04,90,0,0,0,0,0,0,0,0,-0.051,0,0,3,0,0,0,69,0,0,0,90.35,1,-0.051,-0.013,0.0002,0.677,0,0.0002,0,0,0,0,0,0,1,1,0,0,VALID,0,0,0,0,0,1,0,0,0,0,0,0,0,0,0,0,0,0,0,0,322.17,489,2,0,0.08,0.08,285,14.29,0.08,0.06,19.26,LANDED,CF1-H,0:/Integrated Flight Computer/aircraft/cf1_h_cfg.ks (inferred preloaded)
19.62,TAKEOFF,TO_GROUND_ROLL,61.46,80,18.54,3.64,-0.29,0,0.26,90.33,0.109,1,0,0,0,0,0,0,0,0,0,90.35,0,1,0,-0.27,0,0,0.04,90,0,0,0,0,0,0,0,0,-0.053,0,0,3,0,0,0,69,0,0,0,90.35,1,-0.053,-0.014,0.0003,0.694,0,0.0003,0,0,0,0,0,0,1,1,0,0,VALID,0,0,0,0,0,1,0,0,0,0,0,0,0,0,0,0,0,0,0,0,324.26,487.97,2,0,0.08,0.08,289,14.29,0.08,0.06,19.54,LANDED,CF1-H,0:/Integrated Flight Computer/aircraft/cf1_h_cfg.ks (inferred preloaded)
19.9,TAKEOFF,TO_GROUND_ROLL,63.02,80,16.98,3.65,-0.3,0.03,0.29,90.33,0.109,1,0,0,0,0,0,0,0,0,0,90.35,0,1,0,-0.27,0,0,0.04,90,0,0,0,0,0,0,0,0,-0.056,0,0,3,0,0,0,69,0,0,0,90.35,1,-0.056,-0.016,0.0003,0.711,0,0.0003,0,0,0,0,0,0,1,1,0,0,VALID,0,0,0,0,0,1,0,0,0,0,0,0,0,0,0,0,0,0,0,0,326.29,486.92,2,0,0.08,0.08,293,14.29,0.08,0.06,19.82,LANDED,CF1-H,0:/Integrated Flight Computer/aircraft/cf1_h_cfg.ks (inferred preloaded)
20.18,TAKEOFF,TO_GROUND_ROLL,64.59,80,15.41,3.66,-0.3,0.07,0.33,90.33,0.108,1,0,0,0,0,0,0,0,0,0,90.34,0,1,0,-0.27,0,0,0.04,90,0,0,0,0,0,0,0,0,-0.058,0,0,3,0,0,0,69,0,0,0,90.34,1,-0.058,-0.018,0.0003,0.728,0,0.0003,0,0,0,0,0,0,1,1,0,0,VALID,0,0,0,0,0,1,0,0,0,0,0,0,0,0,0,0,0,0,0,0,328.25,485.86,2,0,0.08,0.08,297,14.29,0.08,0.06,20.1,LANDED,CF1-H,0:/Integrated Flight Computer/aircraft/cf1_h_cfg.ks (inferred preloaded)
20.46,TAKEOFF,TO_GROUND_ROLL,66.17,80,13.83,3.68,-0.11,0.1,0.13,90.32,0.108,1,0,0,0,0,0,0,0,0,0,90.35,0,1,0,-0.09,0,0,0.05,90,0,0,0,0,0,0,0,0,-0.06,0,0,3,0,0,0,69,0,0,0,90.35,1,-0.06,-0.024,0.0005,0.745,0,0.0005,0,0,0,0,0,0,1,1,0,0,VALID,0,0,0,0,0,1,0,0,0,0,0,0,0,0,0,0,0,0,0,0,330.15,484.79,2,0,0.08,0.08,301,14.29,0.08,0.06,20.38,LANDED,CF1-H,0:/Integrated Flight Computer/aircraft/cf1_h_cfg.ks (inferred preloaded)
20.74,TAKEOFF,TO_GROUND_ROLL,67.76,80,12.24,3.69,-0.32,0.22,0.49,90.32,0.106,1,0,0,0,0,0,0,0,0,0,90.34,0,1,0,-0.27,0,0,0.05,90,0,0,0,0,0,0,0,0,-0.062,0,0,3,0,0,0,69,0,0,0,90.34,1,-0.062,-0.02,0.0004,0.762,0,0.0004,0,0,0,0,0,0,1,1,0,0,VALID,0,0,0,0,0,1,0,0,0,0,0,0,0,0,0,0,0,0,0,0,331.99,483.7,2,0,0.08,0.08,305,14.29,0.08,0.06,20.66,LANDED,CF1-H,0:/Integrated Flight Computer/aircraft/cf1_h_cfg.ks (inferred preloaded)
21.02,TAKEOFF,TO_GROUND_ROLL,69.35,80,10.65,3.71,-0.35,0.28,0.55,90.32,0.106,1,0,0,0,0,0,0,0,0,0,90.34,0,1,0,-0.29,0,0,0.05,90,0,0,0,0,0,0,0,0,-0.064,0,0,3,0,0,0,69,0,0,0,90.34,1,-0.064,-0.022,0.0004,0.779,0,0.0004,0,0,0,0,0,0,1,1,0,0,VALID,0,0,0,0,0,1,0,0,0,0,0,0,0,0,0,0,0,0,0,0,333.76,482.61,2,0,0.08,0.08,309,14.29,0.08,0.06,20.94,LANDED,CF1-H,0:/Integrated Flight Computer/aircraft/cf1_h_cfg.ks (inferred preloaded)
21.32,TAKEOFF,TO_ROTATE,71.07,80,8.93,3.71,-0.31,0.32,0.56,90.31,0.105,1,0,0,0,0,0,0,0,0,0,90.34,0.731,1,0,-0.25,0,0,0.05,90,0,0,0,0,0,0,0,0,-0.067,0,0,3,0,0,0,69,0,0,0,90.34,1,-0.067,-0.022,0.0005,0.796,0,0.0005,0,0.12,0.731,0.408,0.08,0,1,1,0,0,VALID,0,0,0,0,0,1,0,0,0,0,0,0,0,0,0,0,0,0,0,0,335.59,481.42,2,0,0.08,0.08,313,13.33,0.08,0.06,21.22,LANDED,CF1-H,0:/Integrated Flight Computer/aircraft/cf1_h_cfg.ks (inferred preloaded)
21.6,TAKEOFF,TO_ROTATE,72.67,80,7.33,3.72,-0.33,0.37,0.62,90.31,0.105,1,0,0,0,0,0,0,0,0,0,90.33,1.571,1,0,-0.26,0,0,0.05,90,0,0,0,0,0,0,0,0,-0.069,0,0,3,0,0,0,69,0,0,0,90.33,1,-0.069,-0.022,0.0005,0.813,0,0.0005,0,0.1763,1.571,1.204,0.08,0,1,1,0,0,VALID,0,0,0,0,0,1,0,0,0,0,0,0,0,0,0,0,0,0,0,0,337.24,480.3,2,0,0.08,0.08,317,14.29,0.08,0.06,21.5,LANDED,CF1-H,0:/Integrated Flight Computer/aircraft/cf1_h_cfg.ks (inferred preloaded)
21.88,TAKEOFF,TO_ROTATE,74.29,80,5.71,3.75,-0.33,0.5,0.74,90.31,0.104,1,0,0,0,0,0,0,0,0,0,90.33,2.411,1,0,-0.25,0,0,0.06,90,0,0,0,0,0,0,0,0,-0.071,0,0,3,0,0,0,69,0,0,0,90.33,1,-0.071,-0.021,0.0004,0.83,0,0.0004,0,0.2331,2.411,1.914,0.08,0,1,1,0,0,VALID,0,0,0,0,0,1,0,0,0,0,0,0,0,0,0,0,0,0,0,0,338.83,479.18,2,0,0.08,0.08,321,14.29,0.08,0.06,21.78,LANDED,CF1-H,0:/Integrated Flight Computer/aircraft/cf1_h_cfg.ks (inferred preloaded)
22.18,TAKEOFF,TO_ROTATE,76.01,80,3.99,3.79,-0.32,0.76,0.99,90.31,0.103,1,0,0,0,0,0,0,0,0,0,90.33,3.311,1,0,-0.24,0,0,0.06,90,0,0,0,0,0,0,0,0,-0.074,0,0,3,0,0,0,69,0,0,0,90.33,1,-0.074,-0.019,0.0004,0.849,0,0.0004,0,0.2845,3.311,2.556,0.08,0,1,1,0,0,VALID,0,0,0,0,0,1,0,0,0,0,0,0,0,0,0,0,0,0,0,0,340.47,477.96,2,0,0.08,0.08,325,13.33,0.08,0.06,22.08,LANDED,CF1-H,0:/Integrated Flight Computer/aircraft/cf1_h_cfg.ks (inferred preloaded)
22.46,TAKEOFF,TO_ROTATE,77.63,80,2.37,3.85,-0.32,1.06,1.29,90.31,0.101,1,0,0,0,0,0,0,0,0,0,90.32,4.151,1,0,-0.24,0,0,0.06,90,0,0,0,0,0,0,0,0,-0.076,0,0,3,0,0,0,69,0,0,0,90.32,1,-0.076,-0.016,0.0004,0.866,0,0.0004,0,0.3274,4.151,3.093,0.08,0,1,1,0,0,VALID,0,0,0,0,0,1,0,0,0,0,0,0,0,0,0,0,0,0,0,0,341.95,476.83,2,0,0.08,0.08,329,14.29,0.08,0.06,22.36,LANDED,CF1-H,0:/Integrated Flight Computer/aircraft/cf1_h_cfg.ks (inferred preloaded)
22.74,TAKEOFF,TO_ROTATE,79.24,80,0.76,3.9,-0.32,1.34,1.57,90.31,0.098,1,0,0,0,0,0,0,0,0,0,90.32,4.991,1,0,-0.23,0,0,0.06,90,0,0,0,0,0,0,0,0,-0.079,0,0,3,0,0,0,69,0,0,0,90.32,1,-0.079,-0.011,0.0002,0.883,0,0.0002,0,0.3717,4.991,3.647,0.08,0,1,1,0,0,VALID,0,0,0,0,0,1,0,0,0,0,0,0,0,0,0,0,0,0,0,0,343.38,475.69,2,0,0.08,0.08,333,14.29,0.08,0.06,22.64,LANDED,CF1-H,0:/Integrated Flight Computer/aircraft/cf1_h_cfg.ks (inferred preloaded)
23.02,TAKEOFF,TO_ROTATE,80.84,80,-0.84,3.96,-0.3,1.61,1.81,90.31,0.094,1,0,0,0,0,0,0,0,0,0,90.32,5.831,1,0,-0.21,0,0,0.06,90,0,0,0,0,0,0,0,0,-0.081,0,0,3,0,0,0,69,0,0,0,90.32,1,-0.081,-0.005,0.0001,0.901,0,0.0001,0,0.418,5.831,4.225,0.08,0,1,1,0,0,VALID,0,0,0,0,0,1,0,0,0,0,0,0,0,0,0,0,0,0,0,0,344.76,474.55,2,0,0.08,0.08,337,14.29,0.08,0.06,22.92,LANDED,CF1-H,0:/Integrated Flight Computer/aircraft/cf1_h_cfg.ks (inferred preloaded)
23.3,TAKEOFF,TO_ROTATE,82.44,80,-2.44,4.05,-0.2,1.91,2.01,90.32,0.09,1,0,0,0,0,0,0,0,0,0,90.31,6.671,1,0,-0.11,0,0,0.07,90,0,0,0,0,0,0,0,0,-0.084,0,0,3,0,0,0,69,0,0,0,90.31,1,-0.084,0.001,0,0.918,0,0,0,0.45,6.671,4.76,0.08,0,1,1,0,0,VALID,0,0,0,0,0,1,0,0,0,0,0,0,0,0,0,0,0,0,0,0,346.09,473.42,2,0,0.08,0.08,341,14.29,0.08,0.06,23.2,LANDED,CF1-H,0:/Integrated Flight Computer/aircraft/cf1_h_cfg.ks (inferred preloaded)
23.58,TAKEOFF,TO_ROTATE,84.03,80,-4.03,4.16,-0.23,2.54,2.71,90.32,0.088,1,0,0,0,0,0,0,0,0,0,90.31,7.511,1,0,-0.18,0,0,0.07,90,0,0,0,0,0,0,0,0,-0.086,0,0,3,0,0,0,69,0,0,0,90.31,1,-0.086,0.009,-0.0002,0.935,0,-0.0002,0,0.45,7.511,4.97,0.08,0,1,1,0,0,VALID,0,0,0,0,0,1,0,0,0,0,0,0,0,0,0,0,0,0,0,0,347.39,472.28,2,0,0.08,0.08,345,14.29,0.08,0.06,23.48,LANDED,CF1-H,0:/Integrated Flight Computer/aircraft/cf1_h_cfg.ks (inferred preloaded)
23.86,TAKEOFF,TO_ROTATE,85.6,80,-5.6,4.33,-0.3,3.32,3.52,90.32,0.088,1,0,0,0,0,0,0,0,0,0,90.31,8.351,1,0,-0.2,0,0,0.07,90,0,0,0,0,0,0,0,0,-0.089,0,0,3,0,0,0,69,0,0,0,90.31,1,-0.089,0.017,-0.0004,0.952,0,-0.0004,0,0.45,8.351,5.027,0.08,0,1,1,0,0,VALID,0,0,0,0,0,1,0,0,0,0,0,0,0,0,0,0,0,0,0,0,348.64,471.16,2,0,0.08,0.08,349,14.29,0.08,0.06,23.76,LANDED,CF1-H,0:/Integrated Flight Computer/aircraft/cf1_h_cfg.ks (inferred preloaded)
24.14,TAKEOFF,TO_ROTATE,87.13,80,-7.13,4.52,-0.2,4.31,4.43,90.33,0.085,1,0,0,0,0,0,0,0,0,0,90.31,9.191,1,0,-0.13,0,0,0.07,90,0,0,0,0,0,0,0,0,-0.092,0,0,3,0,0,0,69,0,0,0,90.31,1,-0.092,0.024,-0.0006,0.968,0,-0.0006,0,0.45,9.191,4.881,0.08,0,1,1,0,0,VALID,0,0,0,0,0,1,0,0,0,0,0,0,0,0,0,0,0,0,0,0,349.87,470.07,2,0,0.08,0.08,353,14.29,0.08,0.06,24.04,LANDED,CF1-H,0:/Integrated Flight Computer/aircraft/cf1_h_cfg.ks (inferred preloaded)
24.4,TAKEOFF,TO_ROTATE,88.5,80,-8.5,4.73,-0.05,5.34,5.32,90.33,0.066,1,0,0,0,0,0,0,0,0,0,90.4,10,1,0,-0.03,0,0,0.08,90,-0.9504,-0.0067,-0.3109,10,90.4,0,0,0,0,0,0,3,0,0,0,69,0,0,0,90.4,1,0,-0.068,0,0,3,0,0,0,10,4.662,0,0,1,1,0,0,VALID,0,0,0,0,0,1,0,0,0,0,0,0,0,0,0,0,0,0,0,0,350.99,469.09,2,0,0.08,0.08,357,15.38,0.08,0.06,24.3,FLYING,CF1-H,0:/Integrated Flight Computer/aircraft/cf1_h_cfg.ks (inferred preloaded)
24.68,TAKEOFF,TO_ROTATE,89.92,80,-9.92,5,0.59,5.9,5.56,90.34,0.07,1,0,0,0,0,0,0,0,0,0,90.4,10,0,1,0.38,0,0,10,90.4,-0.9504,-0.0067,-0.3109,10,90.4,0,0,0,0,0,0,3,0,0,0,69,0,0,0,90.4,1,0,-0.064,0,0,3,0,0,0,10,4.103,0,0,1,1,0,0,VALID,0,0,0,0,0,1,0,0,0,0,0,0,0,0,0,0,0,0,0,0,352.19,468.06,2,0,0.08,0.08,361,14.29,0.08,0.06,24.58,FLYING,CF1-H,0:/Integrated Flight Computer/aircraft/cf1_h_cfg.ks (inferred preloaded)
24.96,TAKEOFF,TO_ROTATE,91.3,80,-11.3,5.39,1.15,6.13,5.44,90.34,0.073,1,0,0,0,0,0,0,0,0,0,90.4,10,0,1,0.72,0,0,10,90.4,-0.9504,-0.0067,-0.311,10,90.4,0,0,0,0,0,0,3,0,0,0,69,0,0,0,90.4,1,0,-0.061,0,0,3,0,0,0,10,3.867,0,0,1,1,0,0,VALID,0,0,0,0,0,1,0,0,0,0,0,0,0,0,0,0,0,0,0,0,353.36,467.05,2,0,0.08,0.08,365,14.29,0.08,0.06,24.86,FLYING,CF1-H,0:/Integrated Flight Computer/aircraft/cf1_h_cfg.ks (inferred preloaded)
25.24,TAKEOFF,TO_CLIMB,92.67,80,-12.67,5.99,1.82,6.61,5.51,90.34,0.074,1,0,0,0,0,0,0,0,0,0,90.4,10,0,1,1.13,0,0,10,90.4,-0.9504,-0.0067,-0.311,10,90.4,0,0,0,0,0,0,3,0,0,0,69,0,0,0,90.4,1,0,-0.058,0,0,3,0,0,0,10,3.395,0,0,1,1,0,0,VALID,0,0,0,0,0,1,0,0,0,0,0,0,0,0,0,0,0,0,0,0,354.49,466.04,2,0,0.08,0.08,369,14.29,0.08,0.06,25.14,FLYING,CF1-H,0:/Integrated Flight Computer/aircraft/cf1_h_cfg.ks (inferred preloaded)
25.52,TAKEOFF,TO_CLIMB,94.01,80,-14.01,6.73,2.8,6.54,5,90.34,0.075,0.888,0,0,0,0,0,0,0,0,0,90.4,7.053,0,1,1.71,0,0,6.93,90.4,-0.9331,-0.0068,-0.3595,7.05,90.4,0,0,0,0,0,0,3,0,0,0,69,0,0,0,90.4,1,0,-0.056,0,0,3,0,0,0,10,3.395,0,0,1,1,0,0,VALID,0,0,0,0,0,1,0,0,0,0,0,0,0,0,0,0,0,0,0,0,355.34,465.03,2,0,0.08,0.08,373,14.29,0.08,0.06,25.42,FLYING,CF1-H,0:/Integrated Flight Computer/aircraft/cf1_h_cfg.ks (inferred preloaded)
25.8,TAKEOFF,TO_CLIMB,95.37,80,-15.37,7.56,3.16,5.73,3.92,90.34,0.068,0.8463,0,0,0,0,0,0,0,0,0,90.4,7.501,0,1,1.9,0,0,7.37,90.4,-0.9359,-0.0068,-0.3522,7.5,90.4,0,0,0,0,0,0,3,0,0,0,69,0,0,0,90.4,1,0,-0.055,0,0,3,0,0,0,10,3.395,0,0,1,1,0,0,VALID,0,0,0,0,0,1,0,0,0,0,0,0,0,0,0,0,0,0,0,0,355.4,464,2,0,0.08,0.08,377,14.29,0.08,0.06,25.7,FLYING,CF1-H,0:/Integrated Flight Computer/aircraft/cf1_h_cfg.ks (inferred preloaded)
26.08,TAKEOFF,TO_CLIMB,96.77,80,-16.77,8.59,3.51,5.7,3.72,90.35,0.063,0.8323,0,0,0,0,0,0,0,0,0,90.4,7.949,0,1,2.08,0,0,7.82,90.4,-0.9386,-0.0068,-0.345,7.95,90.4,0,0,0,0,0,0,3,0,0,0,69,0,0,0,90.4,1,0,-0.053,0,0,3,0,0,0,10,3.395,0,0,1,1,0,0,VALID,0,0,0,0,0,1,0,0,0,0,0,0,0,0,0,0,0,0,0,0,355.18,462.94,2,0,0.08,0.08,381,14.29,0.08,0.06,25.98,FLYING,CF1-H,0:/Integrated Flight Computer/aircraft/cf1_h_cfg.ks (inferred preloaded)
26.36,TAKEOFF,TO_CLIMB,98.18,80,-18.18,9.69,3.8,5.54,3.42,90.35,0.062,0.8182,0,0,0,0,0,0,0,0,0,90.4,8,0,1,2.22,0,0,8,90.4,-0.9389,-0.0068,-0.3442,8,90.4,0,0,0,0,0,0,3,0,0,0,69,0,0,0,90.4,1,0,-0.052,0,0,3,0,0,0,10,3.395,0,0,1,1,0,0,VALID,0,0,0,0,0,1,0,0,0,0,0,0,0,0,0,0,0,0,0,0,354.83,461.87,2,0,0.08,0.08,385,14.29,0.08,0.06,26.26,FLYING,CF1-H,0:/Integrated Flight Computer/aircraft/cf1_h_cfg.ks (inferred preloaded)
26.64,TAKEOFF,TO_CLIMB,99.58,80,-19.58,10.88,4.08,5.47,3.22,90.35,0.061,0.8042,0,0,0,0,0,0,0,0,0,90.4,8,0,1,2.35,0,0,8,90.4,-0.9389,-0.0068,-0.3442,8,90.4,0,0,0,0,0,0,3,0,0,0,69,0,0,0,90.4,1,0,-0.05,0,0,3,0,0,0,10,3.395,0,0,1,1,0,0,VALID,0,0,0,0,0,1,0,0,0,0,0,0,0,0,0,0,0,0,0,0,354.37,460.79,2,0,0.08,0.08,389,14.29,0.08,0.06,26.54,FLYING,CF1-H,0:/Integrated Flight Computer/aircraft/cf1_h_cfg.ks (inferred preloaded)
26.92,TAKEOFF,TO_CLIMB,100.99,80,-20.99,12.17,4.36,5.42,3.04,90.35,0.059,0.7901,0,0,0,0,0,0,0,0,0,90.4,8,0,1,2.47,0,0,8,90.4,-0.9388,-0.0068,-0.3443,8,90.4,0,0,0,0,0,0,3,0,0,0,69,0,0,0,90.4,1,0,-0.048,0,0,3,0,0,0,10,3.395,0,0,1,1,0,0,VALID,0,0,0,0,0,1,0,0,0,0,0,0,0,0,0,0,0,0,0,0,353.78,459.71,2,0,0.08,0.08,393,14.29,0.08,0.06,26.82,FLYING,CF1-H,0:/Integrated Flight Computer/aircraft/cf1_h_cfg.ks (inferred preloaded)
27.2,TAKEOFF,TO_CLIMB,102.38,80,-22.38,13.53,4.65,5.38,2.88,90.35,0.058,0.78,0,0,0,0,0,0,0,0,0,90.4,8,0,1,2.6,0,0,8,90.4,-0.9388,-0.0068,-0.3443,8,90.4,0,0,0,0,0,0,3,0,0,0,69,0,0,0,90.4,1,0,-0.047,0,0,3,0,0,0,10,3.395,0,0,1,1,0,0,VALID,0,0,0,0,0,1,0,0,0,0,0,0,0,0,0,0,0,0,0,0,353.09,458.63,2,0,0.08,0.08,397,14.29,0.08,0.06,27.1,FLYING,CF1-H,0:/Integrated Flight Computer/aircraft/cf1_h_cfg.ks (inferred preloaded)
27.48,TAKEOFF,TO_CLIMB,103.78,80,-23.78,14.97,4.93,5.38,2.76,90.36,0.057,0.78,0,0,0,0,0,0,0,0,0,90.4,8,0,1,2.72,0,0,8,90.4,-0.9388,-0.0068,-0.3444,8,90.4,0,0,0,0,0,0,3,0,0,0,69,0,0,0,90.4,1,0,-0.045,0,0,3,0,0,0,10,3.395,0,0,1,1,0,0,VALID,0,0,0,0,0,1,0,0,0,0,0,0,0,0,0,0,0,0,0,0,352.34,457.56,2,0,0.08,0.08,401,14.29,0.08,0.06,27.38,FLYING,CF1-H,0:/Integrated Flight Computer/aircraft/cf1_h_cfg.ks (inferred preloaded)
27.76,TAKEOFF,TO_CLIMB,105.16,80,-25.16,16.5,5.25,5.36,2.6,90.36,0.056,0.78,0,0,0,0,0,0,0,0,0,90.4,8,0,1,2.86,0,0,8,90.4,-0.9388,-0.0068,-0.3444,8,90.4,0,0,0,0,0,0,3,0,0,0,69,0,0,0,90.4,1,0,-0.043,0,0,3,0,0,0,10,3.395,0,0,1,1,0,0,VALID,0,0,0,0,0,1,0,0,0,0,0,0,0,0,0,0,0,0,0,0,351.59,456.49,2,0,0.08,0.08,405,14.29,0.08,0.06,27.66,FLYING,CF1-H,0:/Integrated Flight Computer/aircraft/cf1_h_cfg.ks (inferred preloaded)
28.04,TAKEOFF,TO_CLIMB,106.54,80,-26.54,18.12,5.56,5.33,2.45,90.36,0.054,0.78,0,0,0,0,0,0,0,0,0,90.4,8,0,1,2.99,0,0,8,90.4,-0.9388,-0.0068,-0.3445,8,90.4,0,0,0,0,0,0,3,0,0,0,69,0,0,0,90.4,1,0,-0.042,0,0,3,0,0,0,10,3.395,0,0,1,1,0,0,VALID,0,0,0,0,0,1,0,0,0,0,0,0,0,0,0,0,0,0,0,0,350.84,455.42,2,0,0.08,0.08,409,14.29,0.08,0.06,27.94,FLYING,CF1-H,0:/Integrated Flight Computer/aircraft/cf1_h_cfg.ks (inferred preloaded)
28.32,TAKEOFF,TO_CLIMB,107.91,80,-27.91,19.81,5.84,5.27,2.28,90.36,0.053,0.78,0,0,0,0,0,0,0,0,0,90.4,8,0,1,3.1,0,0,8,90.4,-0.9388,-0.0068,-0.3445,8,90.4,0,0,0,0,0,0,3,0,0,0,69,0,0,0,90.4,1,0,-0.041,0,0,3,0,0,0,10,3.395,0,0,1,1,0,0,VALID,0,0,0,0,0,1,0,0,0,0,0,0,0,0,0,0,0,0,0,0,350.09,454.35,2,0,0.08,0.08,413,14.29,0.08,0.06,28.22,FLYING,CF1-H,0:/Integrated Flight Computer/aircraft/cf1_h_cfg.ks (inferred preloaded)
28.6,TAKEOFF,TO_CLIMB,109.27,80,-29.27,21.59,6.13,5.26,2.16,90.36,0.052,0.78,0,0,0,0,0,0,0,0,0,90.4,8,0,1,3.21,0,0,8,90.4,-0.9387,-0.0068,-0.3445,8,90.4,0,0,0,0,0,0,3,0,0,0,69,0,0,0,90.4,1,0,-0.039,0,0,3,0,0,0,10,3.395,0,0,1,1,0,0,VALID,0,0,0,0,0,1,0,0,0,0,0,0,0,0,0,0,0,0,0,0,349.34,453.28,2,0,0.08,0.08,417,14.29,0.08,0.06,28.5,FLYING,CF1-H,0:/Integrated Flight Computer/aircraft/cf1_h_cfg.ks (inferred preloaded)
28.88,TAKEOFF,TO_CLIMB,110.63,80,-30.63,23.46,6.44,5.28,2.06,90.36,0.051,0.78,0,0,0,0,0,0,0,0,0,90.4,8,0,1,3.33,0,0,8,90.4,-0.9387,-0.0068,-0.3446,8,90.4,0,0,0,0,0,0,3,0,0,0,69,0,0,0,90.4,1,0,-0.038,0,0,3,0,0,0,10,3.395,0,0,1,1,0,0,VALID,0,0,0,0,0,1,0,0,0,0,0,0,0,0,0,0,0,0,0,0,348.6,452.22,2,0,0.08,0.08,421,14.29,0.08,0.06,28.78,FLYING,CF1-H,0:/Integrated Flight Computer/aircraft/cf1_h_cfg.ks (inferred preloaded)
29.16,TAKEOFF,TO_CLIMB,111.98,80,-31.98,25.41,6.75,5.28,1.94,90.36,0.051,0.78,0,0,0,0,0,0,0,0,0,90.4,8,0,1,3.45,0,0,8,90.4,-0.9387,-0.0068,-0.3446,8,90.4,0,0,0,0,0,0,3,0,0,0,69,0,0,0,90.4,1,0,-0.037,0,0,3,0,0,0,10,3.395,0,0,1,1,0,0,VALID,0,0,0,0,0,1,0,0,0,0,0,0,0,0,0,0,0,0,0,0,347.85,451.17,2,0,0.08,0.08,425,14.29,0.08,0.06,29.06,FLYING,CF1-H,0:/Integrated Flight Computer/aircraft/cf1_h_cfg.ks (inferred preloaded)
29.44,TAKEOFF,TO_CLIMB,113.32,80,-33.32,27.47,7.09,5.37,1.9,90.36,0.05,0.78,0,0,0,0,0,0,0,0,0,90.4,8,0,1,3.58,0,0,8,90.4,-0.9387,-0.0068,-0.3447,8,90.4,0,0,0,0,0,0,3,0,0,0,69,0,0,0,90.4,1,0,-0.036,0,0,3,0,0,0,10,3.395,0,0,1,1,0,0,VALID,0,0,0,0,0,1,0,0,0,0,0,0,0,0,0,0,0,0,0,0,347.11,450.11,2,0,0.08,0.08,429,14.29,0.08,0.06,29.34,FLYING,CF1-H,0:/Integrated Flight Computer/aircraft/cf1_h_cfg.ks (inferred preloaded)
29.72,TAKEOFF,TO_CLIMB,114.65,80,-34.65,29.61,7.47,5.38,1.77,90.37,0.05,0.78,0,0,0,0,0,0,0,0,0,90.4,8,0,1,3.73,0,0,8,90.4,-0.9387,-0.0068,-0.3448,8,90.4,0,0,0,0,0,0,3,0,0,0,69,0,0,0,90.4,1,0,-0.035,0,0,3,0,0,0,10,3.395,0,0,1,1,0,0,VALID,0,0,0,0,0,1,0,0,0,0,0,0,0,0,0,0,0,0,0,0,346.37,449.07,2,0,0.08,0.08,433,14.29,0.08,0.06,29.62,FLYING,CF1-H,0:/Integrated Flight Computer/aircraft/cf1_h_cfg.ks (inferred preloaded)
30,TAKEOFF,TO_CLIMB,115.97,80,-35.97,31.87,7.85,5.43,1.68,90.37,0.049,0.78,0,0,0,0,0,0,0,0,0,90.4,8,0,1,3.87,0,0,8,90.4,-0.9387,-0.0068,-0.3448,8,90.4,0,0,0,0,0,0,3,0,0,0,69,0,0,0,90.4,1,0,-0.034,0,0,3,0,0,0,10,3.395,0,0,1,1,0,0,VALID,0,0,0,0,0,1,0,0,0,0,0,0,0,0,0,0,0,0,0,0,345.63,448.03,2,0,0.08,0.08,437,14.29,0.08,0.06,29.9,FLYING,CF1-H,0:/Integrated Flight Computer/aircraft/cf1_h_cfg.ks (inferred preloaded)
30.28,TAKEOFF,TO_CLIMB,117.27,80,-37.27,34.22,8.22,5.43,1.55,90.37,0.049,0.78,0,0,0,0,0,0,0,0,0,90.4,8,0,1,4.01,0,0,8,90.4,-0.9386,-0.0068,-0.3449,8,90.4,0,0,0,0,0,0,3,0,0,0,69,0,0,0,90.4,1,0,-0.033,0,0,3,0,0,0,10,3.395,0,0,1,1,0,0,VALID,0,0,0,0,0,1,0,0,0,0,0,0,0,0,0,0,0,0,0,0,344.9,446.99,2,0,0.08,0.08,441,14.29,0.08,0.06,30.18,FLYING,CF1-H,0:/Integrated Flight Computer/aircraft/cf1_h_cfg.ks (inferred preloaded)
30.56,TAKEOFF,TO_CLIMB,118.57,80,-38.57,36.69,8.59,5.51,1.49,90.37,0.048,0.78,0,0,0,0,0,0,0,0,0,90.4,8,0,1,4.14,0,0,8,90.4,-0.9386,-0.0068,-0.3449,8,90.4,0,0,0,0,0,0,3,0,0,0,69,0,0,0,90.4,1,0,-0.032,0,0,3,0,0,0,10,3.395,0,0,1,1,0,0,VALID,0,0,0,0,0,1,0,0,0,0,0,0,0,0,0,0,0,0,0,0,344.17,445.96,2,0,0.08,0.08,445,14.29,0.08,0.06,30.46,FLYING,CF1-H,0:/Integrated Flight Computer/aircraft/cf1_h_cfg.ks (inferred preloaded)
30.84,TAKEOFF,TO_CLIMB,119.86,80,-39.86,39.29,9,5.57,1.4,90.37,0.048,0.78,0,0,0,0,0,0,0,0,0,90.4,8,0,1,4.29,0,0,8,90.4,-0.9386,-0.0068,-0.345,8,90.4,0,0,0,0,0,0,3,0,0,0,69,0,0,0,90.4,1,0,-0.031,0,0,3,0,0,0,10,3.395,0,0,1,1,0,0,VALID,0,0,0,0,0,1,0,0,0,0,0,0,0,0,0,0,0,0,0,0,343.44,444.94,2,0,0.08,0.08,449,14.29,0.08,0.06,30.74,FLYING,CF1-H,0:/Integrated Flight Computer/aircraft/cf1_h_cfg.ks (inferred preloaded)
31.12,TAKEOFF,TO_CLIMB,121.14,80,-41.14,41.98,9.43,5.6,1.29,90.37,0.047,0.78,0,0,0,0,0,0,0,0,0,90.4,8,0,1,4.45,0,0,8,90.4,-0.9386,-0.0068,-0.345,8,90.4,0,0,0,0,0,0,3,0,0,0,69,0,0,0,90.4,1,0,-0.03,0,0,3,0,0,0,10,3.395,0,0,1,1,0,0,VALID,0,0,0,0,0,1,0,0,0,0,0,0,0,0,0,0,0,0,0,0,342.71,443.92,2,0,0.08,0.08,453,14.29,0.08,0.06,31.02,FLYING,CF1-H,0:/Integrated Flight Computer/aircraft/cf1_h_cfg.ks (inferred preloaded)
31.4,TAKEOFF,TO_CLIMB,122.41,80,-42.41,44.79,9.81,5.75,1.29,90.37,0.047,0.78,0,0,0,0,0,0,0,0,0,90.4,8,0,1,4.58,0,0,8,90.4,-0.9386,-0.0068,-0.3451,8,90.4,0,0,0,0,0,0,3,0,0,0,69,0,0,0,90.4,1,0,-0.028,0,0,3,0,0,0,10,3.395,0,0,1,1,0,0,VALID,0,0,0,0,0,1,0,0,0,0,0,0,0,0,0,0,0,0,0,0,341.99,442.9,2,0,0.08,0.08,457,14.29,0.08,0.06,31.3,FLYING,CF1-H,0:/Integrated Flight Computer/aircraft/cf1_h_cfg.ks (inferred preloaded)
31.68,TAKEOFF,TO_CLIMB,123.66,80,-43.66,47.75,10.34,6,1.35,90.37,0.048,0.78,0,0,0,0,0,0,0,0,0,90.4,8,0,1,4.78,0,0,8,90.4,-0.9385,-0.0068,-0.3451,8,90.4,0,0,0,0,0,0,3,0,0,0,69,0,0,0,90.4,1,0,-0.027,0,0,3,0,0,0,10,3.395,0,0,1,1,0,0,VALID,0,0,0,0,0,1,0,0,0,0,0,0,0,0,0,0,0,0,0,0,341.27,441.9,2,0,0.08,0.08,461,14.29,0.08,0.06,31.58,FLYING,CF1-H,0:/Integrated Flight Computer/aircraft/cf1_h_cfg.ks (inferred preloaded)
31.96,TAKEOFF,TO_CLIMB,124.89,80,-44.89,50.86,10.96,6.14,1.27,90.37,0.049,0.78,0,0,0,0,0,0,0,0,0,90.4,8,0,1,5.02,0,0,8,90.4,-0.9385,-0.0068,-0.3452,8,90.4,0,0,0,0,0,0,3,0,0,0,69,0,0,0,90.4,1,0,-0.026,0,0,3,0,0,0,10,3.395,0,0,1,1,0,0,VALID,0,0,0,0,0,1,0,0,0,0,0,0,0,0,0,0,0,0,0,0,340.56,440.9,2,0,0.08,0.08,465,14.29,0.08,0.06,31.86,FLYING,CF1-H,0:/Integrated Flight Computer/aircraft/cf1_h_cfg.ks (inferred preloaded)
32.24,TAKEOFF,TO_CLIMB,126.11,80,-46.11,54.1,11.52,6.14,1.07,90.38,0.05,0.78,0,0,0,0,0,0,0,0,0,90.4,8,0,1,5.22,0,0,8,90.4,-0.9385,-0.0068,-0.3452,8,90.4,0,0,0,0,0,0,3,0,0,0,69,0,0,0,90.4,1,0,-0.025,0,0,3,0,0,0,10,3.395,0,0,1,1,0,0,VALID,0,0,0,0,0,1,0,0,0,0,0,0,0,0,0,0,0,0,0,0,339.85,439.91,2,0,0.08,0.08,469,14.29,0.08,0.06,32.14,FLYING,CF1-H,0:/Integrated Flight Computer/aircraft/cf1_h_cfg.ks (inferred preloaded)
32.52,TAKEOFF,TO_CLIMB,127.32,80,-47.32,57.5,12,6.16,0.93,90.38,0.05,0.78,0,0,0,0,0,0,0,0,0,90.4,8,0,1,5.38,0,0,8,90.4,-0.9385,-0.0068,-0.3453,8,90.4,0,0,0,0,0,0,3,0,0,0,69,0,0,0,90.4,1,0,-0.023,0,0,3,0,0,0,10,3.395,0,0,1,1,0,0,VALID,0,0,0,0,0,1,0,0,0,0,0,0,0,0,0,0,0,0,0,0,339.14,438.92,2,0,0.08,0.08,473,14.29,0.08,0.06,32.42,FLYING,CF1-H,0:/Integrated Flight Computer/aircraft/cf1_h_cfg.ks (inferred preloaded)
32.8,TAKEOFF,TO_CLIMB,128.52,80,-48.52,61.03,12.47,6.23,0.84,90.38,0.05,0.78,0,0,0,0,0,0,0,0,0,90.4,8,0,1,5.54,0,0,8,90.4,-0.9384,-0.0068,-0.3454,8,90.4,0,0,0,0,0,0,3,0,0,0,69,0,0,0,90.4,1,0,-0.022,0,0,3,0,0,0,10,3.395,0,0,1,1,0,0,VALID,0,0,0,0,0,1,0,0,0,0,0,0,0,0,0,0,0,0,0,0,338.43,437.93,2,0,0.08,0.08,477,14.29,0.08,0.06,32.7,FLYING,CF1-H,0:/Integrated Flight Computer/aircraft/cf1_h_cfg.ks (inferred preloaded)
33.08,TAKEOFF,TO_CLIMB,129.71,80,-49.71,64.68,12.92,6.27,0.73,90.38,0.051,0.78,0,0,0,0,0,0,0,0,0,90.4,8,0,1,5.69,0,0,8,90.4,-0.9384,-0.0068,-0.3454,8,90.4,0,0,0,0,0,0,3,0,0,0,69,0,0,0,90.4,1,0,-0.021,0,0,3,0,0,0,10,3.395,0,0,1,1,0,0,VALID,0,0,0,0,0,1,0,0,0,0,0,0,0,0,0,0,0,0,0,0,337.72,436.94,2,0,0.08,0.08,481,14.29,0.08,0.06,32.98,FLYING,CF1-H,0:/Integrated Flight Computer/aircraft/cf1_h_cfg.ks (inferred preloaded)
33.36,TAKEOFF,TO_CLIMB,130.9,80,-50.9,68.45,13.34,6.33,0.65,90.38,0.05,0.78,0,0,0,0,0,0,0,0,0,90.4,8,0,1,5.82,0,0,8,90.4,-0.9384,-0.0068,-0.3455,8,90.4,0,0,0,0,0,0,3,0,0,0,69,0,0,0,90.4,1,0,-0.02,0,0,3,0,0,0,10,3.395,0,0,1,1,0,0,VALID,0,0,0,0,0,1,0,0,0,0,0,0,0,0,0,0,0,0,0,0,337.02,435.96,2,0,0.08,0.08,485,14.29,0.08,0.06,33.26,FLYING,CF1-H,0:/Integrated Flight Computer/aircraft/cf1_h_cfg.ks (inferred preloaded)
33.64,TAKEOFF,TO_CLIMB,132.07,80,-52.07,72.35,13.78,6.4,0.6,90.38,0.05,0.78,0,0,0,0,0,0,0,0,0,90.4,8,0,1,5.96,0,0,8,90.4,-0.9384,-0.0068,-0.3455,8,90.4,0,0,0,0,0,0,3,0,0,0,69,0,0,0,90.4,1,0,-0.018,0,0,3,0,0,0,10,3.395,0,0,1,1,0,0,VALID,0,0,0,0,0,1,0,0,0,0,0,0,0,0,0,0,0,0,0,0,336.31,434.99,2,0,0.08,0.08,489,14.29,0.08,0.06,33.54,FLYING,CF1-H,0:/Integrated Flight Computer/aircraft/cf1_h_cfg.ks (inferred preloaded)
33.92,TAKEOFF,TO_CLIMB,133.24,80,-53.24,76.39,14.24,6.56,0.61,90.38,0.051,0.78,0,0,0,0,0,0,0,0,0,90.4,8,0,1,6.1,0,0,8,90.4,-0.9384,-0.0068,-0.3456,8,90.4,0,0,0,0,0,0,3,0,0,0,69,0,0,0,90.4,1,0,-0.017,0,0,3,0,0,0,10,3.395,0,0,1,1,0,0,VALID,0,0,0,0,0,1,0,0,0,0,0,0,0,0,0,0,0,0,0,0,335.62,434.02,2,0,0.08,0.08,493,14.29,0.08,0.06,33.82,FLYING,CF1-H,0:/Integrated Flight Computer/aircraft/cf1_h_cfg.ks (inferred preloaded)
34.2,TAKEOFF,TO_CLIMB,134.38,80,-54.38,80.55,14.79,6.64,0.53,90.38,0.052,0.78,0,0,0,0,0,0,0,0,0,90.4,8,0,1,6.28,0,0,8,90.4,-0.9383,-0.0068,-0.3457,8,90.4,0,0,0,0,0,0,3,0,0,0,69,0,0,0,90.4,1,0,-0.016,0,0,3,0,0,0,10,3.395,0,0,1,1,0,0,VALID,0,0,0,0,0,1,0,0,0,0,0,0,0,0,0,0,0,0,0,0,334.92,433.06,2,0,0.08,0.08,497,14.29,0.08,0.06,34.1,FLYING,CF1-H,0:/Integrated Flight Computer/aircraft/cf1_h_cfg.ks (inferred preloaded)
34.48,TAKEOFF,TO_CLIMB,135.52,80,-55.52,84.86,15.29,6.75,0.48,90.39,0.052,0.78,0,0,0,0,0,0,0,0,0,90.4,8,0,1,6.44,0,0,8,90.4,-0.9383,-0.0068,-0.3457,8,90.4,0,0,0,0,0,0,3,0,0,0,69,0,0,0,90.4,1,0,-0.014,0,0,3,0,0,0,10,3.395,0,0,1,1,0,0,VALID,0,0,0,0,0,1,0,0,0,0,0,0,0,0,0,0,0,0,0,0,334.23,432.11,2,0,0.08,0.08,501,14.29,0.08,0.06,34.38,FLYING,CF1-H,0:/Integrated Flight Computer/aircraft/cf1_h_cfg.ks (inferred preloaded)
34.76,TAKEOFF,TO_CLIMB,136.64,80,-56.64,89.25,15.73,6.67,0.26,90.39,0.052,0.78,0,0,0,0,0,0,0,0,0,90.4,8,0,1,6.57,0,0,8,90.4,-0.9383,-0.0068,-0.3458,8,90.4,0,0,0,0,0,0,3,0,0,0,69,0,0,0,90.4,1,0,-0.013,0,0,3,0,0,0,10,3.395,0,0,1,1,0,0,VALID,0,0,0,0,0,1,0,0,0,0,0,0,0,0,0,0,0,0,0,0,333.55,431.16,2,0,0.08,0.08,505,14.29,0.08,0.06,34.66,FLYING,CF1-H,0:/Integrated Flight Computer/aircraft/cf1_h_cfg.ks (inferred preloaded)
35.04,TAKEOFF,TO_CLIMB,137.76,80,-57.76,93.79,16.1,6.69,0.18,90.39,0.051,0.78,0,0,0,0,0,0,0,0,0,90.4,8,0,1,6.67,0,0,8,90.4,-0.9383,-0.0068,-0.3458,8,90.4,0,0,0,0,0,0,3,0,0,0,69,0,0,0,90.4,1,0,-0.012,0,0,3,0,0,0,10,3.395,0,0,1,1,0,0,VALID,0,0,0,0,0,1,0,0,0,0,0,0,0,0,0,0,0,0,0,0,332.86,430.21,2,0,0.08,0.08,509,14.29,0.08,0.06,34.94,FLYING,CF1-H,0:/Integrated Flight Computer/aircraft/cf1_h_cfg.ks (inferred preloaded)
35.32,TAKEOFF,TO_CLIMB,138.87,80,-58.87,98.43,16.46,6.74,0.13,90.39,0.049,0.78,0,0,0,0,0,0,0,0,0,90.4,8,0,1,6.76,0,0,8,90.4,-0.9382,-0.0068,-0.3459,8,90.4,0,0,0,0,0,0,3,0,0,0,69,0,0,0,90.4,1,0,-0.011,0,0,3,0,0,0,10,3.395,0,0,1,1,0,0,VALID,0,0,0,0,0,1,0,0,0,0,0,0,0,0,0,0,0,0,0,0,332.18,429.27,2,0,0.08,0.08,513,14.29,0.08,0.06,35.22,FLYING,CF1-H,0:/Integrated Flight Computer/aircraft/cf1_h_cfg.ks (inferred preloaded)
35.6,TAKEOFF,TO_CLIMB,139.97,80,-59.97,103.17,16.83,6.75,0.05,90.39,0.046,0.78,0,0,0,0,0,0,0,0,0,90.4,8,0,1,6.86,0,0,8,90.4,-0.9382,-0.0068,-0.346,8,90.4,0,0,0,0,0,0,3,0,0,0,69,0,0,0,90.4,1,0,-0.01,0,0,3,0,0,0,10,3.395,0,0,1,1,0,0,VALID,0,0,0,0,0,1,0,0,0,0,0,0,0,0,0,0,0,0,0,0,331.5,428.34,2,0,0.08,0.08,517,14.29,0.08,0.06,35.5,FLYING,CF1-H,0:/Integrated Flight Computer/aircraft/cf1_h_cfg.ks (inferred preloaded)
35.88,TAKEOFF,TO_CLIMB,141.06,80,-61.06,108.01,17.2,6.78,-0.01,90.39,0.045,0.78,0,0,0,0,0,0,0,0,0,90.4,8,0,1,6.95,0,0,8,90.4,-0.9382,-0.0068,-0.346,8,90.4,0,0,0,0,0,0,3,0,0,0,69,0,0,0,90.4,1,0,-0.009,0,0,3,0,0,0,10,3.395,0,0,1,1,0,0,VALID,0,0,0,0,0,1,0,0,0,0,0,0,0,0,0,0,0,0,0,0,330.82,427.41,2,0,0.08,0.08,521,14.29,0.08,0.06,35.78,FLYING,CF1-H,0:/Integrated Flight Computer/aircraft/cf1_h_cfg.ks (inferred preloaded)
36.16,TAKEOFF,TO_CLIMB,142.14,80,-62.14,112.94,17.51,6.76,-0.1,90.39,0.042,0.78,0,0,0,0,0,0,0,0,0,90.4,8,0,1,7.02,0,0,8,90.4,-0.9382,-0.0068,-0.3461,8,90.4,0,0,0,0,0,0,3,0,0,0,69,0,0,0,90.4,1,0,-0.008,0,0,3,0,0,0,10,3.395,0,0,1,1,0,0,VALID,0,0,0,0,0,1,0,0,0,0,0,0,0,0,0,0,0,0,0,0,330.15,426.49,2,0,0.08,0.08,525,14.29,0.08,0.06,36.06,FLYING,CF1-H,0:/Integrated Flight Computer/aircraft/cf1_h_cfg.ks (inferred preloaded)
36.44,TAKEOFF,TO_CLIMB,143.22,80,-63.22,117.95,17.8,6.76,-0.17,90.39,0.04,0.78,0,0,0,0,0,0,0,0,0,90.4,8,0,1,7.09,0,0,8,90.4,-0.9382,-0.0068,-0.3461,8,90.4,0,0,0,0,0,0,3,0,0,0,69,0,0,0,90.4,1,0,-0.007,0,0,3,0,0,0,10,3.395,0,0,1,1,0,0,VALID,0,0,0,0,0,1,0,0,0,0,0,0,0,0,0,0,0,0,0,0,329.49,425.57,2,0,0.08,0.08,529,14.29,0.08,0.06,36.34,FLYING,CF1-H,0:/Integrated Flight Computer/aircraft/cf1_h_cfg.ks (inferred preloaded)
36.72,TAKEOFF,TO_CLIMB,144.29,80,-64.29,123.04,18.08,6.76,-0.23,90.39,0.036,0.78,0,0,0,0,0,0,0,0,0,90.4,8,0,1,7.14,0,0,8,90.4,-0.9381,-0.0068,-0.3462,8,90.4,0,0,0,0,0,0,3,0,0,0,69,0,0,0,90.4,1,0,-0.006,0,0,3,0,0,0,10,3.395,0,0,1,1,0,0,VALID,0,0,0,0,0,1,0,0,0,0,0,0,0,0,0,0,0,0,0,0,328.82,424.66,2,0,0.08,0.08,533,14.29,0.08,0.06,36.62,FLYING,CF1-H,0:/Integrated Flight Computer/aircraft/cf1_h_cfg.ks (inferred preloaded)
37,TAKEOFF,TO_CLIMB,145.35,80,-65.35,128.2,18.36,6.77,-0.28,90.4,0.033,0.78,0,0,0,0,0,0,0,0,0,90.4,8,0,1,7.2,0,0,8,90.4,-0.9381,-0.0068,-0.3463,8,90.4,0,0,0,0,0,0,3,0,0,0,69,0,0,0,90.4,1,0,-0.005,0,0,3,0,0,0,10,3.395,0,0,1,1,0,0,VALID,0,0,0,0,0,1,0,0,0,0,0,0,0,0,0,0,0,0,0,0,328.17,423.76,2,0,0.08,0.08,537,14.29,0.08,0.06,36.9,FLYING,CF1-H,0:/Integrated Flight Computer/aircraft/cf1_h_cfg.ks (inferred preloaded)
37.28,TAKEOFF,TO_CLIMB,146.41,80,-66.41,133.45,18.64,6.8,-0.3,90.4,0.029,0.78,0,0,0,0,0,0,0,0,0,90.4,8,0,1,7.26,0,0,8,90.4,-0.9381,-0.0068,-0.3463,8,90.4,0,0,0,0,0,0,3,0,0,0,69,0,0,0,90.4,1,0,-0.004,0,0,3,0,0,0,10,3.395,0,0,1,1,0,0,VALID,0,0,0,0,0,1,0,0,0,0,0,0,0,0,0,0,0,0,0,0,327.51,422.86,2,0,0.08,0.08,541,14.29,0.08,0.06,37.18,FLYING,CF1-H,0:/Integrated Flight Computer/aircraft/cf1_h_cfg.ks (inferred preloaded)
37.56,TAKEOFF,TO_CLIMB,147.45,80,-67.45,138.77,18.92,6.82,-0.34,90.4,0.027,0.78,0,0,0,0,0,0,0,0,0,90.4,8,0,1,7.31,0,0,8,90.4,-0.9381,-0.0068,-0.3464,8,90.4,0,0,0,0,0,0,3,0,0,0,69,0,0,0,90.4,1,0,-0.003,0,0,3,0,0,0,10,3.395,0,0,1,1,0,0,VALID,0,0,0,0,0,1,0,0,0,0,0,0,0,0,0,0,0,0,0,0,326.86,421.97,2,0,0.08,0.08,545,14.29,0.08,0.06,37.46,FLYING,CF1-H,0:/Integrated Flight Computer/aircraft/cf1_h_cfg.ks (inferred preloaded)
37.84,TAKEOFF,TO_CLIMB,148.49,80,-68.49,144.17,19.22,6.84,-0.38,90.4,0.025,0.78,0,0,0,0,0,0,0,0,0,90.4,8,0,1,7.38,0,0,8,90.4,-0.938,-0.0068,-0.3465,8,90.4,0,0,0,0,0,0,3,0,0,0,69,0,0,0,90.4,1,0,-0.002,0,0,3,0,0,0,10,3.395,0,0,1,1,0,0,VALID,0,0,0,0,0,1,0,0,0,0,0,0,0,0,0,0,0,0,0,0,326.22,421.09,2,0,0.08,0.08,549,14.29,0.08,0.06,37.74,FLYING,CF1-H,0:/Integrated Flight Computer/aircraft/cf1_h_cfg.ks (inferred preloaded)
38.12,TAKEOFF,TO_CLIMB,149.52,80,-69.52,149.64,19.51,6.85,-0.43,90.4,0.023,0.78,0,0,0,0,0,0,0,0,0,90.4,8,0,1,7.44,0,0,8,90.4,-0.938,-0.0068,-0.3465,8,90.4,0,0,0,0,0,0,3,0,0,0,69,0,0,0,90.4,1,0,-0.001,0,0,3,0,0,0,10,3.395,0,0,1,1,0,0,VALID,0,0,0,0,0,1,0,0,0,0,0,0,0,0,0,0,0,0,0,0,325.58,420.22,2,0,0.08,0.08,553,14.29,0.08,0.06,38.02,FLYING,CF1-H,0:/Integrated Flight Computer/aircraft/cf1_h_cfg.ks (inferred preloaded)
38.4,TAKEOFF,TO_CLIMB,150.54,80,-70.54,155.24,19.79,6.84,-0.49,90.4,0.019,0.78,0,0,0,0,0,0,0,0,0,90.4,8,0,1,7.49,0,0,8,90.4,-0.938,-0.0068,-0.3466,8,90.4,0,0,0,0,0,0,3,0,0,0,69,0,0,0,90.4,1,0,-0.001,0,0,3,0,0,0,10,3.395,0,0,1,1,0,0,VALID,0,0,0,0,0,1,0,0,0,0,0,0,0,0,0,0,0,0,0,0,324.95,419.35,2,0,0.08,0.08,557,14.29,0.08,0.06,38.3,FLYING,CF1-H,0:/Integrated Flight Computer/aircraft/cf1_h_cfg.ks (inferred preloaded)
38.68,TAKEOFF,TO_CLIMB,151.55,80,-71.55,160.84,20.04,6.85,-0.53,90.4,0.018,0.78,0,0,0,0,0,0,0,0,0,90.4,8,0,1,7.53,0,0,8,90.4,-0.938,-0.0068,-0.3467,8,90.4,0,0,0,0,0,0,3,0,0,0,69,0,0,0,90.4,1,0,0,0,0,3,0,0,0,10,3.395,0,0,1,1,0,0,VALID,0,0,0,0,0,1,0,0,0,0,0,0,0,0,0,0,0,0,0,0,324.32,418.49,2,0,0.08,0.08,561,14.29,0.08,0.06,38.58,FLYING,CF1-H,0:/Integrated Flight Computer/aircraft/cf1_h_cfg.ks (inferred preloaded)
38.96,TAKEOFF,TO_CLIMB,152.56,80,-72.56,166.52,20.31,6.87,-0.55,90.4,0.018,0.78,0,0,0,0,0,0,0,0,0,90.4,8,0,1,7.58,0,0,8,90.4,-0.9379,-0.0068,-0.3467,8,90.4,0,0,0,0,0,0,3,0,0,0,69,0,0,0,90.4,1,0,0.001,0,0,3,0,0,0,10,3.395,0,0,1,1,0,0,VALID,0,0,0,0,0,1,0,0,0,0,0,0,0,0,0,0,0,0,0,0,323.69,417.64,2,0,0.08,0.08,565,14.29,0.08,0.06,38.86,FLYING,CF1-H,0:/Integrated Flight Computer/aircraft/cf1_h_cfg.ks (inferred preloaded)
39.24,TAKEOFF,TO_CLIMB,153.55,80,-73.55,172.3,20.57,6.86,-0.62,90.4,0.014,0.78,0,0,0,0,0,0,0,0,0,90.4,8,0,1,7.63,0,0,8,90.4,-0.9379,-0.0068,-0.3468,8,90.4,0,0,0,0,0,0,3,0,0,0,69,0,0,0,90.4,1,0,0.001,0,0,3,0,0,0,10,3.395,0,0,1,1,0,0,VALID,0,0,0,0,0,1,0,0,0,0,0,0,0,0,0,0,0,0,0,0,323.07,416.8,2,0,0.08,0.08,569,14.29,0.08,0.06,39.14,FLYING,CF1-H,0:/Integrated Flight Computer/aircraft/cf1_h_cfg.ks (inferred preloaded)
39.52,TAKEOFF,TO_CLIMB,154.54,80,-74.54,178.14,20.79,6.84,-0.67,90.4,0.012,0.78,0,0,0,0,0,0,0,0,0,90.4,8,0,1,7.66,0,0,8,90.4,-0.9379,-0.0068,-0.3469,8,90.4,0,0,0,0,0,0,3,0,0,0,69,0,0,0,90.4,1,0,0.002,0,0,3,0,0,0,10,3.395,0,0,1,1,0,0,VALID,0,0,0,0,0,1,0,0,0,0,0,0,0,0,0,0,0,0,0,0,322.46,415.96,2,0,0.08,0.08,573,14.29,0.08,0.06,39.42,FLYING,CF1-H,0:/Integrated Flight Computer/aircraft/cf1_h_cfg.ks (inferred preloaded)
