t_s,phase,subphase,ias_ms,vapp_ms,spd_err_ms,agl_m,vs_ms,pitch_deg,aoa_deg,hdg_deg,bank_deg,thr_cmd,thr_intg,aa_hdg_cmd_deg,aa_fpa_cmd_deg,ils_loc_m,ils_gs_m,ils_dist_km,loc_corr_deg,gs_corr_deg,flare_fpa_cmd,flare_tgt_vs,flare_frac,steer_hdg_deg,steer_blend,ro_loc_corr_deg,ro_hdg_err_deg,ro_yaw_tgt,ro_yaw_scale,ro_yaw_gate,yaw_cmd,roll_cmd,pitch_cmd,ro_pitch_tgt_deg,ro_pitch_err_deg,ro_pitch_ff,ro_roll_assist,flaps_cur,flaps_tgt,phase_el_s,status
1.02,APPROACH,FLY_TO_FIX,98.18,80.4,-17.78,1623.47,34.71,22.82,4.65,140.1,0.296,0,-8.907,312.72,-0.6,0,0,0,0,0,0,0,0,140.12,0,0,0,0,0,0,0,0,0,0,0,0,0,1,2,1.06,FLYING
1.74,APPROACH,FLY_TO_FIX,97.51,80.8,-16.71,1648.61,33.96,19.48,1.56,140.28,-2.703,0,-17.27,88.46,-3.626,0,0,0,0,0,0,0,0,140.12,0,0,0,0,0,0,0,0,0,0,0,0,0,2,2,1.78,FLYING
2.5,APPROACH,FLY_TO_FIX,96.55,81.2,-15.35,1673.47,33.14,21.58,4.03,140.64,-2.978,0,-20,88.22,-3.754,0,0,0,0,0,0,0,0,140.12,0,0,0,0,0,0,0,0,0,0,0,0,0,2,2,2.54,FLYING
3.2,APPROACH,FLY_TO_FIX,95.28,81.6,-13.68,1695.93,31.46,19.66,2.64,140.03,4.07,0,-20,87.99,-3.867,0,0,0,0,0,0,0,0,140.12,0,0,0,0,0,0,0,0,0,0,0,0,0,2,2,3.24,FLYING
3.9,APPROACH,FLY_TO_FIX,93.71,82,-11.71,1717.98,31.09,21.25,4.47,138.64,13.326,0,-20,87.76,-3.978,0,0,0,0,0,0,0,0,140.12,0,0,0,0,0,0,0,0,0,0,0,0,0,2,2,3.94,FLYING
4.6,APPROACH,FLY_TO_FIX,91.92,82.4,-9.52,1739.22,29.97,20.12,3.89,136.97,23.102,0,-20,87.54,-4.084,0,0,0,0,0,0,0,0,140.12,0,0,0,0,0,0,0,0,0,0,0,0,0,2,2,4.64,FLYING
5.3,APPROACH,FLY_TO_FIX,90.04,82.8,-7.24,1759.33,28.04,18.47,3.36,135.07,33.408,0,-20,87.33,-4.186,0,0,0,0,0,0,0,0,140.12,0,0,0,0,0,0,0,0,0,0,0,0,0,2,2,5.34,FLYING
6,APPROACH,FLY_TO_FIX,88.13,83.2,-4.93,1777.93,25.18,18.31,5.54,130.74,43.939,0.149,-20,87.12,-4.279,0,0,0,0,0,0,0,0,140.12,0,0,0,0,0,0,0,0,0,0,0,0,0,2,2,6.04,FLYING
6.79,APPROACH,FLY_TO_FIX,85.78,83.6,-2.18,1796.86,22.65,17.99,8.24,124.04,53.924,0.349,-20,86.91,-4.372,0,0,0,0,0,0,0,0,140.12,0,0,0,0,0,0,0,0,0,0,0,0,0,2,2,6.85,FLYING
7.85,APPROACH,FLY_TO_FIX,82.57,84,1.43,1817.93,17.95,14.58,7.44,118.47,57.767,0.549,-19.332,86.64,-4.478,0,0,0,0,0,0,0,0,140.12,0,0,0,0,0,0,0,0,0,0,0,0,0,2,2,7.92,FLYING
9.07,APPROACH,FLY_TO_FIX,79.73,84,4.27,1835.79,12.42,12.41,7.26,113.31,49.787,0.749,-17.234,86.38,-4.57,0,0,0,0,0,0,0,0,140.12,0,0,0,0,0,0,0,0,0,0,0,0,0,2,2,9.14,FLYING
10.29,APPROACH,FLY_TO_FIX,77.7,84,6.3,1848.11,8.43,11.38,7.62,109.1,38.522,0.949,-14.109,86.15,-4.635,0,0,0,0,0,0,0,0,140.12,0,0,0,0,0,0,0,0,0,0,0,0,0,2,2,10.36,FLYING
11.52,APPROACH,FLY_TO_FIX,76.41,84,7.59,1856.55,5.83,10.64,7.81,106.02,29.57,1,-10.329,85.95,-4.679,0,0,0,0,0,0,0,0,140.12,0,0,0,0,0,0,0,0,0,0,0,0,0,2,2,11.59,FLYING
12.74,APPROACH,FLY_TO_FIX,75.75,84,8.25,1862.29,3.91,9.72,7.87,103.13,25.427,1,-6.209,85.78,-4.709,0,0,0,0,0,0,0,0,140.12,0,0,0,0,0,0,0,0,0,0,0,0,0,2,2,12.81,FLYING
13.97,APPROACH,FLY_TO_FIX,75.6,84,8.4,1865.91,2.33,8.84,7.85,100.66,21.675,1,-2.01,85.63,-4.728,0,0,0,0,0,0,0,0,140.12,0,0,0,0,0,0,0,0,0,0,0,0,0,2,2,14.04,FLYING
15.19,APPROACH,FLY_TO_FIX,75.95,84,8.05,1867.76,1,7.94,7.69,98.54,19.147,0.9071,2.024,85.5,-4.738,0,0,0,0,0,0,0,0,140.12,0,0,0,0,0,0,0,0,0,0,0,0,0,2,2,15.26,FLYING
16.42,APPROACH,FLY_TO_FIX,76.72,84,7.28,1868.08,-0.16,7,7.42,96.59,17.162,0.7644,5.68,85.38,-4.741,0,0,0,0,0,0,0,0,140.12,0,0,0,0,0,0,0,0,0,0,0,0,0,2,2,16.49,FLYING
17.64,APPROACH,FLY_TO_FIX,77.82,84,6.18,1867.07,-1.19,6.09,7.1,94.85,15.401,0.5717,8.789,85.28,-4.736,0,0,0,0,0,0,0,0,140.12,0,0,0,0,0,0,0,0,0,0,0,0,0,2,2,17.71,FLYING
18.87,APPROACH,FLY_TO_FIX,79.14,84,4.86,1864.88,-2.11,5.22,6.73,93.28,13.726,0.3717,11.237,85.19,-4.726,0,0,0,0,0,0,0,0,140.12,0,0,0,0,0,0,0,0,0,0,0,0,0,2,2,18.94,FLYING
20.09,APPROACH,FLY_TO_FIX,80.53,84,3.47,1861.64,-2.93,4.47,6.42,91.99,12.073,0.186,12.991,85.12,-4.71,0,0,0,0,0,0,0,0,140.12,0,0,0,0,0,0,0,0,0,0,0,0,0,2,2,20.16,FLYING
21.32,APPROACH,FLY_TO_FIX,81.7,84,2.3,1857.48,-3.66,3.9,6.23,90.82,10.505,0.0517,14.154,85.05,-4.69,0,0,0,0,0,0,0,0,140.12,0,0,0,0,0,0,0,0,0,0,0,0,0,2,2,21.39,FLYING
22.54,APPROACH,FLY_TO_FIX,82.44,84,1.56,1852.52,-4.29,3.53,6.18,89.8,9.025,0,14.94,84.99,-4.666,0,0,0,0,0,0,0,0,140.12,0,0,0,0,0,0,0,0,0,0,0,0,0,2,2,22.61,FLYING
23.77,APPROACH,FLY_TO_FIX,82.69,84,1.31,1846.89,-4.81,3.31,6.25,88.93,7.647,0.0165,15.596,84.94,-4.638,0,0,0,0,0,0,0,0,140.12,0,0,0,0,0,0,0,0,0,0,0,0,0,2,2,23.84,FLYING
24.99,APPROACH,FLY_TO_FIX,82.53,84,1.47,1840.71,-5.23,3.22,6.41,88.19,6.394,0.0954,16.329,84.9,-4.607,0,0,0,0,0,0,0,0,140.12,0,0,0,0,0,0,0,0,0,0,0,0,0,2,2,25.06,FLYING
26.22,APPROACH,FLY_TO_FIX,82.13,84,1.87,1834.09,-5.56,3.2,6.6,87.57,5.287,0.2004,17.258,84.87,-4.574,0,0,0,0,0,0,0,0,140.12,0,0,0,0,0,0,0,0,0,0,0,0,0,2,2,26.29,FLYING
27.44,APPROACH,FLY_TO_FIX,81.68,84,2.32,1827.12,-5.81,3.2,6.76,87.06,4.337,0.3011,18.411,84.84,-4.54,0,0,0,0,0,0,0,0,140.12,0,0,0,0,0,0,0,0,0,0,0,0,0,2,2,27.51,FLYING
28.67,APPROACH,FLY_TO_FIX,81.29,84,2.71,1819.87,-6.01,3.2,6.9,86.64,3.544,0.383,19.759,84.82,-4.504,0,0,0,0,0,0,0,0,140.12,0,0,0,0,0,0,0,0,0,0,0,0,0,2,2,28.74,FLYING
29.89,APPROACH,FLY_TO_FIX,81,84,3,1812.41,-6.16,3.2,7,86.3,2.89,0.4285,20,84.8,-4.466,0,0,0,0,0,0,0,0,140.12,0,0,0,0,0,0,0,0,0,0,0,0,0,2,2,29.96,FLYING
31.12,APPROACH,FLY_TO_FIX,80.82,84,3.18,1804.79,-6.28,3.18,7.06,86.02,2.358,0.4481,20,84.78,-4.428,0,0,0,0,0,0,0,0,140.12,0,0,0,0,0,0,0,0,0,0,0,0,0,2,2,31.19,FLYING
32.34,APPROACH,FLY_TO_FIX,80.76,84,3.24,1797.03,-6.37,3.14,7.08,85.79,1.929,0.447,20,84.77,-4.39,0,0,0,0,0,0,0,0,140.12,0,0,0,0,0,0,0,0,0,0,0,0,0,2,2,32.41,FLYING
33.57,APPROACH,FLY_TO_FIX,80.83,84,3.17,1789.16,-6.45,3.07,7.06,85.61,1.583,0.4285,20,84.76,-4.35,0,0,0,0,0,0,0,0,140.12,0,0,0,0,0,0,0,0,0,0,0,0,0,2,2,33.64,FLYING
34.79,APPROACH,FLY_TO_FIX,81.01,84,2.99,1781.21,-6.51,2.99,7.01,85.45,1.303,0.3967,20,84.75,-4.311,0,0,0,0,0,0,0,0,140.12,0,0,0,0,0,0,0,0,0,0,0,0,0,2,2,34.86,FLYING
36.02,APPROACH,FLY_TO_FIX,81.27,84,2.73,1773.18,-6.56,2.89,6.93,85.32,1.079,0.3559,20,84.74,-4.271,0,0,0,0,0,0,0,0,140.12,0,0,0,0,0,0,0,0,0,0,0,0,0,2,2,36.09,FLYING
37.24,APPROACH,FLY_TO_FIX,81.6,84,2.4,1765.1,-6.6,2.79,6.84,85.21,0.903,0.3103,20,84.73,-4.23,0,0,0,0,0,0,0,0,140.12,0,0,0,0,0,0,0,0,0,0,0,0,0,2,2,37.31,FLYING
38.47,APPROACH,FLY_TO_FIX,81.98,84,2.02,1756.98,-6.63,2.69,6.74,85.13,0.74,0.2638,20,84.73,-4.19,0,0,0,0,0,0,0,0,140.12,0,0,0,0,0,0,0,0,0,0,0,0,0,2,2,38.54,FLYING
39.69,APPROACH,FLY_TO_FIX,82.38,84,1.62,1748.83,-6.65,2.6,6.64,85.06,0.569,0.2203,20,84.72,-4.149,0,0,0,0,0,0,0,0,140.12,0,0,0,0,0,0,0,0,0,0,0,0,0,2,2,39.76,FLYING
40.92,APPROACH,FLY_TO_FIX,82.74,84,1.26,1740.67,-6.66,2.53,6.56,85.01,0.425,0.1856,20,84.72,-4.108,0,0,0,0,0,0,0,0,140.12,0,0,0,0,0,0,0,0,0,0,0,0,0,2,2,40.99,FLYING
42.14,APPROACH,FLY_TO_FIX,83.02,84,0.98,1732.51,-6.66,2.49,6.51,84.97,0.316,0.1674,20,84.71,-4.067,0,0,0,0,0,0,0,0,140.12,0,0,0,0,0,0,0,0,0,0,0,0,0,2,2,42.21,FLYING
43.37,APPROACH,FLY_TO_FIX,83.17,84,0.83,1724.36,-6.65,2.48,6.49,84.94,0.237,0.1676,20,84.71,-4.026,0,0,0,0,0,0,0,0,140.12,0,0,0,0,0,0,0,0,0,0,0,0,0,2,2,43.44,FLYING
44.59,APPROACH,FLY_TO_FIX,83.22,84,0.78,1716.23,-6.63,2.5,6.5,84.92,0.183,0.1824,20,84.71,-3.986,0,0,0,0,0,0,0,0,140.12,0,0,0,0,0,0,0,0,0,0,0,0,0,2,2,44.66,FLYING
45.82,APPROACH,FLY_TO_FIX,83.2,84,0.8,1708.14,-6.6,2.53,6.51,84.9,0.145,0.2047,20,84.7,-3.945,0,0,0,0,0,0,0,0,140.12,0,0,0,0,0,0,0,0,0,0,0,0,0,2,2,45.89,FLYING
47.04,APPROACH,FLY_TO_FIX,83.16,84,0.84,1700.08,-6.57,2.56,6.53,84.88,0.119,0.2268,20,84.7,-3.905,0,0,0,0,0,0,0,0,140.12,0,0,0,0,0,0,0,0,0,0,0,0,0,2,2,47.11,FLYING
48.27,APPROACH,FLY_TO_FIX,83.11,84,0.89,1692.05,-6.54,2.58,6.54,84.87,0.104,0.2445,20,84.7,-3.865,0,0,0,0,0,0,0,0,140.12,0,0,0,0,0,0,0,0,0,0,0,0,0,2,2,48.34,FLYING
49.49,APPROACH,FLY_TO_FIX,83.08,84,0.92,1684.07,-6.5,2.61,6.55,84.85,0.094,0.2573,20,84.7,-3.825,0,0,0,0,0,0,0,0,140.12,0,0,0,0,0,0,0,0,0,0,0,0,0,2,2,49.56,FLYING
50.72,APPROACH,FLY_TO_FIX,83.07,84,0.93,1676.13,-6.47,2.63,6.55,84.84,0.087,0.2651,20,84.69,-3.785,0,0,0,0,0,0,0,0,140.12,0,0,0,0,0,0,0,0,0,0,0,0,0,2,2,50.79,FLYING
51.94,APPROACH,FLY_TO_FIX,83.08,84,0.92,1668.23,-6.43,2.65,6.55,84.82,0.082,0.268,20,84.69,-3.746,0,0,0,0,0,0,0,0,140.12,0,0,0,0,0,0,0,0,0,0,0,0,0,2,2,52.01,FLYING
53.17,APPROACH,FLY_TO_FIX,83.11,84,0.89,1660.38,-6.39,2.66,6.54,84.81,0.076,0.2668,20,84.69,-3.706,0,0,0,0,0,0,0,0,140.12,0,0,0,0,0,0,0,0,0,0,0,0,0,2,2,53.24,FLYING
54.39,APPROACH,FLY_TO_FIX,83.17,84,0.83,1652.57,-6.35,2.67,6.52,84.8,0.073,0.2621,20,84.69,-3.667,0,0,0,0,0,0,0,0,140.12,0,0,0,0,0,0,0,0,0,0,0,0,0,2,2,54.46,FLYING
55.62,APPROACH,FLY_TO_FIX,83.24,84,0.76,1644.82,-6.31,2.67,6.5,84.79,0.068,0.2549,20,84.69,-3.629,0,0,0,0,0,0,0,0,140.12,0,0,0,0,0,0,0,0,0,0,0,0,0,2,2,55.69,FLYING
56.84,APPROACH,FLY_TO_FIX,83.33,84,0.67,1637.11,-6.27,2.68,6.47,84.78,0.063,0.2462,20,84.69,-3.59,0,0,0,0,0,0,0,0,140.12,0,0,0,0,0,0,0,0,0,0,0,0,0,2,2,56.91,FLYING
58.07,APPROACH,FLY_TO_FIX,83.43,84,0.57,1629.46,-6.23,2.68,6.45,84.77,0.057,0.2367,20,84.68,-3.552,0,0,0,0,0,0,0,0,140.12,0,0,0,0,0,0,0,0,0,0,0,0,0,2,2,58.14,FLYING
59.29,APPROACH,FLY_TO_FIX,83.53,84,0.47,1621.86,-6.18,2.68,6.42,84.76,0.052,0.2275,20,84.68,-3.514,0,0,0,0,0,0,0,0,140.12,0,0,0,0,0,0,0,0,0,0,0,0,0,2,2,59.36,FLYING
60.52,APPROACH,FLY_TO_FIX,83.64,84,0.36,1614.31,-6.14,2.68,6.39,84.75,0.049,0.2191,20,84.68,-3.476,0,0,0,0,0,0,0,0,140.12,0,0,0,0,0,0,0,0,0,0,0,0,0,2,2,60.59,FLYING
61.74,APPROACH,FLY_TO_FIX,83.73,84,0.27,1606.82,-6.09,2.69,6.37,84.74,0.045,0.2126,20,84.68,-3.438,0,0,0,0,0,0,0,0,140.12,0,0,0,0,0,0,0,0,0,0,0,0,0,2,2,61.81,FLYING
62.97,APPROACH,FLY_TO_FIX,83.81,84,0.19,1599.4,-6.04,2.71,6.36,84.73,0.043,0.2096,20,84.68,-3.401,0,0,0,0,0,0,0,0,140.12,0,0,0,0,0,0,0,0,0,0,0,0,0,2,2,63.04,FLYING
64.19,APPROACH,FLY_TO_FIX,83.85,84,0.15,1592.03,-5.99,2.73,6.35,84.72,0.038,0.2104,20,84.68,-3.364,0,0,0,0,0,0,0,0,140.12,0,0,0,0,0,0,0,0,0,0,0,0,0,2,2,64.26,FLYING
65.42,APPROACH,FLY_TO_FIX,83.88,84,0.12,1584.73,-5.94,2.76,6.35,84.72,0.035,0.2141,20,84.68,-3.328,0,0,0,0,0,0,0,0,140.12,0,0,0,0,0,0,0,0,0,0,0,0,0,2,2,65.49,FLYING
66.64,APPROACH,FLY_TO_FIX,83.89,84,0.11,1577.49,-5.89,2.79,6.35,84.71,0.031,0.2193,20,84.68,-3.292,0,0,0,0,0,0,0,0,140.12,0,0,0,0,0,0,0,0,0,0,0,0,0,2,2,66.71,FLYING
67.87,APPROACH,FLY_TO_FIX,83.89,84,0.11,1570.32,-5.83,2.82,6.35,84.7,0.026,0.2244,20,84.68,-3.256,0,0,0,0,0,0,0,0,140.12,0,0,0,0,0,0,0,0,0,0,0,0,0,2,2,67.94,FLYING
69.09,APPROACH,FLY_TO_FIX,83.88,84,0.12,1563.21,-5.78,2.86,6.35,84.7,0.023,0.229,20,84.68,-3.22,0,0,0,0,0,0,0,0,140.12,0,0,0,0,0,0,0,0,0,0,0,0,0,2,2,69.16,FLYING
70.32,APPROACH,FLY_TO_FIX,83.88,84,0.12,1556.18,-5.72,2.89,6.35,84.69,0.021,0.2328,20,84.68,-3.185,0,0,0,0,0,0,0,0,140.12,0,0,0,0,0,0,0,0,0,0,0,0,0,2,2,70.39,FLYING
71.54,APPROACH,FLY_TO_FIX,83.88,84,0.12,1549.21,-5.66,2.92,6.35,84.69,0.015,0.2357,20,84.67,-3.15,0,0,0,0,0,0,0,0,140.12,0,0,0,0,0,0,0,0,0,0,0,0,0,2,2,71.61,FLYING
72.77,APPROACH,FLY_TO_FIX,83.88,84,0.12,1542.32,-5.61,2.96,6.35,84.68,0.011,0.2377,20,84.67,-3.116,0,0,0,0,0,0,0,0,140.12,0,0,0,0,0,0,0,0,0,0,0,0,0,2,2,72.84,FLYING
73.99,APPROACH,FLY_TO_FIX,83.88,84,0.12,1535.49,-5.55,2.99,6.35,84.68,0.007,0.239,20,84.67,-3.081,0,0,0,0,0,0,0,0,140.12,0,0,0,0,0,0,0,0,0,0,0,0,0,2,2,74.06,FLYING
75.22,APPROACH,FLY_TO_FIX,83.89,84,0.11,1528.74,-5.49,3.02,6.34,84.67,0.007,0.2394,20,84.67,-3.048,0,0,0,0,0,0,0,0,140.12,0,0,0,0,0,0,0,0,0,0,0,0,0,2,2,75.29,FLYING
76.44,APPROACH,FLY_TO_FIX,83.9,84,0.1,1522.05,-5.43,3.05,6.34,84.67,0.003,0.2393,20,84.67,-3.014,0,0,0,0,0,0,0,0,140.12,0,0,0,0,0,0,0,0,0,0,0,0,0,2,2,76.51,FLYING
77.67,APPROACH,FLY_TO_FIX,83.91,84,0.09,1515.44,-5.38,3.08,6.34,84.67,0.001,0.2387,20,84.67,-2.981,0,0,0,0,0,0,0,0,140.12,0,0,0,0,0,0,0,0,0,0,0,0,0,2,2,77.74,FLYING
78.89,APPROACH,FLY_TO_FIX,83.92,84,0.08,1508.89,-5.32,3.11,6.33,84.66,0,0.2378,20,84.67,-2.948,0,0,0,0,0,0,0,0,140.12,0,0,0,0,0,0,0,0,0,0,0,0,0,2,2,78.96,FLYING
80.12,APPROACH,FLY_TO_FIX,83.94,84,0.06,1502.42,-5.26,3.14,6.33,84.66,-0.005,0.2368,20,84.67,-2.916,0,0,0,0,0,0,0,0,140.12,0,0,0,0,0,0,0,0,0,0,0,0,0,2,2,80.19,FLYING
81.34,APPROACH,FLY_TO_FIX,83.95,84,0.05,1496.01,-5.21,3.17,6.32,84.66,-0.007,0.2358,20,84.67,-2.884,0,0,0,0,0,0,0,0,140.12,0,0,0,0,0,0,0,0,0,0,0,0,0,2,2,81.41,FLYING
82.57,APPROACH,FLY_TO_FIX,83.97,84,0.03,1489.67,-5.15,3.19,6.32,84.66,-0.007,0.2349,20,84.67,-2.852,0,0,0,0,0,0,0,0,140.12,0,0,0,0,0,0,0,0,0,0,0,0,0,2,2,82.64,FLYING
83.79,APPROACH,FLY_TO_FIX,83.98,84,0.02,1483.4,-5.1,3.22,6.31,84.65,-0.007,0.2343,20,84.67,-2.821,0,0,0,0,0,0,0,0,140.12,0,0,0,0,0,0,0,0,0,0,0,0,0,2,2,83.86,FLYING
85.02,APPROACH,FLY_TO_FIX,83.99,84,0.01,1477.2,-5.04,3.25,6.31,84.65,-0.008,0.2339,20,84.67,-2.79,0,0,0,0,0,0,0,0,140.12,0,0,0,0,0,0,0,0,0,0,0,0,0,2,2,85.09,FLYING
86.24,APPROACH,FLY_TO_FIX,84,84,0,1471.06,-4.99,3.28,6.31,84.65,-0.011,0.2339,20,84.67,-2.759,0,0,0,0,0,0,0,0,140.12,0,0,0,0,0,0,0,0,0,0,0,0,0,2,2,86.31,FLYING
87.47,APPROACH,FLY_TO_FIX,84.01,84,-0.01,1465,-4.93,3.31,6.31,84.65,-0.011,0.2342,19.996,84.67,-2.728,0,0,0,0,0,0,0,0,140.12,0,0,0,0,0,0,0,0,0,0,0,0,0,2,2,87.54,FLYING
88.69,APPROACH,FLY_TO_FIX,84.01,84,-0.01,1458.99,-4.88,3.34,6.3,84.65,-0.012,0.2348,19.991,84.67,-2.698,0,0,0,0,0,0,0,0,140.12,0,0,0,0,0,0,0,0,0,0,0,0,0,2,2,88.76,FLYING
89.92,APPROACH,FLY_TO_FIX,84.01,84,-0.01,1453.06,-4.82,3.37,6.3,84.65,-0.012,0.2356,19.986,84.67,-2.669,0,0,0,0,0,0,0,0,140.12,0,0,0,0,0,0,0,0,0,0,0,0,0,2,2,89.99,FLYING
91.14,APPROACH,FLY_TO_FIX,84.01,84,-0.01,1447.19,-4.77,3.41,6.3,84.64,-0.013,0.2366,19.982,84.67,-2.639,0,0,0,0,0,0,0,0,140.12,0,0,0,0,0,0,0,0,0,0,0,0,0,2,2,91.21,FLYING
92.37,APPROACH,FLY_TO_FIX,84,84,0,1441.38,-4.72,3.44,6.3,84.64,-0.014,0.2379,19.981,84.67,-2.61,0,0,0,0,0,0,0,0,140.12,0,0,0,0,0,0,0,0,0,0,0,0,0,2,2,92.44,FLYING
93.59,APPROACH,FLY_TO_FIX,84,84,0,1435.64,-4.66,3.47,6.31,84.64,-0.015,0.2392,19.982,84.67,-2.581,0,0,0,0,0,0,0,0,140.12,0,0,0,0,0,0,0,0,0,0,0,0,0,2,2,93.66,FLYING
94.82,APPROACH,FLY_TO_FIX,83.99,84,0.01,1429.97,-4.61,3.5,6.31,84.64,-0.016,0.2407,19.988,84.67,-2.553,0,0,0,0,0,0,0,0,140.12,0,0,0,0,0,0,0,0,0,0,0,0,0,2,2,94.89,FLYING
96.04,APPROACH,FLY_TO_FIX,83.98,84,0.02,1424.36,-4.56,3.53,6.31,84.64,-0.018,0.2421,19.999,84.67,-2.525,0,0,0,0,0,0,0,0,140.12,0,0,0,0,0,0,0,0,0,0,0,0,0,2,2,96.11,FLYING
97.27,APPROACH,FLY_TO_FIX,83.97,84,0.03,1418.81,-4.51,3.56,6.31,84.64,-0.018,0.2434,20,84.67,-2.497,0,0,0,0,0,0,0,0,140.12,0,0,0,0,0,0,0,0,0,0,0,0,0,2,2,97.34,FLYING
98.49,APPROACH,FLY_TO_FIX,83.96,84,0.04,1413.32,-4.46,3.6,6.31,84.64,-0.019,0.2445,20,84.67,-2.47,0,0,0,0,0,0,0,0,140.12,0,0,0,0,0,0,0,0,0,0,0,0,0,2,2,98.56,FLYING
99.72,APPROACH,FLY_TO_FIX,83.95,84,0.05,1407.89,-4.41,3.63,6.31,84.64,-0.021,0.2455,20,84.68,-2.443,0,0,0,0,0,0,0,0,140.12,0,0,0,0,0,0,0,0,0,0,0,0,0,2,2,99.79,FLYING
100.94,APPROACH,FLY_TO_FIX,83.94,84,0.06,1402.53,-4.36,3.66,6.31,84.64,-0.022,0.2463,20,84.68,-2.416,0,0,0,0,0,0,0,0,140.12,0,0,0,0,0,0,0,0,0,0,0,0,0,2,2,101.01,FLYING
102.17,APPROACH,FLY_TO_FIX,83.93,84,0.07,1397.22,-4.31,3.69,6.32,84.64,-0.023,0.247,20,84.68,-2.389,0,0,0,0,0,0,0,0,140.12,0,0,0,0,0,0,0,0,0,0,0,0,0,2,2,102.24,FLYING
103.39,APPROACH,FLY_TO_FIX,83.92,84,0.08,1391.98,-4.26,3.72,6.32,84.64,-0.023,0.2475,20,84.68,-2.363,0,0,0,0,0,0,0,0,140.12,0,0,0,0,0,0,0,0,0,0,0,0,0,2,2,103.46,FLYING
104.62,APPROACH,FLY_TO_FIX,83.91,84,0.09,1386.79,-4.21,3.75,6.32,84.64,-0.025,0.2479,20,84.68,-2.337,0,0,0,0,0,0,0,0,140.12,0,0,0,0,0,0,0,0,0,0,0,0,0,2,2,104.69,FLYING
105.84,APPROACH,FLY_TO_FIX,83.91,84,0.09,1381.67,-4.17,3.78,6.32,84.64,-0.023,0.2483,20,84.68,-2.311,0,0,0,0,0,0,0,0,140.12,0,0,0,0,0,0,0,0,0,0,0,0,0,2,2,105.91,FLYING
107.07,APPROACH,FLY_TO_FIX,83.9,84,0.1,1376.6,-4.12,3.8,6.32,84.64,-0.028,0.2486,20,84.68,-2.286,0,0,0,0,0,0,0,0,140.12,0,0,0,0,0,0,0,0,0,0,0,0,0,2,2,107.14,FLYING
108.29,APPROACH,FLY_TO_FIX,83.89,84,0.11,1371.59,-4.07,3.83,6.32,84.64,-0.028,0.2488,20,84.68,-2.261,0,0,0,0,0,0,0,0,140.12,0,0,0,0,0,0,0,0,0,0,0,0,0,2,2,108.36,FLYING
109.52,APPROACH,FLY_TO_FIX,83.89,84,0.11,1366.63,-4.03,3.86,6.32,84.64,-0.028,0.2491,20,84.68,-2.236,0,0,0,0,0,0,0,0,140.12,0,0,0,0,0,0,0,0,0,0,0,0,0,2,2,109.59,FLYING
110.74,APPROACH,FLY_TO_FIX,83.88,84,0.12,1361.74,-3.98,3.89,6.32,84.64,-0.027,0.2494,20,84.68,-2.211,0,0,0,0,0,0,0,0,140.12,0,0,0,0,0,0,0,0,0,0,0,0,0,2,2,110.81,FLYING
111.97,APPROACH,FLY_TO_FIX,83.87,84,0.13,1356.89,-3.94,3.92,6.32,84.64,-0.027,0.2497,20,84.68,-2.187,0,0,0,0,0,0,0,0,140.12,0,0,0,0,0,0,0,0,0,0,0,0,0,2,2,112.04,FLYING
113.19,APPROACH,FLY_TO_FIX,83.87,84,0.13,1352.11,-3.89,3.94,6.32,84.64,-0.026,0.25,20,84.68,-2.163,0,0,0,0,0,0,0,0,140.12,0,0,0,0,0,0,0,0,0,0,0,0,0,2,2,113.26,FLYING
114.42,APPROACH,FLY_TO_FIX,83.86,84,0.14,1347.37,-3.85,3.97,6.32,84.64,-0.025,0.2504,20,84.68,-2.14,0,0,0,0,0,0,0,0,140.12,0,0,0,0,0,0,0,0,0,0,0,0,0,2,2,114.49,FLYING
115.64,APPROACH,FLY_TO_FIX,83.85,84,0.15,1342.69,-3.8,4,6.32,84.64,-0.026,0.2509,20,84.69,-2.116,0,0,0,0,0,0,0,0,140.12,0,0,0,0,0,0,0,0,0,0,0,0,0,2,2,115.71,FLYING
116.87,APPROACH,FLY_TO_FIX,83.84,84,0.16,1338.07,-3.76,4.02,6.33,84.64,-0.027,0.2514,20,84.69,-2.093,0,0,0,0,0,0,0,0,140.12,0,0,0,0,0,0,0,0,0,0,0,0,0,2,2,116.94,FLYING
118.09,APPROACH,FLY_TO_FIX,83.84,84,0.16,1333.49,-3.72,4.05,6.33,84.64,-0.026,0.252,20,84.69,-2.07,0,0,0,0,0,0,0,0,140.12,0,0,0,0,0,0,0,0,0,0,0,0,0,2,2,118.16,FLYING
119.32,APPROACH,FLY_TO_FIX,83.83,84,0.17,1328.97,-3.67,4.08,6.33,84.64,-0.025,0.2525,20,84.69,-2.047,0,0,0,0,0,0,0,0,140.12,0,0,0,0,0,0,0,0,0,0,0,0,0,2,2,119.39,FLYING
120.54,APPROACH,FLY_TO_FIX,83.82,84,0.18,1324.5,-3.63,4.1,6.33,84.64,-0.026,0.2531,20,84.69,-2.025,0,0,0,0,0,0,0,0,140.12,0,0,0,0,0,0,0,0,0,0,0,0,0,2,2,120.61,FLYING
121.77,APPROACH,FLY_TO_FIX,83.81,84,0.19,1320.08,-3.59,4.13,6.33,84.64,-0.026,0.2538,20,84.69,-2.003,0,0,0,0,0,0,0,0,140.12,0,0,0,0,0,0,0,0,0,0,0,0,0,2,2,121.84,FLYING
122.99,APPROACH,FLY_TO_FIX,83.8,84,0.2,1315.72,-3.55,4.16,6.33,84.64,-0.025,0.2544,20,84.69,-1.981,0,0,0,0,0,0,0,0,140.12,0,0,0,0,0,0,0,0,0,0,0,0,0,2,2,123.06,FLYING
124.22,APPROACH,FLY_TO_FIX,83.79,84,0.21,1311.4,-3.51,4.18,6.34,84.64,-0.026,0.255,20,84.69,-1.959,0,0,0,0,0,0,0,0,140.12,0,0,0,0,0,0,0,0,0,0,0,0,0,2,2,124.29,FLYING
125.44,APPROACH,FLY_TO_FIX,83.78,84,0.22,1307.13,-3.47,4.21,6.34,84.64,-0.026,0.2555,20,84.7,-1.938,0,0,0,0,0,0,0,0,140.12,0,0,0,0,0,0,0,0,0,0,0,0,0,2,2,125.51,FLYING
126.67,APPROACH,FLY_TO_FIX,83.77,84,0.23,1302.91,-3.43,4.23,6.34,84.64,-0.027,0.2561,20,84.7,-1.917,0,0,0,0,0,0,0,0,140.12,0,0,0,0,0,0,0,0,0,0,0,0,0,2,2,126.74,FLYING
127.89,APPROACH,FLY_TO_FIX,83.76,84,0.24,1298.74,-3.39,4.26,6.34,84.64,-0.028,0.2566,20,84.7,-1.896,0,0,0,0,0,0,0,0,140.12,0,0,0,0,0,0,0,0,0,0,0,0,0,2,2,127.96,FLYING
129.12,APPROACH,FLY_TO_FIX,83.75,84,0.25,1294.61,-3.35,4.28,6.34,84.64,-0.03,0.2571,20,84.7,-1.875,0,0,0,0,0,0,0,0,140.12,0,0,0,0,0,0,0,0,0,0,0,0,0,2,2,129.19,FLYING
130.34,APPROACH,FLY_TO_FIX,83.74,84,0.26,1290.54,-3.31,4.31,6.34,84.64,-0.029,0.2576,20,84.7,-1.855,0,0,0,0,0,0,0,0,140.12,0,0,0,0,0,0,0,0,0,0,0,0,0,2,2,130.41,FLYING
131.57,APPROACH,FLY_TO_FIX,83.73,84,0.27,1286.51,-3.27,4.33,6.34,84.64,-0.03,0.2581,20,84.71,-1.835,0,0,0,0,0,0,0,0,140.12,0,0,0,0,0,0,0,0,0,0,0,0,0,2,2,131.64,FLYING
132.79,APPROACH,FLY_TO_FIX,83.72,84,0.28,1282.53,-3.24,4.35,6.35,84.64,-0.032,0.2585,20,84.71,-1.815,0,0,0,0,0,0,0,0,140.12,0,0,0,0,0,0,0,0,0,0,0,0,0,2,2,132.86,FLYING
134.02,APPROACH,FLY_TO_FIX,83.71,84,0.29,1278.59,-3.2,4.38,6.35,84.64,-0.032,0.2589,20,84.71,-1.795,0,0,0,0,0,0,0,0,140.12,0,0,0,0,0,0,0,0,0,0,0,0,0,2,2,134.09,FLYING
135.24,APPROACH,FLY_TO_FIX,83.7,84,0.3,1274.7,-3.16,4.4,6.35,84.64,-0.033,0.2593,20,84.72,-1.776,0,0,0,0,0,0,0,0,140.12,0,0,0,0,0,0,0,0,0,0,0,0,0,2,2,135.31,FLYING
136.47,APPROACH,FLY_TO_FIX,83.7,84,0.3,1270.85,-3.13,4.43,6.35,84.64,-0.034,0.2597,20,84.72,-1.756,0,0,0,0,0,0,0,0,140.12,0,0,0,0,0,0,0,0,0,0,0,0,0,2,2,136.54,FLYING
137.69,APPROACH,FLY_TO_FIX,83.69,84,0.31,1267.05,-3.09,4.45,6.35,84.65,-0.035,0.2601,20,84.72,-1.737,0,0,0,0,0,0,0,0,140.12,0,0,0,0,0,0,0,0,0,0,0,0,0,2,2,137.76,FLYING
138.92,APPROACH,FLY_TO_FIX,83.68,84,0.32,1263.29,-3.05,4.47,6.35,84.65,-0.036,0.2605,20,84.73,-1.719,0,0,0,0,0,0,0,0,140.12,0,0,0,0,0,0,0,0,0,0,0,0,0,2,2,138.99,FLYING
140.14,APPROACH,FLY_TO_FIX,83.67,84,0.33,1259.58,-3.02,4.49,6.35,84.65,-0.036,0.2609,20,84.73,-1.7,0,0,0,0,0,0,0,0,140.12,0,0,0,0,0,0,0,0,0,0,0,0,0,2,2,140.21,FLYING
141.37,APPROACH,FLY_TO_FIX,83.66,84,0.34,1255.91,-2.98,4.52,6.36,84.65,-0.037,0.2613,20,84.74,-1.682,0,0,0,0,0,0,0,0,140.12,0,0,0,0,0,0,0,0,0,0,0,0,0,2,2,141.44,FLYING
142.59,APPROACH,FLY_TO_FIX,83.65,84,0.35,1252.28,-2.95,4.54,6.36,84.65,-0.038,0.2617,20,84.74,-1.663,0,0,0,0,0,0,0,0,140.12,0,0,0,0,0,0,0,0,0,0,0,0,0,2,2,142.66,FLYING
143.82,APPROACH,FLY_TO_FIX,83.64,84,0.36,1248.7,-2.91,4.56,6.36,84.65,-0.04,0.2621,20,84.75,-1.646,0,0,0,0,0,0,0,0,140.12,0,0,0,0,0,0,0,0,0,0,0,0,0,2,2,143.89,FLYING
145.04,APPROACH,ILS_TRACK,83.64,84,0.36,1245.05,-2.88,4.58,6.36,84.66,-0.042,0.2625,20,84.76,-1.628,0,0,0,0,0,0,0,0,140.12,0,0,0,0,0,0,0,0,0,0,0,0,0,2,2,145.11,FLYING
146.48,APPROACH,ILS_TRACK,83.63,84,0.37,1241.06,-2.84,4.6,6.35,84.66,-0.105,0.2632,20,114,-7,-173.43,251.36,16.339,93.65,-477.581,0,0,0,140.12,0,0,0,0,0,0,0,0,0,0,0,0,0,2,2,146.55,FLYING
147.81,APPROACH,ILS_TRACK,83.45,84,0.55,1237.15,-3.05,3.84,5.81,86.03,-9.507,0.2878,20,100.87,-7,-182.56,253.91,16.216,11.871,-80.265,0,0,0,140.12,0,0,0,0,0,0,0,0,0,0,0,0,0,2,2,147.88,FLYING
149.14,APPROACH,ILS_TRACK,83.41,84,0.59,1232.24,-4.16,2.91,5.8,88.87,-17.323,0.2907,20,100.17,-7,-189.72,255.67,16.094,11.169,-79.501,0,0,0,140.12,0,0,0,0,0,0,0,0,0,0,0,0,0,2,2,149.21,FLYING
150.47,APPROACH,ILS_TRACK,83.63,84,0.37,1225.72,-5.57,2.52,6.2,90.89,-16.227,0.2561,20,97.99,-7,-192.33,255.85,15.971,8.994,-77.051,0,0,0,140.12,0,0,0,0,0,0,0,0,0,0,0,0,0,2,2,150.54,FLYING
151.83,APPROACH,ILS_TRACK,83.92,84,0.08,1217.23,-6.63,2.05,6.26,92.12,-11.242,0.2128,20,95.65,-7,-190.39,254.22,15.845,6.65,-73.661,0,0,0,140.12,0,0,0,0,0,0,0,0,0,0,0,0,0,2,2,151.9,FLYING
153.2,APPROACH,ILS_TRACK,84.26,84,-0.26,1207.49,-7.18,1.26,5.77,92.53,-5.918,0.167,19.879,93.7,-7,-184.99,251.27,15.719,4.696,-70.664,0,0,0,140.12,0,0,0,0,0,0,0,0,0,0,0,0,0,2,2,153.27,FLYING
154.56,APPROACH,ILS_TRACK,84.65,84,-0.65,1196.92,-8.01,0.68,5.59,92.73,-2.531,0.1164,19.561,92.45,-7,-177.67,247.46,15.592,3.446,-68.146,0,0,0,140.12,0,0,0,0,0,0,0,0,0,0,0,0,0,2,2,154.63,FLYING
155.93,APPROACH,ILS_TRACK,84.94,84,-0.94,1185.53,-8.57,0.42,5.66,92.82,-0.803,0.0836,19.096,91.68,-7,-169.48,242.84,15.465,2.684,-65.46,0,0,0,140.12,0,0,0,0,0,0,0,0,0,0,0,0,0,2,2,156,FLYING
157.29,APPROACH,ILS_TRACK,85.03,84,-1.03,1173.48,-9.01,0.24,5.74,92.7,0.553,0.0829,18.583,91.18,-7,-160.96,237.55,15.338,2.18,-62.793,0,0,0,140.12,0,0,0,0,0,0,0,0,0,0,0,0,0,2,2,157.36,FLYING
158.66,APPROACH,ILS_TRACK,84.92,84,-0.92,1160.92,-9.35,0.12,5.85,92.48,1.393,0.1096,18.118,90.91,-7,-152.57,231.71,15.211,1.906,-60.174,0,0,0,140.12,0,0,0,0,0,0,0,0,0,0,0,0,0,2,2,158.73,FLYING
160.02,APPROACH,ILS_TRACK,84.71,84,-0.71,1147.94,-9.62,0.04,5.96,92.22,1.763,0.1491,17.758,90.8,-7,-144.59,225.43,15.084,1.797,-57.578,0,0,0,140.12,0,0,0,0,0,0,0,0,0,0,0,0,0,2,2,160.09,FLYING
161.39,APPROACH,ILS_TRACK,84.48,84,-0.48,1134.63,-9.85,-0.02,6.05,91.97,1.772,0.1858,17.512,90.78,-7,-137.18,218.78,14.958,1.779,-54.992,0,0,0,140.12,0,0,0,0,0,0,0,0,0,0,0,0,0,2,2,161.46,FLYING
162.75,APPROACH,ILS_TRACK,84.3,84,-0.3,1121.05,-10.03,-0.08,6.12,91.75,1.587,0.2122,17.36,90.8,-7,-130.35,211.82,14.832,1.801,-52.417,0,0,0,140.12,0,0,0,0,0,0,0,0,0,0,0,0,0,2,2,162.82,FLYING
164.12,APPROACH,ILS_TRACK,84.17,84,-0.17,1107.23,-10.19,-0.14,6.17,91.56,1.329,0.2268,17.273,90.81,-7,-124.05,204.61,14.707,1.813,-49.851,0,0,0,140.12,0,0,0,0,0,0,0,0,0,0,0,0,0,2,2,164.19,FLYING
165.48,APPROACH,ILS_TRACK,84.11,84,-0.11,1093.22,-10.32,-0.21,6.2,91.41,1.08,0.2297,17.217,90.8,-7,-118.2,197.19,14.582,1.804,-47.283,0,0,0,140.12,0,0,0,0,0,0,0,0,0,0,0,0,0,2,2,165.55,FLYING
166.85,APPROACH,ILS_TRACK,84.12,84,-0.12,1079.06,-10.43,-0.28,6.2,91.29,0.877,0.222,17.156,90.77,-7,-112.73,189.59,14.457,1.77,-44.714,0,0,0,140.12,0,0,0,0,0,0,0,0,0,0,0,0,0,2,2,166.91,FLYING
167.9,APPROACH,ILS_TRACK,84.18,84,-0.18,1068.05,-10.52,-0.33,6.2,91.21,0.742,0.2086,17.069,91.2,-7,-108.45,183.23,14.354,2.2,-44.785,0,0,0,140.12,0,0,0,0,0,0,0,0,0,0,0,0,0,2,2,167.94,FLYING
168.72,APPROACH,ILS_TRACK,84.24,84,-0.24,1059.35,-10.55,-0.38,6.18,91.19,0.435,0.1952,16.951,91.67,-7,-105.36,178.4,14.277,2.667,-45.798,0,0,0,140.12,0,0,0,0,0,0,0,0,0,0,0,0,0,2,2,168.76,FLYING
169.52,APPROACH,ILS_TRACK,84.32,84,-0.32,1050.87,-10.62,-0.44,6.16,91.21,0.036,0.181,16.794,91.66,-7,-102.47,173.76,14.204,2.657,-44.713,0,0,0,140.12,0,0,0,0,0,0,0,0,0,0,0,0,0,2,2,169.56,FLYING
170.32,APPROACH,ILS_TRACK,84.41,84,-0.41,1042.34,-10.67,-0.48,6.14,91.23,-0.193,0.1661,16.592,91.55,-7,-99.6,169.09,14.13,2.547,-43.249,0,0,0,140.12,0,0,0,0,0,0,0,0,0,0,0,0,0,2,2,170.36,FLYING
171.12,APPROACH,ILS_TRACK,84.5,84,-0.5,1033.78,-10.71,-0.51,6.14,91.25,-0.251,0.1513,16.342,91.43,-7,-96.72,164.38,14.057,2.429,-41.781,0,0,0,140.12,0,0,0,0,0,0,0,0,0,0,0,0,0,2,2,171.16,FLYING
171.92,APPROACH,ILS_TRACK,84.6,84,-0.6,1025.2,-10.74,-0.53,6.12,91.27,-0.221,0.1375,16.045,91.3,-7,-93.81,159.65,13.983,2.3,-40.316,0,0,0,140.12,0,0,0,0,0,0,0,0,0,0,0,0,0,2,2,171.96,FLYING
172.72,APPROACH,ILS_TRACK,84.68,84,-0.68,1016.59,-10.77,-0.56,6.11,91.27,-0.15,0.1263,15.707,91.17,-7,-90.88,154.89,13.91,2.169,-38.856,0,0,0,140.12,0,0,0,0,0,0,0,0,0,0,0,0,0,2,2,172.76,FLYING
173.52,APPROACH,ILS_TRACK,84.74,84,-0.74,1007.96,-10.79,-0.58,6.1,91.27,-0.065,0.1184,15.338,91.05,-7,-87.94,150.12,13.836,2.047,-37.398,0,0,0,140.12,0,0,0,0,0,0,0,0,0,0,0,0,0,2,2,173.56,FLYING
174.32,APPROACH,ILS_TRACK,84.77,84,-0.77,999.32,-10.81,-0.6,6.09,91.26,0.032,0.1141,14.952,90.93,-7,-84.99,145.33,13.763,1.925,-35.935,0,0,0,140.12,0,0,0,0,0,0,0,0,0,0,0,0,0,2,2,174.36,FLYING
175.12,APPROACH,ILS_TRACK,84.78,84,-0.78,990.66,-10.83,-0.62,6.09,91.23,0.147,0.1132,14.56,90.81,-7,-82.05,140.52,13.69,1.813,-34.467,0,0,0,140.12,0,0,0,0,0,0,0,0,0,0,0,0,0,2,2,175.16,FLYING
175.92,APPROACH,ILS_TRACK,84.77,84,-0.77,981.99,-10.85,-0.63,6.1,91.2,0.275,0.115,14.175,90.7,-7,-79.13,135.7,13.616,1.704,-32.99,0,0,0,140.12,0,0,0,0,0,0,0,0,0,0,0,0,0,2,2,175.96,FLYING
176.72,APPROACH,ILS_TRACK,84.74,84,-0.74,973.3,-10.87,-0.63,6.12,91.15,0.408,0.1186,13.806,90.61,-7,-76.24,130.85,13.543,1.606,-31.509,0,0,0,140.12,0,0,0,0,0,0,0,0,0,0,0,0,0,2,2,176.76,FLYING
177.52,APPROACH,ILS_TRACK,84.69,84,-0.69,964.6,-10.88,-0.63,6.13,91.1,0.519,0.1233,13.459,90.52,-7,-73.4,126,13.47,1.516,-30.024,0,0,0,140.12,0,0,0,0,0,0,0,0,0,0,0,0,0,2,2,177.56,FLYING
178.32,APPROACH,ILS_TRACK,84.64,84,-0.64,955.88,-10.9,-0.63,6.15,91.04,0.604,0.1282,13.139,90.44,-7,-70.63,121.12,13.396,1.437,-28.537,0,0,0,140.12,0,0,0,0,0,0,0,0,0,0,0,0,0,2,2,178.36,FLYING
179.12,APPROACH,ILS_TRACK,84.58,84,-0.58,947.16,-10.91,-0.62,6.17,90.98,0.666,0.1325,12.847,90.36,-7,-67.92,116.23,13.323,1.361,-27.05,0,0,0,140.12,0,0,0,0,0,0,0,0,0,0,0,0,0,2,2,179.16,FLYING
179.92,APPROACH,ILS_TRACK,84.53,84,-0.53,938.44,-10.91,-0.62,6.19,90.91,0.709,0.1359,12.582,90.3,-7,-65.29,111.33,13.25,1.297,-25.562,0,0,0,140.12,0,0,0,0,0,0,0,0,0,0,0,0,0,2,2,179.96,FLYING
180.72,APPROACH,ILS_TRACK,84.48,84,-0.48,929.7,-10.92,-0.62,6.2,90.85,0.734,0.1385,12.343,90.24,-7,-62.74,106.43,13.177,1.236,-24.074,0,0,0,140.12,0,0,0,0,0,0,0,0,0,0,0,0,0,2,2,180.76,FLYING
181.63,APPROACH,ILS_TRACK,84.43,84,-0.43,919.75,-10.92,-0.61,6.22,90.77,0.752,0.1405,12.128,90.07,-7,-60.07,101.09,13.098,1.069,-21.789,0,0,0,140.12,0,0,0,0,0,0,0,0,0,0,0,0,0,2,2,181.69,FLYING
182.8,APPROACH,ILS_TRACK,84.37,84,-0.37,906.97,-10.93,-0.6,6.24,90.66,0.831,0.1441,11.944,89.59,-7,-56.72,94.07,12.994,0.594,-16.986,0,0,0,140.12,0,0,0,0,0,0,0,0,0,0,0,0,0,2,2,182.87,FLYING
184.15,APPROACH,ILS_TRACK,84.3,84,-0.3,892.23,-10.93,-0.59,6.26,90.48,1.105,0.1478,11.791,89.29,-7,-53.06,85.86,12.873,0.293,-12.619,0,0,0,140.12,0,0,0,0,0,0,0,0,0,0,0,0,0,2,2,184.22,FLYING
185.52,APPROACH,ILS_TRACK,84.25,84,-0.25,877.31,-10.93,-0.59,6.28,90.28,1.284,0.15,11.665,89.28,-7,-49.66,77.43,12.75,0.283,-9.744,0,0,0,140.12,0,0,0,0,0,0,0,0,0,0,0,0,0,2,2,185.59,FLYING
186.88,APPROACH,ILS_TRACK,84.21,83.6,-0.61,862.4,-10.93,-0.59,6.29,90.1,1.207,0.1276,11.359,89.37,-7,-46.66,68.99,12.626,0.367,-7.2,0,0,0,140.12,0,0,0,0,0,0,0,0,0,0,0,0,0,2,2,186.95,FLYING
188.32,APPROACH,ILS_TRACK,84.18,83.2,-0.98,846.72,-10.93,-0.55,6.33,89.95,0.992,0.1027,10.87,89.4,-6.836,-43.94,60.12,12.496,0.397,-3.836,0,0,0,140.12,0,0,0,0,0,0,0,0,0,0,0,0,0,2,2,188.39,FLYING
189.68,APPROACH,ILS_TRACK,84.1,82.8,-1.3,831.86,-10.91,-0.42,6.42,89.84,0.773,0.0822,10.219,89.55,-5.048,-41.7,51.7,12.373,0.548,-2.048,0,0,0,140.12,0,0,0,0,0,0,0,0,0,0,0,0,0,2,2,189.75,FLYING
191.01,APPROACH,ILS_TRACK,83.82,82.4,-1.42,817.77,-10.48,0.26,6.86,89.77,0.51,0.0874,9.498,89.63,-3.496,-39.78,43.8,12.253,0.632,-0.496,0,0,0,140.12,0,0,0,0,0,0,0,0,0,0,0,0,0,2,2,191.08,FLYING
192.34,APPROACH,ILS_TRACK,83.3,82,-1.3,804.51,-9.72,1.11,7.28,89.72,0.299,0.1266,8.831,89.66,-2.523,-38.05,36.63,12.134,0.659,0.477,0,0,0,140.12,0,0,0,0,0,0,0,0,0,0,0,0,0,2,2,192.41,FLYING
193.74,APPROACH,ILS_TRACK,82.54,81.6,-0.94,791.75,-8.78,1.97,7.6,89.7,0.164,0.1957,8.339,89.62,-1.792,-36.38,30.21,12.009,0.616,1.208,0,0,0,140.12,0,0,0,0,0,0,0,0,0,0,0,0,0,2,2,193.81,FLYING
195.11,APPROACH,ILS_TRACK,81.68,81.2,-0.48,780.6,-7.78,2.69,7.79,89.67,0.112,0.273,8.078,89.62,-2.502,-34.83,25.18,11.889,0.619,0.498,0,0,0,140.12,0,0,0,0,0,0,0,0,0,0,0,0,0,2,2,195.18,FLYING
196.47,APPROACH,ILS_TRACK,80.82,80.8,-0.02,770.48,-7.13,3.08,7.79,89.66,0.079,0.3409,8.046,89.59,-2.935,-33.35,21.17,11.77,0.595,0.065,0,0,0,140.12,0,0,0,0,0,0,0,0,0,0,0,0,0,2,2,196.54,FLYING
197.84,APPROACH,ILS_TRACK,80.06,80.4,0.34,761.1,-6.7,3.42,7.87,89.64,0.074,0.3889,8.2,89.56,-3.088,-31.92,17.87,11.652,0.564,-0.088,0,0,0,140.12,0,0,0,0,0,0,0,0,0,0,0,0,0,2,2,197.91,FLYING
199.2,APPROACH,ILS_TRACK,79.41,80,0.59,752.26,-6.36,3.76,8.02,89.62,0.074,0.4153,8.481,89.53,-3.052,-30.55,15.08,11.535,0.533,-0.052,0,0,0,140.12,0,0,0,0,0,0,0,0,0,0,0,0,0,2,2,199.27,FLYING
200.57,APPROACH,ILS_TRACK,78.89,80,1.11,743.86,-6.05,4.05,8.13,89.61,0.079,0.4441,9.026,89.5,-2.987,-29.21,12.69,11.419,0.501,0.013,0,0,0,140.12,0,0,0,0,0,0,0,0,0,0,0,0,0,2,2,200.64,FLYING
201.92,APPROACH,ILS_TRACK,78.5,80,1.5,735.9,-5.77,4.28,8.19,89.59,0.086,0.4557,9.768,89.47,-2.96,-27.92,10.67,11.304,0.473,0.04,0,0,0,140.12,0,0,0,0,0,0,0,0,0,0,0,0,0,2,2,201.98,FLYING
202.88,APPROACH,ILS_TRACK,78.3,80,1.7,730.45,-5.58,4.37,8.18,89.57,0.087,0.4439,10.612,89.6,-3.693,-26.97,9.35,11.217,0.604,-0.693,0,0,0,140.12,0,0,0,0,0,0,0,0,0,0,0,0,0,2,2,202.93,FLYING
203.71,APPROACH,ILS_TRACK,78.23,80,1.77,725.8,-5.56,4.22,8,89.57,0.045,0.42,11.497,89.67,-3.881,-26.22,8.34,11.146,0.671,-0.881,0,0,0,140.12,0,0,0,0,0,0,0,0,0,0,0,0,0,2,2,203.75,FLYING
204.51,APPROACH,ILS_TRACK,78.23,80,1.77,721.35,-5.56,4.21,7.99,89.57,0.012,0.3929,12.385,89.67,-3.733,-25.51,7.4,11.079,0.667,-0.733,0,0,0,140.12,0,0,0,0,0,0,0,0,0,0,0,0,0,2,2,204.55,FLYING
205.31,APPROACH,ILS_TRACK,78.26,80,1.74,716.91,-5.55,4.21,7.98,89.57,-0.006,0.3667,13.254,89.64,-3.472,-24.81,6.48,11.012,0.641,-0.472,0,0,0,140.12,0,0,0,0,0,0,0,0,0,0,0,0,0,2,2,205.35,FLYING
206.11,APPROACH,ILS_TRACK,78.33,80,1.67,712.49,-5.52,4.23,7.98,89.57,-0.023,0.3425,14.089,89.61,-3.233,-24.11,5.58,10.944,0.614,-0.233,0,0,0,140.12,0,0,0,0,0,0,0,0,0,0,0,0,0,2,2,206.15,FLYING
206.91,APPROACH,ILS_TRACK,78.42,80,1.58,708.12,-5.46,4.3,8.01,89.57,-0.03,0.3215,14.883,89.59,-3.04,-23.41,4.72,10.877,0.589,-0.04,0,0,0,140.12,0,0,0,0,0,0,0,0,0,0,0,0,0,2,2,206.95,FLYING
207.71,APPROACH,ILS_TRACK,78.51,80,1.49,703.8,-5.37,4.37,8.01,89.57,-0.031,0.3041,15.631,89.56,-2.898,-22.71,3.92,10.81,0.559,0.102,0,0,0,140.12,0,0,0,0,0,0,0,0,0,0,0,0,0,2,2,207.75,FLYING
208.51,APPROACH,ILS_TRACK,78.6,80,1.4,699.56,-5.27,4.43,8,89.57,-0.027,0.2899,16.332,89.53,-2.805,-22.02,3.2,10.742,0.531,0.195,0,0,0,140.12,0,0,0,0,0,0,0,0,0,0,0,0,0,2,2,208.55,FLYING
209.33,APPROACH,ILS_TRACK,78.7,80,1.3,695.3,-5.16,4.48,7.97,89.57,-0.01,0.2781,16.983,89.49,-2.722,-21.3,2.55,10.673,0.494,0.278,0,0,0,140.12,0,0,0,0,0,0,0,0,0,0,0,0,0,2,2,209.37,FLYING
210.13,APPROACH,ILS_TRACK,78.8,80,1.2,691.22,-5.05,4.51,7.93,89.56,0.014,0.2694,17.587,89.48,-2.727,-20.6,2,10.606,0.476,0.273,0,0,0,140.12,0,0,0,0,0,0,0,0,0,0,0,0,0,2,2,210.17,FLYING
210.95,APPROACH,ILS_TRACK,78.89,80,1.11,687.13,-4.95,4.54,7.89,89.55,0.036,0.2622,18.144,89.44,-2.701,-19.89,1.53,10.537,0.441,0.299,0,0,0,140.12,0,0,0,0,0,0,0,0,0,0,0,0,0,2,2,210.99,FLYING
211.75,APPROACH,ILS_TRACK,78.98,80,1.02,683.22,-4.85,4.56,7.84,89.54,0.059,0.2572,18.656,89.43,-2.736,-19.21,1.15,10.469,0.425,0.264,0,0,0,140.12,0,0,0,0,0,0,0,0,0,0,0,0,0,2,2,211.79,FLYING
212.57,APPROACH,ILS_TRACK,79.07,80,0.93,679.27,-4.78,4.56,7.79,89.53,0.072,0.2533,19.124,89.39,-2.737,-18.51,0.83,10.399,0.393,0.263,0,0,0,140.12,0,0,0,0,0,0,0,0,0,0,0,0,0,2,2,212.61,FLYING
213.38,APPROACH,ILS_TRACK,79.15,80,0.85,675.47,-4.71,4.56,7.74,89.52,0.082,0.2513,19.553,89.38,-2.774,-17.85,0.58,10.332,0.381,0.226,0,0,0,140.12,0,0,0,0,0,0,0,0,0,0,0,0,0,2,2,213.42,FLYING
214.52,APPROACH,ILS_TRACK,79.24,80,0.76,670.11,-4.65,4.6,7.73,89.5,0.097,0.2473,19.936,89.25,-2.683,-16.98,0.32,10.242,0.245,0.317,0,0,0,140.12,0,0,0,0,0,0,0,0,0,0,0,0,0,2,2,214.59,FLYING
215.61,APPROACH,ILS_TRACK,79.31,80,0.69,665.1,-4.55,4.61,7.68,89.47,0.158,0.2432,20,89.18,-2.752,-16.06,0.14,10.143,0.184,0.248,0,0,0,140.12,0,0,0,0,0,0,0,0,0,0,0,0,0,2,2,215.66,FLYING
216.44,APPROACH,ILS_TRACK,79.35,80,0.65,661.34,-4.5,4.61,7.65,89.45,0.179,0.2437,20,89.3,-2.894,-15.42,0.06,10.072,0.295,0.106,0,0,0,140.12,0,0,0,0,0,0,0,0,0,0,0,0,0,2,2,216.48,FLYING
217.24,APPROACH,ILS_TRACK,79.38,80,0.62,657.74,-4.49,4.59,7.61,89.44,0.134,0.2451,20,89.3,-2.927,-14.83,0.01,10.004,0.301,0.073,0,0,0,140.12,0,0,0,0,0,0,0,0,0,0,0,0,0,2,2,217.28,FLYING
218.06,APPROACH,ILS_TRACK,79.4,80,0.6,654.06,-4.48,4.59,7.6,89.43,0.1,0.2466,20,89.28,-2.946,-14.25,-0.02,9.934,0.28,0.054,0,0,0,140.12,0,0,0,0,0,0,0,0,0,0,0,0,0,2,2,218.1,FLYING
218.86,APPROACH,ILS_TRACK,79.42,80,0.58,650.49,-4.46,4.59,7.6,89.42,0.081,0.2484,20,89.27,-2.963,-13.7,-0.03,9.866,0.272,0.037,0,0,0,140.12,0,0,0,0,0,0,0,0,0,0,0,0,0,2,2,218.9,FLYING
219.66,APPROACH,ILS_TRACK,79.44,80,0.56,646.92,-4.45,4.59,7.59,89.41,0.068,0.2501,20,89.26,-2.978,-13.16,-0.04,9.798,0.257,0.022,0,0,0,140.12,0,0,0,0,0,0,0,0,0,0,0,0,0,2,2,219.7,FLYING
220.48,APPROACH,ILS_TRACK,79.45,80,0.55,643.28,-4.44,4.59,7.58,89.4,0.063,0.2513,20,89.23,-2.996,-12.62,-0.04,9.728,0.235,0.004,0,0,0,140.12,0,0,0,0,0,0,0,0,0,0,0,0,0,2,2,220.52,FLYING
221.28,APPROACH,ILS_TRACK,79.47,80,0.53,639.73,-4.43,4.59,7.58,89.4,0.062,0.2521,20,89.23,-3.013,-12.11,-0.02,9.66,0.227,-0.013,0,0,0,140.12,0,0,0,0,0,0,0,0,0,0,0,0,0,2,2,221.32,FLYING
222.08,APPROACH,ILS_TRACK,79.48,80,0.52,636.19,-4.42,4.59,7.57,89.39,0.063,0.2525,20,89.21,-3.032,-11.6,0,9.593,0.211,-0.032,0,0,0,140.12,0,0,0,0,0,0,0,0,0,0,0,0,0,2,2,222.12,FLYING
222.88,APPROACH,ILS_TRACK,79.5,80,0.5,632.66,-4.41,4.59,7.56,89.38,0.064,0.2525,20,89.2,-3.051,-11.11,0.02,9.525,0.196,-0.051,0,0,0,140.12,0,0,0,0,0,0,0,0,0,0,0,0,0,2,2,222.92,FLYING
223.97,APPROACH,ILS_TRACK,79.53,80,0.47,627.84,-4.4,4.59,7.55,89.37,0.07,0.2511,20,89.12,-3.089,-10.5,0.07,9.439,0.117,-0.089,0,0,0,140.12,0,0,0,0,0,0,0,0,0,0,0,0,0,2,2,224.04,FLYING
225.34,APPROACH,ILS_TRACK,79.57,80,0.43,621.83,-4.4,4.56,7.52,89.34,0.109,0.2481,20,88.99,-3.15,-9.71,0.14,9.324,-0.01,-0.15,0,0,0,140.12,0,0,0,0,0,0,0,0,0,0,0,0,0,2,2,225.41,FLYING
226.7,APPROACH,ILS_TRACK,79.61,80,0.39,615.82,-4.41,4.54,7.51,89.3,0.191,0.2445,20,88.98,-3.165,-8.95,0.2,9.208,-0.019,-0.165,0,0,0,140.12,0,0,0,0,0,0,0,0,0,0,0,0,0,2,2,226.77,FLYING
228.1,APPROACH,ILS_TRACK,79.65,80,0.35,609.64,-4.42,4.53,7.5,89.26,0.21,0.2414,20,88.98,-3.165,-8.25,0.26,9.089,-0.021,-0.165,0,0,0,140.12,0,0,0,0,0,0,0,0,0,0,0,0,0,2,2,228.17,FLYING
229.47,APPROACH,ILS_TRACK,79.68,80,0.32,603.6,-4.43,4.52,7.5,89.23,0.194,0.2403,20,89,-3.158,-7.64,0.3,8.973,0,-0.158,0,0,0,140.12,0,0,0,0,0,0,0,0,0,0,0,0,0,2,2,229.54,FLYING
230.83,APPROACH,ILS_TRACK,79.69,80,0.31,597.56,-4.43,4.52,7.5,89.2,0.154,0.2414,20,89.02,-3.159,-7.1,0.34,8.857,0.016,-0.159,0,0,0,140.12,0,0,0,0,0,0,0,0,0,0,0,0,0,2,2,230.9,FLYING
232.2,APPROACH,ILS_TRACK,79.69,80,0.31,591.52,-4.43,4.52,7.5,89.18,0.116,0.2438,20,89.03,-3.166,-6.62,0.37,8.741,0.026,-0.166,0,0,0,140.12,0,0,0,0,0,0,0,0,0,0,0,0,0,2,2,232.27,FLYING
233.56,APPROACH,ILS_TRACK,79.69,80,0.31,585.48,-4.42,4.52,7.5,89.16,0.091,0.2463,20,89.04,-3.174,-6.2,0.4,8.625,0.035,-0.174,0,0,0,140.12,0,0,0,0,0,0,0,0,0,0,0,0,0,2,2,233.63,FLYING
234.93,APPROACH,ILS_TRACK,79.69,80,0.31,579.44,-4.42,4.52,7.5,89.15,0.072,0.2479,20,89.04,-3.184,-5.81,0.44,8.509,0.039,-0.184,0,0,0,140.12,0,0,0,0,0,0,0,0,0,0,0,0,0,2,2,235,FLYING
236.29,APPROACH,ILS_TRACK,79.7,80,0.3,573.4,-4.42,4.52,7.5,89.13,0.058,0.2486,20,89.04,-3.192,-5.46,0.47,8.393,0.043,-0.192,0,0,0,140.12,0,0,0,0,0,0,0,0,0,0,0,0,0,2,2,236.36,FLYING
237.66,APPROACH,ILS_TRACK,79.71,80,0.29,567.36,-4.42,4.51,7.49,89.12,0.048,0.2483,20,89.04,-3.199,-5.14,0.5,8.277,0.045,-0.199,0,0,0,140.12,0,0,0,0,0,0,0,0,0,0,0,0,0,2,2,237.73,FLYING
239.02,APPROACH,ILS_TRACK,79.73,80,0.27,561.32,-4.42,4.5,7.49,89.11,0.041,0.2472,20,89.05,-3.205,-4.84,0.53,8.161,0.046,-0.205,0,0,0,140.12,0,0,0,0,0,0,0,0,0,0,0,0,0,2,2,239.09,FLYING
240.39,APPROACH,ILS_TRACK,79.75,80,0.25,555.28,-4.43,4.5,7.48,89.1,0.033,0.2454,20,89.05,-3.209,-4.57,0.55,8.046,0.047,-0.209,0,0,0,140.12,0,0,0,0,0,0,0,0,0,0,0,0,0,2,2,240.46,FLYING
241.79,APPROACH,ILS_TRACK,79.77,80,0.23,549.08,-4.43,4.5,7.49,89.09,0.026,0.243,20,89.05,-2.917,-4.32,0.42,7.93,0.048,0.083,0,0,0,140.12,0,0,0,0,0,0,0,0,0,0,0,0,0,3,3,241.86,FLYING
243.22,APPROACH,ILS_TRACK,79.79,80,0.21,542.76,-4.38,4.46,7.44,89.09,0.015,0.2418,20,89.04,-3.503,-4.07,0.62,7.805,0.038,-0.503,0,0,0,140.12,0,0,0,0,0,0,0,0,0,0,0,0,0,3,3,243.28,FLYING
244.18,APPROACH,ILS_TRACK,79.82,80,0.18,538.48,-4.47,4.38,7.39,89.08,0.017,0.2396,20,89.07,-3.188,-3.91,0.62,7.716,0.073,-0.188,0,0,0,140.12,0,0,0,0,0,0,0,0,0,0,0,0,0,3,3,244.22,FLYING
244.98,APPROACH,ILS_TRACK,79.83,80,0.17,534.91,-4.47,4.45,7.46,89.08,0.01,0.239,20,89.09,-3.172,-3.79,0.61,7.648,0.092,-0.172,0,0,0,140.12,0,0,0,0,0,0,0,0,0,0,0,0,0,3,3,245.02,FLYING
245.78,APPROACH,ILS_TRACK,79.84,80,0.16,531.34,-4.46,4.45,7.46,89.07,0.004,0.2395,20,89.09,-3.154,-3.67,0.6,7.581,0.089,-0.154,0,0,0,140.12,0,0,0,0,0,0,0,0,0,0,0,0,0,3,3,245.82,FLYING
246.58,APPROACH,ILS_TRACK,79.85,80,0.15,527.78,-4.46,4.45,7.46,89.07,-0.001,0.2402,20,89.09,-3.156,-3.56,0.59,7.513,0.086,-0.156,0,0,0,140.12,0,0,0,0,0,0,0,0,0,0,0,0,0,3,3,246.62,FLYING
247.4,APPROACH,ILS_TRACK,79.85,80,0.15,524.12,-4.45,4.45,7.46,89.07,-0.004,0.2411,20,89.08,-3.157,-3.45,0.58,7.443,0.083,-0.157,0,0,0,140.12,0,0,0,0,0,0,0,0,0,0,0,0,0,3,3,247.44,FLYING
248.22,APPROACH,ILS_TRACK,79.86,80,0.14,520.47,-4.45,4.45,7.45,89.07,-0.005,0.2419,20,89.08,-3.16,-3.34,0.57,7.374,0.08,-0.16,0,0,0,140.12,0,0,0,0,0,0,0,0,0,0,0,0,0,3,3,248.26,FLYING
249.04,APPROACH,ILS_TRACK,79.86,80,0.14,516.83,-4.44,4.45,7.45,89.07,-0.008,0.2425,20,89.08,-3.164,-3.24,0.57,7.304,0.078,-0.164,0,0,0,140.12,0,0,0,0,0,0,0,0,0,0,0,0,0,3,3,249.08,FLYING
249.86,APPROACH,ILS_TRACK,79.86,80,0.14,513.19,-4.44,4.45,7.45,89.06,-0.009,0.2428,20,89.08,-3.168,-3.14,0.56,7.235,0.076,-0.168,0,0,0,140.12,0,0,0,0,0,0,0,0,0,0,0,0,0,3,3,249.9,FLYING
250.66,APPROACH,ILS_TRACK,79.87,80,0.13,509.63,-4.44,4.45,7.45,89.06,-0.011,0.2429,20,89.07,-3.172,-3.05,0.57,7.167,0.074,-0.172,0,0,0,140.12,0,0,0,0,0,0,0,0,0,0,0,0,0,3,3,250.7,FLYING
251.48,APPROACH,ILS_TRACK,79.87,80,0.13,506,-4.43,4.45,7.45,89.06,-0.012,0.2428,20,89.07,-3.176,-2.95,0.57,7.097,0.07,-0.176,0,0,0,140.12,0,0,0,0,0,0,0,0,0,0,0,0,0,3,3,251.52,FLYING
252.3,APPROACH,ILS_TRACK,79.88,80,0.12,502.36,-4.43,4.45,7.44,89.06,-0.012,0.2425,20,89.07,-3.179,-2.86,0.57,7.028,0.068,-0.179,0,0,0,140.12,0,0,0,0,0,0,0,0,0,0,0,0,0,3,3,252.34,FLYING
253.1,APPROACH,ILS_TRACK,79.89,80,0.11,498.82,-4.43,4.45,7.44,89.06,-0.013,0.2421,20,89.07,-3.183,-2.77,0.58,6.96,0.068,-0.183,0,0,0,140.12,0,0,0,0,0,0,0,0,0,0,0,0,0,3,3,253.14,FLYING
253.9,APPROACH,ILS_TRACK,79.9,80,0.1,495.27,-4.43,4.44,7.44,89.05,-0.014,0.2416,20,89.06,-3.186,-2.69,0.59,6.892,0.065,-0.186,0,0,0,140.12,0,0,0,0,0,0,0,0,0,0,0,0,0,3,3,253.94,FLYING
254.7,APPROACH,ILS_TRACK,79.9,80,0.1,491.73,-4.43,4.44,7.43,89.05,-0.016,0.241,20,89.06,-3.189,-2.61,0.59,6.825,0.063,-0.189,0,0,0,140.12,0,0,0,0,0,0,0,0,0,0,0,0,0,3,3,254.74,FLYING
255.5,APPROACH,ILS_TRACK,79.91,80,0.09,488.19,-4.43,4.44,7.43,89.05,-0.017,0.2403,20,89.06,-3.192,-2.52,0.6,6.757,0.06,-0.192,0,0,0,140.12,0,0,0,0,0,0,0,0,0,0,0,0,0,3,3,255.54,FLYING
256.3,APPROACH,ILS_TRACK,79.92,80,0.08,484.64,-4.43,4.43,7.43,89.05,-0.018,0.2397,20,89.06,-3.194,-2.45,0.61,6.689,0.059,-0.194,0,0,0,140.12,0,0,0,0,0,0,0,0,0,0,0,0,0,3,3,256.34,FLYING
257.1,APPROACH,ILS_TRACK,79.93,80,0.07,481.1,-4.43,4.43,7.42,89.05,-0.019,0.2392,20,89.06,-3.196,-2.37,0.61,6.622,0.057,-0.196,0,0,0,140.12,0,0,0,0,0,0,0,0,0,0,0,0,0,3,3,257.14,FLYING
257.92,APPROACH,ILS_TRACK,79.94,80,0.06,477.47,-4.43,4.43,7.42,89.05,-0.019,0.2389,20,89.05,-3.198,-2.29,0.62,6.552,0.053,-0.198,0,0,0,140.12,0,0,0,0,0,0,0,0,0,0,0,0,0,3,3,257.96,FLYING
258.74,APPROACH,ILS_TRACK,79.95,80,0.05,473.84,-4.43,4.43,7.42,89.05,-0.019,0.2387,20,89.05,-3.199,-2.22,0.63,6.483,0.051,-0.199,0,0,0,140.12,0,0,0,0,0,0,0,0,0,0,0,0,0,3,3,258.78,FLYING
259.56,APPROACH,ILS_TRACK,79.95,80,0.05,470.21,-4.43,4.42,7.42,89.05,-0.018,0.2386,20,89.05,-3.2,-2.14,0.63,6.413,0.049,-0.2,0,0,0,140.12,0,0,0,0,0,0,0,0,0,0,0,0,0,3,3,259.6,FLYING
260.38,APPROACH,ILS_TRACK,79.96,80,0.04,466.58,-4.43,4.42,7.42,89.04,-0.018,0.2386,20,89.05,-3.2,-2.07,0.64,6.344,0.047,-0.2,0,0,0,140.12,0,0,0,0,0,0,0,0,0,0,0,0,0,3,3,260.42,FLYING
261.2,APPROACH,ILS_TRACK,79.96,80,0.04,462.95,-4.43,4.42,7.42,89.04,-0.018,0.2386,20,89.04,-3.2,-2,0.64,6.275,0.045,-0.2,0,0,0,140.12,0,0,0,0,0,0,0,0,0,0,0,0,0,3,3,261.24,FLYING
262.02,APPROACH,ILS_TRACK,79.97,80,0.03,459.32,-4.43,4.42,7.41,89.04,-0.018,0.2387,20,89.04,-3.2,-1.93,0.65,6.205,0.043,-0.2,0,0,0,140.12,0,0,0,0,0,0,0,0,0,0,0,0,0,3,3,262.06,FLYING
262.84,APPROACH,ILS_TRACK,79.97,80,0.03,455.68,-4.43,4.42,7.41,89.04,-0.017,0.2388,20,89.04,-3.2,-1.87,0.65,6.136,0.042,-0.2,0,0,0,140.12,0,0,0,0,0,0,0,0,0,0,0,0,0,3,3,262.88,FLYING
263.66,APPROACH,ILS_TRACK,79.97,80,0.03,452.05,-4.43,4.42,7.41,89.04,-0.017,0.2387,20,89.04,-3.2,-1.8,0.65,6.066,0.04,-0.2,0,0,0,140.12,0,0,0,0,0,0,0,0,0,0,0,0,0,3,3,263.7,FLYING
264.48,APPROACH,ILS_TRACK,79.98,80,0.02,448.42,-4.43,4.41,7.41,89.04,-0.017,0.2387,20,89.04,-3.2,-1.74,0.66,5.997,0.039,-0.2,0,0,0,140.12,0,0,0,0,0,0,0,0,0,0,0,0,0,3,3,264.52,FLYING
265.3,APPROACH,ILS_TRACK,79.98,80,0.02,444.79,-4.43,4.41,7.41,89.04,-0.017,0.2385,20,89.04,-3.199,-1.68,0.66,5.928,0.037,-0.199,0,0,0,140.12,0,0,0,0,0,0,0,0,0,0,0,0,0,3,3,265.34,FLYING
266.12,APPROACH,ILS_TRACK,79.99,80,0.01,441.16,-4.43,4.41,7.41,89.03,-0.017,0.2383,20,89.04,-3.199,-1.63,0.66,5.859,0.036,-0.199,0,0,0,140.12,0,0,0,0,0,0,0,0,0,0,0,0,0,3,3,266.16,FLYING
266.94,APPROACH,ILS_TRACK,79.99,80,0.01,437.53,-4.43,4.41,7.41,89.03,-0.017,0.2381,20,89.03,-3.199,-1.57,0.66,5.789,0.035,-0.199,0,0,0,140.12,0,0,0,0,0,0,0,0,0,0,0,0,0,3,3,266.98,FLYING
267.76,APPROACH,ILS_TRACK,80,80,0,433.9,-4.43,4.41,7.41,89.03,-0.017,0.2379,20,89.03,-3.199,-1.52,0.66,5.72,0.034,-0.199,0,0,0,140.12,0,0,0,0,0,0,0,0,0,0,0,0,0,3,3,267.8,FLYING
268.58,APPROACH,ILS_TRACK,80,80,0,430.27,-4.43,4.41,7.41,89.03,-0.017,0.2377,20,89.03,-3.198,-1.46,0.66,5.651,0.033,-0.198,0,0,0,140.12,0,0,0,0,0,0,0,0,0,0,0,0,0,3,3,268.62,FLYING
269.4,APPROACH,ILS_TRACK,80,80,0,426.64,-4.43,4.41,7.4,89.03,-0.017,0.2375,19.998,89.03,-3.198,-1.41,0.66,5.581,0.031,-0.198,0,0,0,140.12,0,0,0,0,0,0,0,0,0,0,0,0,0,3,3,269.44,FLYING
270.22,APPROACH,ILS_TRACK,80.01,80,-0.01,423.01,-4.43,4.4,7.4,89.03,-0.017,0.2373,19.994,89.03,-3.198,-1.37,0.66,5.512,0.031,-0.198,0,0,0,140.12,0,0,0,0,0,0,0,0,0,0,0,0,0,3,3,270.26,FLYING
271.04,APPROACH,ILS_TRACK,80.01,80,-0.01,419.38,-4.42,4.4,7.4,89.03,-0.017,0.237,19.988,89.03,-3.198,-1.32,0.66,5.443,0.03,-0.198,0,0,0,140.12,0,0,0,0,0,0,0,0,0,0,0,0,0,3,3,271.08,FLYING
271.86,APPROACH,ILS_TRACK,80.02,80,-0.02,415.75,-4.42,4.4,7.4,89.02,-0.018,0.2369,19.98,89.03,-3.198,-1.27,0.66,5.374,0.029,-0.198,0,0,0,140.12,0,0,0,0,0,0,0,0,0,0,0,0,0,3,3,271.9,FLYING
272.68,APPROACH,ILS_TRACK,80.02,80,-0.02,412.12,-4.42,4.4,7.4,89.02,-0.018,0.2367,19.97,89.03,-3.198,-1.23,0.66,5.304,0.028,-0.198,0,0,0,140.12,0,0,0,0,0,0,0,0,0,0,0,0,0,3,3,272.72,FLYING
273.5,APPROACH,ILS_TRACK,80.02,80,-0.02,408.5,-4.42,4.4,7.4,89.02,-0.019,0.2366,19.96,89.03,-3.198,-1.19,0.66,5.235,0.028,-0.198,0,0,0,140.12,0,0,0,0,0,0,0,0,0,0,0,0,0,3,3,273.54,FLYING
274.32,APPROACH,ILS_TRACK,80.02,80,-0.02,404.87,-4.42,4.4,7.4,89.02,-0.019,0.2364,19.948,89.03,-3.197,-1.15,0.66,5.166,0.027,-0.197,0,0,0,140.12,0,0,0,0,0,0,0,0,0,0,0,0,0,3,3,274.36,FLYING
275.14,APPROACH,ILS_TRACK,80.03,80,-0.03,401.24,-4.42,4.4,7.4,89.02,-0.019,0.2363,19.935,89.03,-3.197,-1.12,0.66,5.097,0.026,-0.197,0,0,0,140.12,0,0,0,0,0,0,0,0,0,0,0,0,0,3,3,275.18,FLYING
275.96,APPROACH,ILS_TRACK,80.03,80,-0.03,397.62,-4.42,4.4,7.4,89.02,-0.019,0.2362,19.92,89.03,-3.197,-1.08,0.66,5.028,0.025,-0.197,0,0,0,140.12,0,0,0,0,0,0,0,0,0,0,0,0,0,3,3,276,FLYING
276.78,APPROACH,ILS_TRACK,80.03,80,-0.03,393.99,-4.42,4.4,7.4,89.02,-0.019,0.2361,19.906,89.03,-3.196,-1.05,0.66,4.959,0.025,-0.196,0,0,0,140.12,0,0,0,0,0,0,0,0,0,0,0,0,0,3,3,276.82,FLYING
277.6,APPROACH,ILS_TRACK,80.03,80,-0.03,390.37,-4.42,4.4,7.4,89.02,-0.02,0.2359,19.89,89.03,-3.196,-1.02,0.66,4.889,0.025,-0.196,0,0,0,140.12,0,0,0,0,0,0,0,0,0,0,0,0,0,3,3,277.64,FLYING
278.42,APPROACH,ILS_TRACK,80.03,80,-0.03,386.75,-4.42,4.4,7.4,89.01,-0.02,0.2358,19.874,89.02,-3.196,-0.99,0.66,4.82,0.024,-0.196,0,0,0,140.12,0,0,0,0,0,0,0,0,0,0,0,0,0,3,3,278.46,FLYING
279.24,APPROACH,ILS_TRACK,80.03,80,-0.03,383.12,-4.42,4.4,7.4,89.01,-0.02,0.2357,19.858,89.02,-3.196,-0.96,0.66,4.751,0.024,-0.196,0,0,0,140.12,0,0,0,0,0,0,0,0,0,0,0,0,0,3,3,279.28,FLYING
280.06,APPROACH,ILS_TRACK,80.03,80,-0.03,379.5,-4.42,4.4,7.4,89.01,-0.021,0.2355,19.841,89.02,-3.196,-0.93,0.66,4.682,0.024,-0.196,0,0,0,140.12,0,0,0,0,0,0,0,0,0,0,0,0,0,3,3,280.1,FLYING
280.88,APPROACH,ILS_TRACK,80.03,80,-0.03,375.88,-4.42,4.4,7.4,89.01,-0.021,0.2354,19.824,89.02,-3.196,-0.91,0.65,4.613,0.024,-0.196,0,0,0,140.12,0,0,0,0,0,0,0,0,0,0,0,0,0,3,3,280.92,FLYING
281.7,APPROACH,ILS_TRACK,80.03,80,-0.03,372.26,-4.41,4.4,7.4,89.01,-0.022,0.2353,19.806,89.02,-3.195,-0.88,0.65,4.544,0.023,-0.195,0,0,0,140.12,0,0,0,0,0,0,0,0,0,0,0,0,0,3,3,281.74,FLYING
282.52,APPROACH,ILS_TRACK,80.04,80,-0.04,368.64,-4.41,4.4,7.4,89.01,-0.022,0.2351,19.788,89.02,-3.195,-0.86,0.65,4.475,0.024,-0.195,0,0,0,140.12,0,0,0,0,0,0,0,0,0,0,0,0,0,3,3,282.56,FLYING
283.34,APPROACH,ILS_TRACK,80.04,80,-0.04,365.02,-4.41,4.4,7.4,89.01,-0.022,0.235,19.771,89.02,-3.195,-0.84,0.65,4.406,0.023,-0.195,0,0,0,140.12,0,0,0,0,0,0,0,0,0,0,0,0,0,3,3,283.38,FLYING
284.16,APPROACH,ILS_TRACK,80.04,80,-0.04,361.4,-4.41,4.4,7.4,89.01,-0.022,0.2349,19.753,89.02,-3.196,-0.82,0.65,4.337,0.023,-0.196,0,0,0,140.12,0,0,0,0,0,0,0,0,0,0,0,0,0,3,3,284.2,FLYING
284.98,APPROACH,ILS_TRACK,80.04,80,-0.04,357.78,-4.41,4.4,7.4,89.01,-0.022,0.2348,19.735,89.02,-3.195,-0.8,0.65,4.268,0.023,-0.195,0,0,0,140.12,0,0,0,0,0,0,0,0,0,0,0,0,0,3,3,285.02,FLYING
285.8,APPROACH,ILS_TRACK,80.03,80,-0.03,354.17,-4.41,4.4,7.4,89,-0.022,0.2347,19.718,89.02,-3.196,-0.78,0.65,4.199,0.023,-0.196,0,0,0,140.12,0,0,0,0,0,0,0,0,0,0,0,0,0,3,3,285.84,FLYING
286.62,APPROACH,ILS_TRACK,80.03,80,-0.03,350.55,-4.41,4.4,7.4,89,-0.023,0.2346,19.701,89.02,-3.196,-0.77,0.65,4.13,0.023,-0.196,0,0,0,140.12,0,0,0,0,0,0,0,0,0,0,0,0,0,3,3,286.66,FLYING
287.44,APPROACH,ILS_TRACK,80.03,80,-0.03,346.94,-4.41,4.4,7.4,89,-0.024,0.2345,19.683,89.02,-3.195,-0.76,0.65,4.061,0.023,-0.195,0,0,0,140.12,0,0,0,0,0,0,0,0,0,0,0,0,0,3,3,287.48,FLYING
288.26,APPROACH,ILS_TRACK,80.03,80,-0.03,343.32,-4.41,4.4,7.4,89,-0.024,0.2344,19.667,89.02,-3.196,-0.74,0.65,3.992,0.023,-0.196,0,0,0,140.12,0,0,0,0,0,0,0,0,0,0,0,0,0,3,3,288.3,FLYING
289.08,APPROACH,ILS_TRACK,80.03,80,-0.03,339.71,-4.41,4.4,7.4,89,-0.025,0.2342,19.65,89.02,-3.195,-0.73,0.65,3.923,0.023,-0.195,0,0,0,140.12,0,0,0,0,0,0,0,0,0,0,0,0,0,3,3,289.12,FLYING
289.9,APPROACH,ILS_TRACK,80.03,80,-0.03,336.1,-4.41,4.4,7.4,89,-0.025,0.2341,19.634,89.02,-3.195,-0.72,0.65,3.854,0.024,-0.195,0,0,0,140.12,0,0,0,0,0,0,0,0,0,0,0,0,0,3,3,289.94,FLYING
290.72,APPROACH,ILS_TRACK,80.03,80,-0.03,332.49,-4.4,4.4,7.4,89,-0.025,0.234,19.619,89.02,-3.195,-0.71,0.65,3.785,0.024,-0.195,0,0,0,140.12,0,0,0,0,0,0,0,0,0,0,0,0,0,3,3,290.76,FLYING
291.54,APPROACH,ILS_TRACK,80.03,80,-0.03,328.87,-4.4,4.4,7.4,89,-0.025,0.2339,19.603,89.02,-3.195,-0.7,0.65,3.716,0.024,-0.195,0,0,0,140.12,0,0,0,0,0,0,0,0,0,0,0,0,0,3,3,291.58,FLYING
292.36,APPROACH,ILS_TRACK,80.03,80,-0.03,325.26,-4.4,4.4,7.4,89,-0.026,0.2338,19.588,89.02,-3.195,-0.7,0.65,3.647,0.024,-0.195,0,0,0,140.12,0,0,0,0,0,0,0,0,0,0,0,0,0,3,3,292.4,FLYING
293.18,APPROACH,ILS_TRACK,80.03,80,-0.03,321.65,-4.4,4.4,7.4,89,-0.027,0.2337,19.574,89.02,-3.195,-0.69,0.65,3.578,0.024,-0.195,0,0,0,140.12,0,0,0,0,0,0,0,0,0,0,0,0,0,3,3,293.22,FLYING
294,APPROACH,ILS_TRACK,80.03,80,-0.03,318.05,-4.4,4.4,7.4,89,-0.027,0.2336,19.56,89.02,-3.195,-0.68,0.65,3.509,0.025,-0.195,0,0,0,140.12,0,0,0,0,0,0,0,0,0,0,0,0,0,3,3,294.04,FLYING
294.82,APPROACH,ILS_TRACK,80.03,80,-0.03,314.44,-4.4,4.4,7.4,89,-0.026,0.2336,19.546,89.02,-3.195,-0.68,0.65,3.441,0.025,-0.195,0,0,0,140.12,0,0,0,0,0,0,0,0,0,0,0,0,0,3,3,294.86,FLYING
295.64,APPROACH,ILS_TRACK,80.03,80,-0.03,310.83,-4.4,4.4,7.4,89,-0.027,0.2335,19.533,89.03,-3.195,-0.68,0.65,3.372,0.025,-0.195,0,0,0,140.12,0,0,0,0,0,0,0,0,0,0,0,0,0,3,3,295.68,FLYING
296.46,APPROACH,ILS_TRACK,80.03,80,-0.03,307.22,-4.4,4.4,7.4,89,-0.027,0.2334,19.521,89.03,-3.195,-0.67,0.65,3.303,0.025,-0.195,0,0,0,140.12,0,0,0,0,0,0,0,0,0,0,0,0,0,3,3,296.5,FLYING
297.28,APPROACH,ILS_TRACK,80.02,80,-0.02,303.62,-4.4,4.4,7.4,89,-0.028,0.2333,19.509,89.03,-3.195,-0.67,0.65,3.234,0.026,-0.195,0,0,0,140.12,0,0,0,0,0,0,0,0,0,0,0,0,0,3,3,297.32,FLYING
298.1,APPROACH,ILS_TRACK,80.02,80,-0.02,300.01,-4.4,4.4,7.4,89,-0.028,0.2332,19.497,89.03,-3.195,-0.67,0.65,3.165,0.026,-0.195,0,0,0,140.12,0,0,0,0,0,0,0,0,0,0,0,0,0,3,3,298.14,FLYING
298.92,APPROACH,ILS_TRACK,80.02,80,-0.02,296.41,-4.39,4.4,7.4,89,-0.028,0.2331,19.485,89.03,-3.195,-0.67,0.65,3.097,0.027,-0.195,0,0,0,140.12,0,0,0,0,0,0,0,0,0,0,0,0,0,3,3,298.96,FLYING
299.74,APPROACH,ILS_TRACK,80.02,80,-0.02,292.81,-4.39,4.4,7.4,89,-0.029,0.233,19.474,89.03,-3.194,-0.67,0.65,3.028,0.027,-0.194,0,0,0,140.12,0,0,0,0,0,0,0,0,0,0,0,0,0,3,3,299.78,FLYING
300.56,APPROACH,ILS_TRACK,80.02,80,-0.02,289.2,-4.39,4.4,7.4,88.99,-0.029,0.2329,19.463,89.03,-3.194,-0.67,0.65,2.959,0.027,-0.194,0,0,0,140.12,0,0,0,0,0,0,0,0,0,0,0,0,0,3,3,300.6,FLYING
301.38,APPROACH,ILS_TRACK,80.02,80,-0.02,285.6,-4.39,4.4,7.4,88.99,-0.029,0.2328,19.453,89.03,-3.194,-0.67,0.65,2.89,0.028,-0.194,0,0,0,140.12,0,0,0,0,0,0,0,0,0,0,0,0,0,3,3,301.42,FLYING
302.2,APPROACH,ILS_TRACK,80.02,80,-0.02,282,-4.39,4.4,7.4,88.99,-0.029,0.2327,19.443,89.03,-3.194,-0.67,0.65,2.822,0.028,-0.194,0,0,0,140.12,0,0,0,0,0,0,0,0,0,0,0,0,0,3,3,302.24,FLYING
303.02,APPROACH,ILS_TRACK,80.02,80,-0.02,278.4,-4.39,4.4,7.4,88.99,-0.03,0.2326,19.433,89.03,-3.194,-0.67,0.65,2.753,0.028,-0.194,0,0,0,140.12,0,0,0,0,0,0,0,0,0,0,0,0,0,3,3,303.06,FLYING
303.84,APPROACH,ILS_TRACK,80.02,80,-0.02,274.8,-4.39,4.4,7.4,88.99,-0.03,0.2325,19.424,89.03,-3.194,-0.68,0.65,2.684,0.029,-0.194,0,0,0,140.12,0,0,0,0,0,0,0,0,0,0,0,0,0,3,3,303.88,FLYING
304.66,APPROACH,ILS_TRACK,80.02,80,-0.02,271.2,-4.39,4.4,7.4,88.99,-0.03,0.2324,19.414,89.03,-3.194,-0.68,0.65,2.616,0.029,-0.194,0,0,0,140.12,0,0,0,0,0,0,0,0,0,0,0,0,0,3,3,304.7,FLYING
305.48,APPROACH,ILS_TRACK,80.02,80,-0.02,267.6,-4.39,4.4,7.4,88.99,-0.03,0.2323,19.406,89.03,-3.193,-0.69,0.65,2.547,0.029,-0.193,0,0,0,140.12,0,0,0,0,0,0,0,0,0,0,0,0,0,3,3,305.52,FLYING
306.3,APPROACH,ILS_TRACK,80.02,80,-0.02,264.01,-4.39,4.4,7.4,88.99,-0.031,0.2322,19.397,89.03,-3.193,-0.69,0.65,2.478,0.03,-0.193,0,0,0,140.12,0,0,0,0,0,0,0,0,0,0,0,0,0,3,3,306.34,FLYING
307.12,APPROACH,ILS_TRACK,80.02,80,-0.02,260.41,-4.39,4.4,7.4,88.99,-0.031,0.2321,19.388,89.03,-3.193,-0.7,0.65,2.41,0.03,-0.193,0,0,0,140.12,0,0,0,0,0,0,0,0,0,0,0,0,0,3,3,307.16,FLYING
307.94,APPROACH,ILS_TRACK,80.02,80,-0.02,256.82,-4.38,4.4,7.4,88.99,-0.031,0.232,19.38,89.03,-3.193,-0.7,0.65,2.341,0.031,-0.193,0,0,0,140.12,0,0,0,0,0,0,0,0,0,0,0,0,0,3,3,307.98,FLYING
308.76,APPROACH,ILS_TRACK,80.02,80,-0.02,253.22,-4.38,4.4,7.4,88.99,-0.031,0.2319,19.372,89.03,-3.193,-0.71,0.65,2.273,0.031,-0.193,0,0,0,140.12,0,0,0,0,0,0,0,0,0,0,0,0,0,3,3,308.8,FLYING
309.58,APPROACH,ILS_TRACK,80.02,80,-0.02,249.63,-4.38,4.4,7.4,88.99,-0.032,0.2318,19.364,89.03,-3.193,-0.71,0.65,2.204,0.031,-0.193,0,0,0,140.12,0,0,0,0,0,0,0,0,0,0,0,0,0,3,3,309.62,FLYING
310.4,APPROACH,ILS_TRACK,80.02,80,-0.02,246.03,-4.38,4.4,7.4,88.99,-0.031,0.2317,19.356,89.03,-3.193,-0.72,0.64,2.135,0.032,-0.193,0,0,0,140.12,0,0,0,0,0,0,0,0,0,0,0,0,0,3,3,310.44,FLYING
311.22,APPROACH,ILS_TRACK,80.02,80,-0.02,242.44,-4.38,4.4,7.4,88.99,-0.031,0.2316,19.349,89.03,-3.193,-0.72,0.64,2.067,0.032,-0.193,0,0,0,140.12,0,0,0,0,0,0,0,0,0,0,0,0,0,3,3,311.26,FLYING
312.04,APPROACH,ILS_TRACK,80.02,80,-0.02,238.85,-4.38,4.41,7.4,88.99,-0.032,0.2315,19.341,89.03,-3.193,-0.73,0.64,1.998,0.033,-0.193,0,0,0,140.12,0,0,0,0,0,0,0,0,0,0,0,0,0,3,3,312.08,FLYING
312.86,APPROACH,ILS_TRACK,80.02,80,-0.02,235.26,-4.38,4.41,7.4,88.99,-0.032,0.2314,19.333,89.03,-3.193,-0.74,0.64,1.93,0.033,-0.193,0,0,0,140.12,0,0,0,0,0,0,0,0,0,0,0,0,0,3,3,312.9,FLYING
313.68,APPROACH,ILS_TRACK,80.01,80,-0.01,231.67,-4.38,4.4,7.4,88.99,-0.032,0.2313,19.326,89.03,-3.193,-0.75,0.64,1.861,0.033,-0.193,0,0,0,140.12,0,0,0,0,0,0,0,0,0,0,0,0,0,3,3,313.72,FLYING
314.5,APPROACH,ILS_TRACK,80.01,80,-0.01,228.08,-4.38,4.4,7.4,88.99,-0.032,0.2312,19.318,89.03,-3.193,-0.75,0.64,1.793,0.034,-0.193,0,0,0,140.12,0,0,0,0,0,0,0,0,0,0,0,0,0,3,3,314.54,FLYING
315.32,APPROACH,ILS_TRACK,80.01,80,-0.01,224.49,-4.38,4.41,7.4,88.99,-0.032,0.2311,19.311,89.03,-3.193,-0.76,0.64,1.724,0.034,-0.193,0,0,0,140.12,0,0,0,0,0,0,0,0,0,0,0,0,0,3,3,315.36,FLYING
316.14,APPROACH,ILS_TRACK,80.01,80,-0.01,220.9,-4.37,4.41,7.4,88.99,-0.033,0.231,19.304,89.03,-3.193,-0.77,0.64,1.656,0.035,-0.193,0,0,0,140.12,0,0,0,0,0,0,0,0,0,0,0,0,0,3,3,316.18,FLYING
316.96,APPROACH,ILS_TRACK,80.01,80,-0.01,217.31,-4.37,4.41,7.4,88.99,-0.033,0.2309,19.296,89.04,-3.193,-0.78,0.64,1.587,0.035,-0.193,0,0,0,140.12,0,0,0,0,0,0,0,0,0,0,0,0,0,3,3,317,FLYING
317.78,APPROACH,ILS_TRACK,80.01,80,-0.01,213.73,-4.37,4.41,7.4,88.99,-0.033,0.2308,19.289,89.04,-3.193,-0.78,0.64,1.519,0.036,-0.193,0,0,0,140.12,0,0,0,0,0,0,0,0,0,0,0,0,0,3,3,317.82,FLYING
318.6,APPROACH,ILS_TRACK,80.01,80,-0.01,210.14,-4.37,4.4,7.4,88.99,-0.033,0.2307,19.282,89.04,-3.193,-0.79,0.64,1.451,0.036,-0.193,0,0,0,140.12,0,0,0,0,0,0,0,0,0,0,0,0,0,3,3,318.64,FLYING
319.42,APPROACH,ILS_TRACK,80.01,80,-0.01,206.56,-4.37,4.4,7.4,88.99,-0.033,0.2306,19.274,89.04,-3.193,-0.8,0.64,1.382,0.036,-0.193,0,0,0,140.12,0,0,0,0,0,0,0,0,0,0,0,0,0,3,3,319.46,FLYING
320.24,APPROACH,ILS_TRACK,80.02,80,-0.02,202.97,-4.37,4.41,7.4,88.99,-0.033,0.2304,19.266,89.04,-3.193,-0.81,0.64,1.314,0.037,-0.193,0,0,0,140.12,0,0,0,0,0,0,0,0,0,0,0,0,0,3,3,320.28,FLYING
321.06,APPROACH,ILS_TRACK,80.02,80,-0.02,199.39,-4.37,4.41,7.41,88.99,-0.034,0.2303,19.259,89.04,-3.193,-0.82,0.64,1.245,0.037,-0.193,0,0,0,140.12,0,0,0,0,0,0,0,0,0,0,0,0,0,3,3,321.1,FLYING
321.88,APPROACH,ILS_TRACK,80.02,80,-0.02,195.81,-4.37,4.41,7.41,88.99,-0.034,0.2302,19.251,89.04,-3.193,-0.83,0.64,1.177,0.037,-0.193,0,0,0,140.12,0,0,0,0,0,0,0,0,0,0,0,0,0,3,3,321.92,FLYING
322.7,APPROACH,ILS_TRACK,80.02,80,-0.02,192.23,-4.37,4.41,7.4,88.99,-0.033,0.2302,19.244,89.04,-3.193,-0.84,0.64,1.109,0.038,-0.193,0,0,0,140.12,0,0,0,0,0,0,0,0,0,0,0,0,0,3,3,322.74,FLYING
323.52,APPROACH,ILS_TRACK,80.02,80,-0.02,188.64,-4.37,4.4,7.4,88.99,-0.034,0.2301,19.236,89.04,-3.193,-0.85,0.64,1.04,0.038,-0.193,0,0,0,140.12,0,0,0,0,0,0,0,0,0,0,0,0,0,3,3,323.56,FLYING
324.34,APPROACH,ILS_TRACK,80.02,80,-0.02,185.06,-4.37,4.41,7.41,88.99,-0.034,0.2299,19.228,89.04,-3.193,-0.85,0.64,0.972,0.039,-0.193,0,0,0,140.12,0,0,0,0,0,0,0,0,0,0,0,0,0,3,3,324.38,FLYING
325.16,APPROACH,ILS_TRACK,80.02,80,-0.02,181.48,-4.36,4.41,7.4,88.99,-0.034,0.2298,19.221,89.04,-3.193,-0.86,0.64,0.904,0.039,-0.193,0,0,0,140.12,0,0,0,0,0,0,0,0,0,0,0,0,0,3,3,325.2,FLYING
325.98,APPROACH,ILS_TRACK,80.02,80,-0.02,177.91,-4.36,4.41,7.4,88.99,-0.034,0.2297,19.213,89.04,-3.193,-0.87,0.64,0.835,0.039,-0.193,0,0,0,140.12,0,0,0,0,0,0,0,0,0,0,0,0,0,3,3,326.02,FLYING
326.8,APPROACH,ILS_TRACK,80.02,80,-0.02,153.79,-4.36,4.41,7.41,88.99,-0.034,0.2296,19.205,89.04,-3.193,-0.88,0.64,0.767,0.04,-0.193,0,0,0,140.12,0,0,0,0,0,0,0,0,0,0,0,0,0,3,3,326.84,FLYING
327.62,APPROACH,ILS_TRACK,80.02,80,-0.02,144.35,-4.36,4.41,7.41,88.99,-0.034,0.2295,19.197,89.04,-3.193,-0.89,0.64,0.699,0.04,-0.193,0,0,0,140.12,0,0,0,0,0,0,0,0,0,0,0,0,0,3,3,327.66,FLYING
328.44,APPROACH,ILS_TRACK,80.02,80,-0.02,127.57,-4.36,4.4,7.4,89,-0.034,0.2294,19.189,89.04,-3.194,-0.9,0.64,0.631,0.04,-0.194,0,0,0,140.12,0,0,0,0,0,0,0,0,0,0,0,0,0,3,3,328.48,FLYING
329.26,APPROACH,ILS_TRACK,80.02,80,-0.02,109.11,-4.36,4.4,7.4,89,-0.034,0.2293,19.181,89.04,-3.193,-0.91,0.64,0.562,0.041,-0.193,0,0,0,140.12,0,0,0,0,0,0,0,0,0,0,0,0,0,3,3,329.3,FLYING
330.08,APPROACH,ILS_TRACK,80.02,80,-0.02,95.54,-4.36,4.4,7.4,89,-0.034,0.2292,19.172,89.04,-3.193,-0.92,0.64,0.494,0.041,-0.193,0,0,0,140.12,0,0,0,0,0,0,0,0,0,0,0,0,0,3,3,330.12,FLYING
330.9,APPROACH,ILS_TRACK,80.02,80,-0.02,84.3,-4.36,4.41,7.41,89,-0.034,0.2291,19.164,89.04,-3.193,-0.92,0.64,0.426,0.041,-0.193,0,0,0,140.12,0,0,0,0,0,0,0,0,0,0,0,0,0,3,3,330.94,FLYING
331.74,FLARE,,80.02,80,-0.02,73.06,-4.36,4.41,7.41,89,-0.035,0.229,19.156,89.04,-3.193,-0.93,0.64,0.358,0.042,-0.193,-3.117,0,0,140.12,0,0,0,0,0,0,0,0,0,0,0,0,0,3,3,0.04,FLYING
332.42,FLARE,,80.02,80,-0.02,51.57,-4.36,4.41,7.41,89,-0.035,0.0609,17.647,89,-2.381,-0.93,0.64,0.358,0.042,-0.193,-2.381,-2.5,0.139,140.12,0,0,0,0,0,0,0,0,0,0,0,0,0,3,3,0.74,FLYING
333.06,FLARE,,79.97,80,0.03,22.33,-4.32,4.63,7.6,89,-0.034,0.0479,16.155,89,-1.79,-0.93,0.64,0.358,0.042,-0.193,-1.79,-2.5,0.284,140.12,0,0,0,0,0,0,0,0,0,0,0,0,0,3,3,1.38,FLYING
333.7,FLARE,,79.78,80,0.22,11.14,-4.2,4.91,7.81,89,-0.033,0.0549,14.745,89,-1.794,-0.93,0.64,0.358,0.042,-0.193,-1.794,-2.5,0.427,140.12,0,0,0,0,0,0,0,0,0,0,0,0,0,3,3,2.02,FLYING
334.34,FLARE,,79.48,80,0.52,8.58,-4.08,5.1,7.93,89,-0.033,0.0789,13.478,89,-1.498,-0.93,0.64,0.358,0.042,-0.193,-1.498,-2.08,0.567,140.12,0,0,0,0,0,0,0,0,0,0,0,0,0,3,3,2.66,FLYING
334.98,FLARE,,79.08,80,0.92,6.11,-3.94,5.38,8.13,89,-0.032,0.1148,12.404,89,-1.104,-0.93,0.64,0.358,0.042,-0.193,-1.104,-1.526,0.701,140.12,0,0,0,0,0,0,0,0,0,0,0,0,0,3,3,3.3,FLYING
335.62,FLARE,,78.14,80,1.86,4.27,1.73,3.58,2.58,88.97,-0.018,0.1799,11.626,89,-1.825,-0.93,0.64,0.358,0.042,-0.193,-1.825,-1.033,0.821,140.12,0,0,0,0,0,0,0,0,0,0,0,0,0,3,3,3.94,LANDED
336.28,TOUCHDOWN,,77.82,80,2.18,3.67,-0.92,1.12,2.05,89.12,0.127,0.2633,11.221,89,-1.112,-0.93,0.64,0.358,0.042,-0.193,-1.112,-0.925,0.847,140.12,0,0,0,0,0,0,0,0,0,0,0,0,0,3,3,0.04,LANDED
337.06,ROLLOUT,,77.73,80,2.27,4.19,0.59,3.29,2.75,89.22,-0.003,0,11.221,89,-1.112,-0.93,0.64,0.358,0.042,-0.193,-1.112,-0.925,0.847,140.12,0,0,0,0,0,0,0,0,-0.0901,2,-1.127,0,0,3,3,0.06,LANDED
337.94,ROLLOUT,,76.85,80,3.15,4.5,-0.09,5.06,5.17,89.27,0.02,1,11.221,89,-1.112,-0.93,0.64,0.358,0.042,-0.193,-1.112,-0.925,0.847,89.14,0.357,0.006,0.127,-0.0023,0.357,0,-0.0023,0,-0.2463,2,-3.079,0,0,3,3,0.94,LANDED
338.76,ROLLOUT,,75.35,80,4.65,3.91,-0.22,1.91,2.18,89.3,-0.014,1,11.221,89,-1.112,-0.93,0.64,0.358,0.042,-0.193,-1.112,-0.925,0.847,89.13,0.385,0,0.167,-0.0032,0.385,0,-0.0032,0,-0.0019,2,-0.024,0,0,3,3,1.76,LANDED
339.58,ROLLOUT,,73.64,80,6.36,3.77,0.21,1.24,1.02,88.8,-0.313,1,11.221,89,-1.112,-0.93,0.64,0.358,0.042,-0.193,-1.112,-0.925,0.847,89.12,0.418,-0.005,-0.27,0.0056,0.418,0,0.0056,0,0.0641,2,0.802,0,0,3,3,2.58,LANDED
340.4,ROLLOUT,,71.68,80,8.32,3.9,-0.03,1.92,1.96,88.38,-0.043,1,11.221,89,-1.112,-0.93,0.64,0.358,0.042,-0.193,-1.112,-0.925,0.847,89.12,0.457,0.003,-0.724,0.0165,0.457,0,0.0165,0,0.0056,2,0.07,0,0,3,3,3.4,LANDED
