t_s,phase,subphase,ias_ms,vapp_ms,spd_err_ms,agl_m,vs_ms,pitch_deg,aoa_deg,hdg_deg,bank_deg,thr_cmd,thr_cur,thr_intg,at_gain,at_tau_s,at_a_up,at_a_dn,at_kp_thr,at_ki_spd,at_thr_slew,as_cmd_deg,as_cap_deg,as_raw_deg,as_spd_err_ms,as_active,aa_hdg_cmd_deg,aa_fpa_cmd_deg,aa_fbw,aa_dir,actual_fpa_deg,ftf_hdg_err_deg,ftf_fix_idx,kos_steer_pit_deg,kos_steer_hdg_deg,aa_dir_vx,aa_dir_vy,aa_dir_vz,aa_dir_pitch_deg,aa_dir_hdg_deg,ils_loc_m,ils_gs_m,ils_dist_km,loc_corr_deg,gs_corr_deg,gs_latched,active_gs_ang_deg,ils_intercept_alt_m,d_gs_ms,fpa_preclamped_deg,gs_nom_alt_m,flare_fpa_cmd,flare_tgt_vs,flare_frac,steer_hdg_deg,steer_blend,ro_loc_corr_deg,ro_hdg_err_deg,ro_yaw_tgt,ro_yaw_scale,ro_yaw_gate,yaw_cmd,roll_cmd,pitch_cmd,ro_pitch_tgt_deg,ro_pitch_err_deg,ro_pitch_ff,ro_roll_assist,flaps_cur,flaps_tgt,asc_j_ab,asc_j_rk,asc_validity,asc_q_pa,asc_q_raw_pa,asc_mach,asc_apo_m,asc_drag_n,asc_w_prop,asc_edot_aero,asc_edot_orb,asc_pitch_bias,asc_blend,asc_spooling,asc_ab_thr_ratio,asc_ab_t_now,asc_ab_t_avail,asc_ab_ign_on,asc_ab_flameouts,asc_rk_t_now,asc_rk_t_avail,asc_rk_ign_on,asc_rk_flameouts,ship_thrust,ship_avail_thrust,ship_ign_on,ship_flameouts,ifc_raw_dt_s,ifc_dt_s,ifc_loop_n,ifc_hz_est,ifc_raw_dt_max_s,ifc_raw_dt_min_s,phase_el_s,status,craft_name,cfg_file
0.2,APPROACH,ILS_TRACK,69.99,70,0.01,965.65,-4,2.38,5.37,269.99,0.024,0,0,0,0,0,0,0,0,0,0,0,0,0,0,0,0,0,1,0,-3.27,0,0,0,90,0,0,0,0,0,-1.9,0.57,16.997,0,0,0,3,965.65,0,0,965.08,0,0,0,269.99,0,0,0,0,0,0,0,0,0,0,0,0,0,0,0,0,0,VALID,0,0,0,0,0,1,0,0,0,0,0,0,0,0,0,0,0,0,0,0,115.06,403.46,2,0,0.18,0.18,1,3.7,0.18,0.02,0.2,FLYING,CF1-J,0:/Integrated Flight Computer/aircraft/cf1_j_cfg.ks (inferred preloaded)
0.46,APPROACH,ILS_TRACK,69.98,70,0.02,964.6,-3.97,2.36,5.32,269.99,0.03,0.005,0,0.003,1,0.6,1.005,0.75,0.35,0.0168,0.4,0,55,0,-0.014,0,270.08,-3.155,0,1,-3.26,0,0,-6.95,274.03,-0.8161,0.0013,0.5779,-3.16,270.08,-1.9,0.56,16.98,0.079,-0.155,1,3,965.65,-0.018,-3.155,964.2,0,0,0,269.99,0,0,0,0,0,0,0,0,0,0,0,0,0,1,2,0,0,VALID,0,0,0,0,0,1,0,0,0,0,0,0,0,0,0,0,0,0,0,0,108.38,403.52,2,0,0.12,0.12,3,7.69,0.18,0.12,0.46,FLYING,CF1-J,0:/Integrated Flight Computer/aircraft/cf1_j_cfg.ks (inferred preloaded)
0.82,APPROACH,ILS_TRACK,69.93,70,0.07,963.14,-4.09,2.19,5.27,270.01,0.111,0.0333,0,0.019,1,0.6,2.232,0.75,0.35,0.0168,0.4,0,55,0,-0.067,0,270.08,-3.17,0,1,-3.34,0,0,-3.06,270.08,-0.8159,0.0014,0.5781,-3.17,270.08,-1.91,0.54,16.953,0.081,-0.17,1,3,965.65,0.012,-3.17,962.76,0,0,0,269.99,0,0,0,0,0,0,0,0,0,0,0,0,0,2,2,0,0,VALID,0,0,0,0,0,1,0,0,0,0,0,0,0,0,0,0,0,0,0,0,99.49,403.63,2,0,0.12,0.12,6,8.33,0.12,0.12,0.82,FLYING,CF1-J,0:/Integrated Flight Computer/aircraft/cf1_j_cfg.ks (inferred preloaded)
1.18,APPROACH,ILS_TRACK,69.82,70,0.18,961.7,-4.08,2.42,5.49,270.01,0.095,0.077,0,0.067,1,0.6,3.187,0.75,0.35,0.0168,0.4,0,55,0,-0.169,0,270.08,-3.138,0,1,-3.35,0,0,-3.17,270.08,-0.8162,0.0013,0.5777,-3.14,270.08,-1.91,0.54,16.925,0.077,-0.138,1,3,965.65,-0.03,-3.138,961.32,0,0,0,269.99,0,0,0,0,0,0,0,0,0,0,0,0,0,2,2,0,0,VALID,0,0,0,0,0,1,0,0,0,0,0,0,0,0,0,0,0,0,0,0,92.5,403.78,2,0,0.12,0.12,9,8.33,0.12,0.12,1.18,FLYING,CF1-J,0:/Integrated Flight Computer/aircraft/cf1_j_cfg.ks (inferred preloaded)
1.54,APPROACH,ILS_TRACK,69.67,70,0.33,960.24,-4.08,2.52,5.59,270.01,0.081,0.1298,0,0.162,1,0.6,3.931,0.75,0.35,0.0168,0.4,0,55,0,-0.319,0,270.08,-3.113,0,1,-3.35,0,0,-3.12,270.08,-0.8165,0.0013,0.5774,-3.11,270.08,-1.91,0.52,16.898,0.078,-0.113,1,3,965.65,-0.055,-3.113,959.88,0,0,0,269.99,0,0,0,0,0,0,0,0,0,0,0,0,0,2,2,0,0,VALID,0,0,0,0,0,1,0,0,0,0,0,0,0,0,0,0,0,0,0,0,87.77,403.95,2,0,0.12,0.12,12,8.33,0.12,0.12,1.54,FLYING,CF1-J,0:/Integrated Flight Computer/aircraft/cf1_j_cfg.ks (inferred preloaded)
1.9,APPROACH,ILS_TRACK,69.49,70,0.51,958.79,-4.07,2.61,5.68,270.01,0.07,0.179,0,0.319,1,0.6,4.5,0.75,0.35,0.0168,0.4,0,55,0,-0.497,0,270.08,-3.101,0,1,-3.35,0,0,-3.1,270.08,-0.8166,0.0013,0.5772,-3.1,270.08,-1.91,0.5,16.871,0.075,-0.101,1,3,965.65,-0.062,-3.101,958.45,0,0,0,269.99,0,0,0,0,0,0,0,0,0,0,0,0,0,2,2,0,0,VALID,0,0,0,0,0,1,0,0,0,0,0,0,0,0,0,0,0,0,0,0,85.26,404.14,2,0,0.12,0.12,15,8.33,0.12,0.12,1.9,FLYING,CF1-J,0:/Integrated Flight Computer/aircraft/cf1_j_cfg.ks (inferred preloaded)
2.26,APPROACH,ILS_TRACK,69.3,70,0.7,957.34,-4.06,2.69,5.76,270.01,0.06,0.22,0,0.544,1,0.6,4.5,0.75,0.35,0.0168,0.4,0,55,0,-0.69,0,270.08,-3.089,0,1,-3.36,0,0,-3.09,270.08,-0.8167,0.0013,0.5771,-3.09,270.08,-1.91,0.48,16.844,0.079,-0.089,1,3,965.65,-0.067,-3.089,957.02,0,0,0,269.99,0,0,0,0,0,0,0,0,0,0,0,0,0,2,2,0,0,VALID,0,0,0,0,0,1,0,0,0,0,0,0,0,0,0,0,0,0,0,0,84.61,404.34,2,0,0.12,0.12,18,8.33,0.12,0.12,2.26,FLYING,CF1-J,0:/Integrated Flight Computer/aircraft/cf1_j_cfg.ks (inferred preloaded)
2.62,APPROACH,ILS_TRACK,69.1,70,0.9,955.89,-4.05,2.76,5.84,270.01,0.053,0.2519,0,0.84,1,0.6,4.5,0.75,0.35,0.0168,0.4,0,55,0,-0.885,0,270.08,-3.078,0,1,-3.36,0,0,-3.08,270.07,-0.8167,0.0013,0.577,-3.08,270.08,-1.9,0.45,16.816,0.078,-0.078,1,3,965.65,-0.072,-3.078,955.6,0,0,0,269.99,0,0,0,0,0,0,0,0,0,0,0,0,0,2,2,0,0,VALID,0,0,0,0,0,1,0,0,0,0,0,0,0,0,0,0,0,0,0,0,84.83,404.54,2,0,0.12,0.12,21,8.33,0.12,0.12,2.62,FLYING,CF1-J,0:/Integrated Flight Computer/aircraft/cf1_j_cfg.ks (inferred preloaded)
2.98,APPROACH,ILS_TRACK,68.91,70,1.09,954.44,-4.05,2.84,5.92,270.01,0.046,0.2773,0,1.205,1,0.6,4.5,0.75,0.35,0.0168,0.4,0,55,0,-1.078,0,270.08,-3.068,0,1,-3.36,0,0,-3.07,270.07,-0.8168,0.0013,0.5769,-3.07,270.08,-1.9,0.43,16.789,0.076,-0.068,1,3,965.65,-0.074,-3.068,954.18,0,0,0,269.99,0,0,0,0,0,0,0,0,0,0,0,0,0,2,2,0,0,VALID,0,0,0,0,0,1,0,0,0,0,0,0,0,0,0,0,0,0,0,0,85.3,404.74,2,0,0.12,0.12,24,8.33,0.12,0.12,2.98,FLYING,CF1-J,0:/Integrated Flight Computer/aircraft/cf1_j_cfg.ks (inferred preloaded)
3.34,APPROACH,ILS_TRACK,68.72,70,1.28,953,-4.04,2.91,6,270.01,0.042,0.2989,0,1.638,1,0.6,4.5,0.75,0.35,0.0168,0.4,0,55,0,-1.267,0,270.08,-3.058,0,1,-3.36,0,0,-3.06,270.07,-0.8169,0.0013,0.5768,-3.06,270.08,-1.9,0.4,16.762,0.077,-0.058,1,3,965.65,-0.077,-3.058,952.76,0,0,0,269.99,0,0,0,0,0,0,0,0,0,0,0,0,0,2,2,0,0,VALID,0,0,0,0,0,1,0,0,0,0,0,0,0,0,0,0,0,0,0,0,85.97,404.93,2,0,0.12,0.12,27,8.33,0.12,0.12,3.34,FLYING,CF1-J,0:/Integrated Flight Computer/aircraft/cf1_j_cfg.ks (inferred preloaded)
3.7,APPROACH,ILS_TRACK,68.54,70,1.46,951.56,-4.03,2.99,6.07,270.01,0.037,0.3184,0,2.139,1,0.6,4.5,0.75,0.35,0.0168,0.4,0,55,0,-1.452,0,270.07,-3.047,0,1,-3.36,0,0,-3.05,270.07,-0.817,0.0012,0.5767,-3.05,270.07,-1.89,0.37,16.735,0.074,-0.047,1,3,965.65,-0.08,-3.047,951.35,0,0,0,269.99,0,0,0,0,0,0,0,0,0,0,0,0,0,2,2,0,0,VALID,0,0,0,0,0,1,0,0,0,0,0,0,0,0,0,0,0,0,0,0,86.81,405.12,2,0,0.12,0.12,30,8.33,0.12,0.12,3.7,FLYING,CF1-J,0:/Integrated Flight Computer/aircraft/cf1_j_cfg.ks (inferred preloaded)
4.06,APPROACH,ILS_TRACK,68.36,70,1.64,950.12,-4.02,3.06,6.14,270.01,0.034,0.3366,0,2.705,1,0.6,4.5,0.75,0.35,0.0168,0.4,0,55,0,-1.63,0,270.07,-3.037,0,1,-3.36,0,0,-3.04,270.08,-0.8171,0.0012,0.5766,-3.04,270.07,-1.89,0.34,16.708,0.07,-0.037,1,3,965.65,-0.082,-3.037,949.94,0,0,0,269.99,0,0,0,0,0,0,0,0,0,0,0,0,0,2,2,0,0,VALID,0,0,0,0,0,1,0,0,0,0,0,0,0,0,0,0,0,0,0,0,87.79,405.31,2,0,0.12,0.12,33,8.33,0.12,0.12,4.06,FLYING,CF1-J,0:/Integrated Flight Computer/aircraft/cf1_j_cfg.ks (inferred preloaded)
4.42,APPROACH,ILS_TRACK,68.19,70,1.81,948.69,-4.01,3.12,6.21,270.01,0.032,0.354,0,3.333,1,0.6,4.5,0.75,0.35,0.0168,0.4,0,55,0,-1.802,0,270.07,-3.027,0,1,-3.36,0,0,-3.03,270.07,-0.8171,0.0012,0.5765,-3.03,270.07,-1.88,0.31,16.682,0.071,-0.027,1,3,965.65,-0.083,-3.027,948.54,0,0,0,269.99,0,0,0,0,0,0,0,0,0,0,0,0,0,2,2,0,0,VALID,0,0,0,0,0,1,0,0,0,0,0,0,0,0,0,0,0,0,0,0,88.92,405.5,2,0,0.12,0.12,36,8.33,0.12,0.12,4.42,FLYING,CF1-J,0:/Integrated Flight Computer/aircraft/cf1_j_cfg.ks (inferred preloaded)
4.78,APPROACH,ILS_TRACK,68.03,70,1.97,947.26,-4,3.19,6.27,270.01,0.031,0.3706,0,4.021,1,0.6,4.5,0.75,0.35,0.0168,0.4,0,55,0,-1.965,0,270.07,-3.016,0,1,-3.36,0,0,-3.02,270.07,-0.8172,0.0012,0.5763,-3.02,270.07,-1.87,0.28,16.655,0.071,-0.016,1,3,965.65,-0.085,-3.016,947.14,0,0,0,269.99,0,0,0,0,0,0,0,0,0,0,0,0,0,2,2,0,0,VALID,0,0,0,0,0,1,0,0,0,0,0,0,0,0,0,0,0,0,0,0,90.17,405.67,2,0,0.12,0.12,39,8.33,0.12,0.12,4.78,FLYING,CF1-J,0:/Integrated Flight Computer/aircraft/cf1_j_cfg.ks (inferred preloaded)
5.14,APPROACH,ILS_TRACK,67.87,70,2.13,945.83,-3.99,3.25,6.33,270.01,0.03,0.3868,0,4.766,1,0.6,4.5,0.75,0.35,0.0168,0.4,0,55,0,-2.121,0,270.07,-3.007,0,1,-3.36,0,0,-3.01,270.07,-0.8173,0.0012,0.5762,-3.01,270.07,-1.87,0.25,16.628,0.071,-0.007,1,3,965.65,-0.085,-3.007,945.74,0,0,0,269.99,0,0,0,0,0,0,0,0,0,0,0,0,0,2,2,0,0,VALID,0,0,0,0,0,1,0,0,0,0,0,0,0,0,0,0,0,0,0,0,91.53,405.85,2,0,0.12,0.12,42,8.33,0.12,0.12,5.14,FLYING,CF1-J,0:/Integrated Flight Computer/aircraft/cf1_j_cfg.ks (inferred preloaded)
5.5,APPROACH,ILS_TRACK,67.73,70,2.27,944.4,-3.98,3.3,6.39,270.01,0.028,0.4023,0,5.565,1,0.6,4.5,0.75,0.35,0.0168,0.4,0,55,0,-2.267,0,270.07,-2.997,0,1,-3.36,0,0,-3,270.08,-0.8174,0.0012,0.5761,-3,270.07,-1.87,0.22,16.602,0.071,0.003,1,3,965.65,-0.086,-2.997,944.34,0,0,0,269.99,0,0,0,0,0,0,0,0,0,0,0,0,0,2,2,0,0,VALID,0,0,0,0,0,1,0,0,0,0,0,0,0,0,0,0,0,0,0,0,93.01,406.01,2,0,0.12,0.12,45,8.33,0.12,0.12,5.5,FLYING,CF1-J,0:/Integrated Flight Computer/aircraft/cf1_j_cfg.ks (inferred preloaded)
5.86,APPROACH,ILS_TRACK,67.59,70,2.41,942.98,-3.97,3.36,6.44,270.01,0.027,0.4173,0,6.414,1,0.6,4.5,0.75,0.35,0.0168,0.4,0,55,0,-2.403,0,270.07,-2.987,0,1,-3.36,0,0,-2.99,270.07,-0.8174,0.0012,0.576,-2.99,270.07,-1.86,0.19,16.575,0.072,0.013,1,3,965.65,-0.087,-2.987,942.95,0,0,0,269.99,0,0,0,0,0,0,0,0,0,0,0,0,0,2,2,0,0,VALID,0,0,0,0,0,1,0,0,0,0,0,0,0,0,0,0,0,0,0,0,94.58,406.17,2,0,0.12,0.12,48,8.33,0.12,0.12,5.86,FLYING,CF1-J,0:/Integrated Flight Computer/aircraft/cf1_j_cfg.ks (inferred preloaded)
6.22,APPROACH,ILS_TRACK,67.46,70,2.54,941.56,-3.96,3.41,6.49,270.01,0.026,0.4317,0,7.31,1,0.6,4.5,0.75,0.35,0.0168,0.4,0,55,0,-2.529,0,270.07,-2.978,0,1,-3.36,0,0,-2.98,270.07,-0.8175,0.0012,0.5759,-2.98,270.07,-1.85,0.16,16.549,0.068,0.022,1,3,965.65,-0.086,-2.978,941.56,0,0,0,269.99,0,0,0,0,0,0,0,0,0,0,0,0,0,2,2,0,0,VALID,0,0,0,0,0,1,0,0,0,0,0,0,0,0,0,0,0,0,0,0,96.26,406.33,2,0,0.12,0.12,51,8.33,0.12,0.12,6.22,FLYING,CF1-J,0:/Integrated Flight Computer/aircraft/cf1_j_cfg.ks (inferred preloaded)
6.58,APPROACH,ILS_TRACK,67.35,70,2.65,940.14,-3.95,3.45,6.53,270.01,0.026,0.4454,0,8.248,1,0.6,4.5,0.75,0.35,0.0168,0.4,0,55,0,-2.644,0,270.07,-2.969,0,1,-3.36,0,0,-2.97,270.07,-0.8176,0.0012,0.5758,-2.97,270.07,-1.85,0.13,16.522,0.07,0.031,1,3,965.65,-0.086,-2.969,940.18,0,0,0,269.99,0,0,0,0,0,0,0,0,0,0,0,0,0,2,2,0,0,VALID,0,0,0,0,0,1,0,0,0,0,0,0,0,0,0,0,0,0,0,0,98.02,406.47,2,0,0.12,0.12,54,8.33,0.12,0.12,6.58,FLYING,CF1-J,0:/Integrated Flight Computer/aircraft/cf1_j_cfg.ks (inferred preloaded)
6.94,APPROACH,ILS_TRACK,67.25,70,2.75,938.73,-3.94,3.49,6.57,270.01,0.026,0.4584,0,9.225,1,0.6,4.5,0.75,0.35,0.0168,0.4,0,55,0,-2.747,0,270.07,-2.961,0,1,-3.36,0,0,-2.96,270.07,-0.8176,0.0012,0.5758,-2.96,270.07,-1.84,0.09,16.496,0.07,0.039,1,3,965.65,-0.085,-2.961,938.79,0,0,0,269.99,0,0,0,0,0,0,0,0,0,0,0,0,0,2,2,0,0,VALID,0,0,0,0,0,1,0,0,0,0,0,0,0,0,0,0,0,0,0,0,99.86,406.61,2,0,0.12,0.12,57,8.33,0.12,0.12,6.94,FLYING,CF1-J,0:/Integrated Flight Computer/aircraft/cf1_j_cfg.ks (inferred preloaded)
7.3,APPROACH,ILS_TRACK,67.16,70,2.84,937.32,-3.93,3.52,6.6,270.01,0.025,0.4706,0,10.236,1,0.6,4.5,0.75,0.35,0.0168,0.4,0,55,0,-2.839,0,270.07,-2.953,0,1,-3.35,0,0,-2.95,270.07,-0.8177,0.0011,0.5757,-2.95,270.07,-1.84,0.06,16.469,0.067,0.047,1,3,965.65,-0.083,-2.953,937.41,0,0,0,269.99,0,0,0,0,0,0,0,0,0,0,0,0,0,2,2,0,0,VALID,0,0,0,0,0,1,0,0,0,0,0,0,0,0,0,0,0,0,0,0,101.77,406.74,2,0,0.12,0.12,60,8.33,0.12,0.12,7.3,FLYING,CF1-J,0:/Integrated Flight Computer/aircraft/cf1_j_cfg.ks (inferred preloaded)
7.66,APPROACH,ILS_TRACK,67.08,70,2.92,935.91,-3.93,3.55,6.62,270.01,0.025,0.4819,0,11.277,1,0.6,4.5,0.75,0.35,0.0168,0.4,0,55,0,-2.917,0,270.07,-2.943,0,1,-3.35,0,0,-2.95,270.07,-0.8177,0.0012,0.5756,-2.94,270.07,-1.83,0.03,16.443,0.07,0.057,1,3,965.65,-0.084,-2.943,936.03,0,0,0,269.99,0,0,0,0,0,0,0,0,0,0,0,0,0,2,2,0,0,VALID,0,0,0,0,0,1,0,0,0,0,0,0,0,0,0,0,0,0,0,0,103.75,406.87,2,0,0.12,0.12,63,8.33,0.12,0.12,7.66,FLYING,CF1-J,0:/Integrated Flight Computer/aircraft/cf1_j_cfg.ks (inferred preloaded)
8.02,APPROACH,ILS_TRACK,67.01,70,2.99,934.5,-3.92,3.57,6.64,270.01,0.024,0.4924,0,12.344,1,0.6,4.5,0.75,0.35,0.0168,0.4,0,55,0,-2.983,0,270.07,-2.938,0,1,-3.34,0,0,-2.94,270.07,-0.8178,0.0012,0.5755,-2.94,270.07,-1.83,0.01,16.417,0.07,0.062,1,3,965.65,-0.08,-2.938,934.65,0,0,0,269.99,0,0,0,0,0,0,0,0,0,0,0,0,0,2,2,0,0,VALID,0,0,0,0,0,1,0,0,0,0,0,0,0,0,0,0,0,0,0,0,105.78,406.98,2,0,0.12,0.12,66,8.33,0.12,0.12,8.02,FLYING,CF1-J,0:/Integrated Flight Computer/aircraft/cf1_j_cfg.ks (inferred preloaded)
8.38,APPROACH,ILS_TRACK,66.96,70,3.04,933.09,-3.91,3.59,6.65,270.01,0.023,0.5019,0,13.431,1,0.6,4.5,0.75,0.35,0.0168,0.4,0,55,0,-3.036,0,270.07,-2.928,0,1,-3.34,0,0,-2.93,270.07,-0.8178,0.0012,0.5754,-2.93,270.07,-1.82,-0.02,16.39,0.07,0.072,1,3,965.65,-0.081,-2.928,933.27,0,0,0,269.99,0,0,0,0,0,0,0,0,0,0,0,0,0,2,2,0,0,VALID,0,0,0,0,0,1,0,0,0,0,0,0,0,0,0,0,0,0,0,0,107.85,407.09,2,0,0.12,0.12,69,8.33,0.12,0.12,8.38,FLYING,CF1-J,0:/Integrated Flight Computer/aircraft/cf1_j_cfg.ks (inferred preloaded)
8.74,APPROACH,ILS_TRACK,66.92,70,3.08,931.69,-3.9,3.6,6.66,270.01,0.022,0.5103,0,14.534,1,0.6,4.5,0.75,0.35,0.0168,0.4,0,55,0,-3.075,0,270.06,-2.924,0,1,-3.34,0,0,-2.92,270.07,-0.8179,0.0011,0.5754,-2.92,270.06,-1.81,-0.05,16.364,0.063,0.076,1,3,965.65,-0.076,-2.924,931.9,0,0,0,269.99,0,0,0,0,0,0,0,0,0,0,0,0,0,2,2,0,0,VALID,0,0,0,0,0,1,0,0,0,0,0,0,0,0,0,0,0,0,0,0,109.96,407.19,2,0,0.12,0.12,72,8.33,0.12,0.12,8.74,FLYING,CF1-J,0:/Integrated Flight Computer/aircraft/cf1_j_cfg.ks (inferred preloaded)
9.1,APPROACH,ILS_TRACK,66.9,70,3.1,930.29,-3.89,3.61,6.66,270.01,0.022,0.5178,0,15.647,1,0.6,4.5,0.75,0.35,0.0168,0.4,0,55,0,-3.101,0,270.07,-2.918,0,1,-3.33,0,0,-2.92,270.07,-0.8179,0.0013,0.5754,-2.92,270.07,-1.81,-0.08,16.338,0.075,0.082,1,3,965.65,-0.073,-2.918,930.52,0,0,0,269.99,0,0,0,0,0,0,0,0,0,0,0,0,0,2,2,0,0,VALID,0,0,0,0,0,1,0,0,0,0,0,0,0,0,0,0,0,0,0,0,112.1,407.28,2,0,0.12,0.12,75,8.33,0.12,0.12,9.1,FLYING,CF1-J,0:/Integrated Flight Computer/aircraft/cf1_j_cfg.ks (inferred preloaded)
9.46,APPROACH,ILS_TRACK,66.89,70,3.11,928.88,-3.89,3.61,6.65,270.01,0.021,0.5242,0,16.767,1,0.6,4.5,0.75,0.35,0.0168,0.4,0,55,0,-3.113,0,270.08,-2.913,0,1,-3.33,0,0,-2.91,270.06,-0.8179,0.0013,0.5753,-2.91,270.08,-1.81,-0.1,16.312,0.076,0.087,1,3,965.65,-0.071,-2.913,929.14,0,0,0,269.99,0,0,0,0,0,0,0,0,0,0,0,0,0,2,2,0,0,VALID,0,0,0,0,0,1,0,0,0,0,0,0,0,0,0,0,0,0,0,0,114.25,407.36,2,0,0.12,0.12,78,8.33,0.12,0.12,9.46,FLYING,CF1-J,0:/Integrated Flight Computer/aircraft/cf1_j_cfg.ks (inferred preloaded)
9.82,APPROACH,ILS_TRACK,66.89,70,3.11,927.49,-3.88,3.6,6.64,270.01,0.02,0.5295,0,17.887,1,0.6,4.5,0.75,0.35,0.0168,0.4,0,55,0,-3.111,0,270.07,-2.909,0,1,-3.32,0,0,-2.91,270.08,-0.8179,0.0011,0.5753,-2.91,270.07,-1.8,-0.13,16.285,0.067,0.091,1,3,965.65,-0.065,-2.909,927.77,0,0,0,269.99,0,0,0,0,0,0,0,0,0,0,0,0,0,2,2,0,0,VALID,0,0,0,0,0,1,0,0,0,0,0,0,0,0,0,0,0,0,0,0,116.41,407.43,2,0,0.12,0.12,81,8.33,0.12,0.12,9.82,FLYING,CF1-J,0:/Integrated Flight Computer/aircraft/cf1_j_cfg.ks (inferred preloaded)
10.18,APPROACH,ILS_TRACK,66.91,70,3.09,926.09,-3.88,3.59,6.62,270.01,0.02,0.5338,0,19.004,1,0.6,4.5,0.75,0.35,0.0168,0.4,0,55,0,-3.095,0,270.07,-2.906,0,1,-3.32,0,0,-2.91,270.07,-0.8179,0.0011,0.5753,-2.91,270.07,-1.79,-0.15,16.259,0.066,0.094,1,3,965.65,-0.061,-2.906,926.39,0,0,0,269.99,0,0,0,0,0,0,0,0,0,0,0,0,0,2,2,0,0,VALID,0,0,0,0,0,1,0,0,0,0,0,0,0,0,0,0,0,0,0,0,118.56,407.49,2,0,0.12,0.12,84,8.33,0.12,0.12,10.18,FLYING,CF1-J,0:/Integrated Flight Computer/aircraft/cf1_j_cfg.ks (inferred preloaded)
10.54,APPROACH,ILS_TRACK,66.94,70,3.06,924.69,-3.87,3.57,6.6,270.01,0.019,0.535,0,20,1,0.6,4.5,0.75,0.35,0.0168,0.4,0,55,0,-3.065,0,270.07,-2.903,0,1,-3.31,0,0,-2.9,270.07,-0.8179,0.0011,0.5753,-2.9,270.07,-1.79,-0.17,16.233,0.066,0.097,1,3,965.65,-0.057,-2.903,925.02,0,0,0,269.99,0,0,0,0,0,0,0,0,0,0,0,0,0,2,2,0,0,VALID,0,0,0,0,0,1,0,0,0,0,0,0,0,0,0,0,0,0,0,0,120.7,407.55,2,0,0.12,0.12,87,8.33,0.12,0.12,10.54,FLYING,CF1-J,0:/Integrated Flight Computer/aircraft/cf1_j_cfg.ks (inferred preloaded)
10.9,APPROACH,ILS_TRACK,66.98,70,3.02,923.29,-3.86,3.54,6.57,270.01,0.019,0.5186,0,20,1,0.6,4.5,0.75,0.35,0.0168,0.4,0,55,0,-3.021,0,270.06,-2.9,0,1,-3.3,0,0,-2.9,270.07,-0.8179,0.001,0.5753,-2.9,270.06,-1.78,-0.19,16.207,0.062,0.1,1,3,965.65,-0.053,-2.9,923.64,0,0,0,269.99,0,0,0,0,0,0,0,0,0,0,0,0,0,2,2,0,0,VALID,0,0,0,0,0,1,0,0,0,0,0,0,0,0,0,0,0,0,0,0,122.75,407.59,2,0,0.12,0.12,90,8.33,0.12,0.12,10.9,FLYING,CF1-J,0:/Integrated Flight Computer/aircraft/cf1_j_cfg.ks (inferred preloaded)
11.26,APPROACH,ILS_TRACK,67.04,70,2.96,921.9,-3.86,3.51,6.53,270.01,0.019,0.5018,0,20,1,0.6,4.5,0.75,0.35,0.0168,0.4,0,55,0,-2.965,0,270.06,-2.898,0,1,-3.3,0,0,-2.9,270.07,-0.8179,0.001,0.5753,-2.9,270.06,-1.78,-0.21,16.18,0.061,0.102,1,3,965.65,-0.049,-2.898,922.26,0,0,0,269.99,0,0,0,0,0,0,0,0,0,0,0,0,0,2,2,0,0,VALID,0,0,0,0,0,1,0,0,0,0,0,0,0,0,0,0,0,0,0,0,124.62,407.63,2,0,0.12,0.12,93,8.33,0.12,0.12,11.26,FLYING,CF1-J,0:/Integrated Flight Computer/aircraft/cf1_j_cfg.ks (inferred preloaded)
11.62,APPROACH,ILS_TRACK,67.11,70,2.89,920.5,-3.86,3.48,6.49,270.01,0.018,0.4849,0,20,1,0.6,4.5,0.75,0.35,0.0168,0.4,0,55,0,-2.897,0,270.07,-2.899,0,1,-3.29,0,0,-2.9,270.06,-0.8179,0.0011,0.5753,-2.9,270.07,-1.77,-0.23,16.154,0.067,0.101,1,3,965.65,-0.042,-2.899,920.88,0,0,0,269.99,0,0,0,0,0,0,0,0,0,0,0,0,0,2,2,0,0,VALID,0,0,0,0,0,1,0,0,0,0,0,0,0,0,0,0,0,0,0,0,126.3,407.66,2,0,0.12,0.12,96,8.33,0.12,0.12,11.62,FLYING,CF1-J,0:/Integrated Flight Computer/aircraft/cf1_j_cfg.ks (inferred preloaded)
11.98,APPROACH,ILS_TRACK,67.19,70,2.81,919.11,-3.86,3.45,6.45,270.01,0.017,0.4682,0,20,1,0.6,4.5,0.75,0.35,0.0168,0.4,0,55,0,-2.819,0,270.07,-2.898,0,1,-3.28,0,0,-2.9,270.07,-0.8179,0.0012,0.5754,-2.9,270.07,-1.77,-0.24,16.128,0.069,0.102,1,3,965.65,-0.037,-2.898,919.5,0,0,0,269.99,0,0,0,0,0,0,0,0,0,0,0,0,0,2,2,0,0,VALID,0,0,0,0,0,1,0,0,0,0,0,0,0,0,0,0,0,0,0,0,127.79,407.68,2,0,0.12,0.12,99,8.33,0.12,0.12,11.98,FLYING,CF1-J,0:/Integrated Flight Computer/aircraft/cf1_j_cfg.ks (inferred preloaded)
12.34,APPROACH,ILS_TRACK,67.27,70,2.73,917.71,-3.85,3.41,6.41,270.01,0.017,0.452,0,20,1,0.6,4.5,0.75,0.35,0.0168,0.4,0,55,0,-2.731,0,270.07,-2.9,0,1,-3.28,0,0,-2.9,270.06,-0.8179,0.0011,0.5754,-2.9,270.07,-1.77,-0.25,16.101,0.068,0.1,1,3,965.65,-0.031,-2.9,918.12,0,0,0,269.99,0,0,0,0,0,0,0,0,0,0,0,0,0,2,2,0,0,VALID,0,0,0,0,0,1,0,0,0,0,0,0,0,0,0,0,0,0,0,0,129.1,407.7,2,0,0.12,0.12,102,8.33,0.12,0.12,12.34,FLYING,CF1-J,0:/Integrated Flight Computer/aircraft/cf1_j_cfg.ks (inferred preloaded)
12.7,APPROACH,ILS_TRACK,67.37,70,2.63,916.32,-3.85,3.37,6.36,270.01,0.016,0.4364,0,20,1,0.6,4.5,0.75,0.35,0.0168,0.4,0,55,0,-2.635,0,270.07,-2.902,0,1,-3.27,0,0,-2.9,270.07,-0.8178,0.0011,0.5755,-2.9,270.07,-1.76,-0.26,16.075,0.068,0.098,1,3,965.65,-0.025,-2.902,916.74,0,0,0,269.99,0,0,0,0,0,0,0,0,0,0,0,0,0,2,2,0,0,VALID,0,0,0,0,0,1,0,0,0,0,0,0,0,0,0,0,0,0,0,0,130.25,407.71,2,0,0.12,0.12,105,8.33,0.12,0.12,12.7,FLYING,CF1-J,0:/Integrated Flight Computer/aircraft/cf1_j_cfg.ks (inferred preloaded)
13.06,APPROACH,ILS_TRACK,67.47,70,2.53,914.93,-3.85,3.32,6.31,270.01,0.015,0.4213,0,20,1,0.6,4.5,0.75,0.35,0.0168,0.4,0,55,0,-2.532,0,270.06,-2.905,0,1,-3.27,0,0,-2.9,270.07,-0.8178,0.0011,0.5756,-2.9,270.06,-1.76,-0.27,16.048,0.065,0.095,1,3,965.65,-0.019,-2.905,915.35,0,0,0,269.99,0,0,0,0,0,0,0,0,0,0,0,0,0,2,2,0,0,VALID,0,0,0,0,0,1,0,0,0,0,0,0,0,0,0,0,0,0,0,0,131.23,407.72,2,0,0.12,0.12,108,8.33,0.12,0.12,13.06,FLYING,CF1-J,0:/Integrated Flight Computer/aircraft/cf1_j_cfg.ks (inferred preloaded)
13.42,APPROACH,ILS_TRACK,67.58,70,2.42,913.53,-3.85,3.28,6.26,270.01,0.015,0.4069,0,20,1,0.6,4.5,0.75,0.35,0.0168,0.4,0,55,0,-2.424,0,270.06,-2.909,0,1,-3.26,0,0,-2.91,270.07,-0.8177,0.0011,0.5757,-2.91,270.06,-1.75,-0.27,16.022,0.065,0.091,1,3,965.65,-0.012,-2.909,913.96,0,0,0,269.99,0,0,0,0,0,0,0,0,0,0,0,0,0,2,2,0,0,VALID,0,0,0,0,0,1,0,0,0,0,0,0,0,0,0,0,0,0,0,0,132.07,407.72,2,0,0.12,0.12,111,8.33,0.12,0.12,13.42,FLYING,CF1-J,0:/Integrated Flight Computer/aircraft/cf1_j_cfg.ks (inferred preloaded)
13.78,APPROACH,ILS_TRACK,67.7,70,2.3,912.14,-3.85,3.23,6.21,270.01,0.014,0.3933,0,20,1,0.6,4.5,0.75,0.35,0.0168,0.4,0,55,0,-2.31,0,270.07,-2.912,0,1,-3.25,0,0,-2.91,270.06,-0.8176,0.0011,0.5757,-2.91,270.07,-1.75,-0.28,15.995,0.065,0.088,1,3,965.65,-0.007,-2.912,912.57,0,0,0,269.99,0,0,0,0,0,0,0,0,0,0,0,0,0,2,2,0,0,VALID,0,0,0,0,0,1,0,0,0,0,0,0,0,0,0,0,0,0,0,0,132.76,407.72,2,0,0.12,0.12,114,8.33,0.12,0.12,13.78,FLYING,CF1-J,0:/Integrated Flight Computer/aircraft/cf1_j_cfg.ks (inferred preloaded)
14.14,APPROACH,ILS_TRACK,67.81,70,2.19,910.75,-3.85,3.19,6.16,270.01,0.013,0.3802,0,20,1,0.6,4.5,0.75,0.35,0.0168,0.4,0,55,0,-2.193,0,270.06,-2.918,0,1,-3.25,0,0,-2.91,270.07,-0.8175,0.0011,0.5759,-2.92,270.06,-1.74,-0.28,15.969,0.063,0.082,1,3,965.65,0.001,-2.918,911.18,0,0,0,269.99,0,0,0,0,0,0,0,0,0,0,0,0,0,2,2,0,0,VALID,0,0,0,0,0,1,0,0,0,0,0,0,0,0,0,0,0,0,0,0,133.31,407.72,2,0,0.12,0.12,117,8.33,0.12,0.12,14.14,FLYING,CF1-J,0:/Integrated Flight Computer/aircraft/cf1_j_cfg.ks (inferred preloaded)
14.5,APPROACH,ILS_TRACK,67.93,70,2.07,909.36,-3.85,3.14,6.11,270.01,0.013,0.3679,0,20,1,0.6,4.5,0.75,0.35,0.0168,0.4,0,55,0,-2.072,0,270.07,-2.924,0,1,-3.24,0,0,-2.92,270.07,-0.8175,0.0012,0.576,-2.92,270.07,-1.74,-0.28,15.942,0.071,0.076,1,3,965.65,0.008,-2.924,909.78,0,0,0,269.99,0,0,0,0,0,0,0,0,0,0,0,0,0,2,2,0,0,VALID,0,0,0,0,0,1,0,0,0,0,0,0,0,0,0,0,0,0,0,0,133.75,407.72,2,0,0.12,0.12,120,8.33,0.12,0.12,14.5,FLYING,CF1-J,0:/Integrated Flight Computer/aircraft/cf1_j_cfg.ks (inferred preloaded)
14.86,APPROACH,ILS_TRACK,68.06,70,1.94,907.96,-3.85,3.09,6.06,270.01,0.013,0.3563,0,20,1,0.6,4.5,0.75,0.35,0.0168,0.4,0,55,0,-1.95,0,270.07,-2.93,0,1,-3.24,0,0,-2.93,270.06,-0.8174,0.0012,0.5761,-2.93,270.07,-1.74,-0.27,15.916,0.072,0.07,1,3,965.65,0.014,-2.93,908.39,0,0,0,269.99,0,0,0,0,0,0,0,0,0,0,0,0,0,2,2,0,0,VALID,0,0,0,0,0,1,0,0,0,0,0,0,0,0,0,0,0,0,0,0,134.06,407.72,2,0,0.12,0.12,123,8.33,0.12,0.12,14.86,FLYING,CF1-J,0:/Integrated Flight Computer/aircraft/cf1_j_cfg.ks (inferred preloaded)
15.22,APPROACH,ILS_TRACK,68.18,70,1.82,906.57,-3.85,3.05,6.01,270.01,0.011,0.3455,0,20,1,0.6,4.5,0.75,0.35,0.0168,0.4,0,55,0,-1.826,0,270.06,-2.938,0,1,-3.23,0,0,-2.93,270.07,-0.8173,0.0011,0.5763,-2.94,270.06,-1.74,-0.26,15.889,0.063,0.062,1,3,965.65,0.021,-2.938,906.99,0,0,0,269.99,0,0,0,0,0,0,0,0,0,0,0,0,0,2,2,0,0,VALID,0,0,0,0,0,1,0,0,0,0,0,0,0,0,0,0,0,0,0,0,134.28,407.71,2,0,0.12,0.12,126,8.33,0.12,0.12,15.22,FLYING,CF1-J,0:/Integrated Flight Computer/aircraft/cf1_j_cfg.ks (inferred preloaded)
15.58,APPROACH,ILS_TRACK,68.31,70,1.69,905.18,-3.85,3,5.96,270.01,0.011,0.3353,0,20,1,0.6,4.5,0.75,0.35,0.0168,0.4,0,55,0,-1.701,0,270.07,-2.945,0,1,-3.23,0,0,-2.94,270.07,-0.8172,0.0012,0.5764,-2.95,270.07,-1.73,-0.26,15.862,0.074,0.055,1,3,965.65,0.027,-2.945,905.59,0,0,0,269.99,0,0,0,0,0,0,0,0,0,0,0,0,0,2,2,0,0,VALID,0,0,0,0,0,1,0,0,0,0,0,0,0,0,0,0,0,0,0,0,134.39,407.7,2,0,0.12,0.12,129,8.33,0.12,0.12,15.58,FLYING,CF1-J,0:/Integrated Flight Computer/aircraft/cf1_j_cfg.ks (inferred preloaded)
15.94,APPROACH,ILS_TRACK,68.43,70,1.57,903.78,-3.85,2.96,5.91,270.01,0.011,0.3258,0,20,1,0.6,4.5,0.75,0.35,0.0168,0.4,0,55,0,-1.576,0,270.06,-2.954,0,1,-3.22,0,0,-2.95,270.07,-0.817,0.0011,0.5766,-2.95,270.06,-1.73,-0.24,15.835,0.063,0.046,1,3,965.65,0.034,-2.954,904.18,0,0,0,269.99,0,0,0,0,0,0,0,0,0,0,0,0,0,2,2,0,0,VALID,0,0,0,0,0,1,0,0,0,0,0,0,0,0,0,0,0,0,0,0,134.41,407.7,2,0,0.12,0.12,132,8.33,0.12,0.12,15.94,FLYING,CF1-J,0:/Integrated Flight Computer/aircraft/cf1_j_cfg.ks (inferred preloaded)
16.3,APPROACH,ILS_TRACK,68.55,70,1.45,902.39,-3.85,2.91,5.86,270,0.01,0.3171,0,20,1,0.6,4.5,0.75,0.35,0.0168,0.4,0,55,0,-1.452,0,270.07,-2.963,0,1,-3.21,0,0,-2.96,270.06,-0.8169,0.0012,0.5767,-2.96,270.07,-1.73,-0.23,15.808,0.069,0.037,1,3,965.65,0.04,-2.963,902.78,0,0,0,269.99,0,0,0,0,0,0,0,0,0,0,0,0,0,2,2,0,0,VALID,0,0,0,0,0,1,0,0,0,0,0,0,0,0,0,0,0,0,0,0,134.18,407.69,2,0,0.12,0.12,135,8.33,0.12,0.12,16.3,FLYING,CF1-J,0:/Integrated Flight Computer/aircraft/cf1_j_cfg.ks (inferred preloaded)
16.66,APPROACH,ILS_TRACK,68.68,70,1.32,901,-3.85,2.87,5.81,270,0.01,0.3097,0,20,1,0.6,4.5,0.75,0.35,0.0168,0.4,0,55,0,-1.33,0,270.07,-2.975,0,1,-3.21,0,0,-2.97,270.07,-0.8168,0.0012,0.5769,-2.97,270.07,-1.73,-0.21,15.782,0.07,0.025,1,3,965.65,0.048,-2.975,901.37,0,0,0,269.99,0,0,0,0,0,0,0,0,0,0,0,0,0,2,2,0,0,VALID,0,0,0,0,0,1,0,0,0,0,0,0,0,0,0,0,0,0,0,0,133.68,407.69,2,0,0.12,0.12,138,8.33,0.12,0.12,16.66,FLYING,CF1-J,0:/Integrated Flight Computer/aircraft/cf1_j_cfg.ks (inferred preloaded)
17.02,APPROACH,ILS_TRACK,68.79,70,1.21,899.61,-3.85,2.83,5.77,270,0.01,0.304,0,20,1,0.6,4.5,0.75,0.35,0.0168,0.4,0,55,0,-1.213,0,270.07,-2.985,0,1,-3.2,0,0,-2.98,270.07,-0.8167,0.0012,0.5771,-2.99,270.07,-1.72,-0.19,15.755,0.068,0.015,1,3,965.65,0.055,-2.985,899.95,0,0,0,269.99,0,0,0,0,0,0,0,0,0,0,0,0,0,2,2,0,0,VALID,0,0,0,0,0,1,0,0,0,0,0,0,0,0,0,0,0,0,0,0,132.98,407.69,2,0,0.12,0.12,141,8.33,0.12,0.12,17.02,FLYING,CF1-J,0:/Integrated Flight Computer/aircraft/cf1_j_cfg.ks (inferred preloaded)
17.38,APPROACH,ILS_TRACK,68.91,70,1.09,898.21,-3.85,2.79,5.72,270,0.009,0.3,0,20,1,0.6,4.5,0.75,0.35,0.0168,0.4,0,55,0,-1.1,0,270.07,-2.998,0,1,-3.2,0,0,-2.99,270.07,-0.8165,0.0011,0.5773,-3,270.07,-1.72,-0.17,15.728,0.066,0.002,1,3,965.65,0.062,-2.998,898.54,0,0,0,269.99,0,0,0,0,0,0,0,0,0,0,0,0,0,2,2,0,0,VALID,0,0,0,0,0,1,0,0,0,0,0,0,0,0,0,0,0,0,0,0,132.16,407.69,2,0,0.12,0.12,144,8.33,0.12,0.12,17.38,FLYING,CF1-J,0:/Integrated Flight Computer/aircraft/cf1_j_cfg.ks (inferred preloaded)
17.74,APPROACH,ILS_TRACK,69.01,70,0.99,896.82,-3.85,2.76,5.69,270,0.009,0.2973,0,20,1,0.6,4.5,0.75,0.35,0.0168,0.4,0,55,0,-0.994,0,270.07,-3.01,0,1,-3.19,0,0,-3.01,270.06,-0.8164,0.0012,0.5775,-3.01,270.07,-1.72,-0.15,15.701,0.071,-0.01,1,3,965.65,0.068,-3.01,897.13,0,0,0,269.99,0,0,0,0,0,0,0,0,0,0,0,0,0,2,2,0,0,VALID,0,0,0,0,0,1,0,0,0,0,0,0,0,0,0,0,0,0,0,0,131.28,407.7,2,0,0.12,0.12,147,8.33,0.12,0.12,17.74,FLYING,CF1-J,0:/Integrated Flight Computer/aircraft/cf1_j_cfg.ks (inferred preloaded)
18.1,APPROACH,ILS_TRACK,69.11,70,0.89,895.43,-3.85,2.72,5.65,270,0.009,0.2957,0,20,1,0.6,4.5,0.75,0.35,0.0168,0.4,0,55,0,-0.894,0,270.07,-3.021,0,1,-3.19,0,0,-3.02,270.07,-0.8162,0.0012,0.5777,-3.02,270.07,-1.72,-0.12,15.674,0.068,-0.021,1,3,965.65,0.073,-3.021,895.71,0,0,0,269.99,0,0,0,0,0,0,0,0,0,0,0,0,0,2,2,0,0,VALID,0,0,0,0,0,1,0,0,0,0,0,0,0,0,0,0,0,0,0,0,130.4,407.71,2,0,0.12,0.12,150,8.33,0.12,0.12,18.1,FLYING,CF1-J,0:/Integrated Flight Computer/aircraft/cf1_j_cfg.ks (inferred preloaded)
18.46,APPROACH,ILS_TRACK,69.21,70,0.79,894.04,-3.85,2.69,5.62,270,0.009,0.2948,0,20,1,0.6,4.5,0.75,0.35,0.0168,0.4,0,55,0,-0.799,0,270.07,-3.035,0,1,-3.19,0,0,-3.03,270.07,-0.8161,0.0012,0.578,-3.03,270.07,-1.72,-0.1,15.646,0.069,-0.035,1,3,965.65,0.079,-3.035,894.29,0,0,0,269.99,0,0,0,0,0,0,0,0,0,0,0,0,0,2,2,0,0,VALID,0,0,0,0,0,1,0,0,0,0,0,0,0,0,0,0,0,0,0,0,129.54,407.72,2,0,0.12,0.12,153,8.33,0.12,0.12,18.46,FLYING,CF1-J,0:/Integrated Flight Computer/aircraft/cf1_j_cfg.ks (inferred preloaded)
18.82,APPROACH,ILS_TRACK,69.29,70,0.71,892.65,-3.85,2.66,5.58,270,0.009,0.2943,0,20,1,0.6,4.5,0.75,0.35,0.0168,0.4,0,55,0,-0.711,0,270.07,-3.047,0,1,-3.18,0,0,-3.04,270.07,-0.8159,0.0012,0.5782,-3.05,270.07,-1.72,-0.07,15.619,0.068,-0.047,1,3,965.65,0.084,-3.047,892.87,0,0,0,269.99,0,0,0,0,0,0,0,0,0,0,0,0,0,2,2,0,0,VALID,0,0,0,0,0,1,0,0,0,0,0,0,0,0,0,0,0,0,0,0,128.73,407.74,2,0,0.12,0.12,156,8.33,0.12,0.12,18.82,FLYING,CF1-J,0:/Integrated Flight Computer/aircraft/cf1_j_cfg.ks (inferred preloaded)
19.18,APPROACH,ILS_TRACK,69.38,70,0.62,891.25,-3.85,2.64,5.55,270,0.01,0.294,0,20,1,0.6,4.5,0.75,0.35,0.0168,0.4,0,55,0,-0.628,0,270.07,-3.06,0,1,-3.18,0,0,-3.05,270.07,-0.8158,0.0011,0.5784,-3.06,270.07,-1.72,-0.04,15.592,0.068,-0.06,1,3,965.65,0.088,-3.06,891.44,0,0,0,269.99,0,0,0,0,0,0,0,0,0,0,0,0,0,2,2,0,0,VALID,0,0,0,0,0,1,0,0,0,0,0,0,0,0,0,0,0,0,0,0,127.98,407.76,2,0,0.12,0.12,159,8.33,0.12,0.12,19.18,FLYING,CF1-J,0:/Integrated Flight Computer/aircraft/cf1_j_cfg.ks (inferred preloaded)
19.54,APPROACH,ILS_TRACK,69.45,70,0.55,889.86,-3.86,2.61,5.52,270,0.01,0.2939,0,20,1,0.6,4.5,0.75,0.35,0.0168,0.4,0,55,0,-0.551,0,270.07,-3.072,0,1,-3.18,0,0,-3.07,270.07,-0.8156,0.0012,0.5786,-3.07,270.07,-1.72,0,15.565,0.073,-0.072,1,3,965.65,0.091,-3.072,890.02,0,0,0,269.99,0,0,0,0,0,0,0,0,0,0,0,0,0,2,2,0,0,VALID,0,0,0,0,0,1,0,0,0,0,0,0,0,0,0,0,0,0,0,0,127.29,407.78,2,0,0.12,0.12,162,8.33,0.12,0.12,19.54,FLYING,CF1-J,0:/Integrated Flight Computer/aircraft/cf1_j_cfg.ks (inferred preloaded)
19.9,APPROACH,ILS_TRACK,69.53,70,0.47,888.47,-3.86,2.58,5.5,270,0.01,0.2937,0,20,1,0.6,4.5,0.75,0.35,0.0168,0.4,0,55,0,-0.478,0,270.07,-3.085,0,1,-3.18,0,0,-3.08,270.07,-0.8154,0.0012,0.5788,-3.09,270.07,-1.72,0.03,15.538,0.068,-0.085,1,3,965.65,0.095,-3.085,888.59,0,0,0,269.99,0,0,0,0,0,0,0,0,0,0,0,0,0,2,2,0,0,VALID,0,0,0,0,0,1,0,0,0,0,0,0,0,0,0,0,0,0,0,0,126.65,407.81,2,0,0.12,0.12,165,8.33,0.12,0.12,19.9,FLYING,CF1-J,0:/Integrated Flight Computer/aircraft/cf1_j_cfg.ks (inferred preloaded)
20.26,APPROACH,ILS_TRACK,69.59,70,0.41,887.08,-3.86,2.56,5.47,270,0.011,0.2935,0,20,1,0.6,4.5,0.75,0.35,0.0168,0.4,0,55,0,-0.41,0,270.07,-3.097,0,1,-3.17,0,0,-3.09,270.07,-0.8153,0.0012,0.579,-3.1,270.07,-1.72,0.07,15.511,0.072,-0.097,1,3,965.65,0.097,-3.097,887.17,0,0,0,269.99,0,0,0,0,0,0,0,0,0,0,0,0,0,2,2,0,0,VALID,0,0,0,0,0,1,0,0,0,0,0,0,0,0,0,0,0,0,0,0,126.07,407.84,2,0,0.12,0.12,168,8.33,0.12,0.12,20.26,FLYING,CF1-J,0:/Integrated Flight Computer/aircraft/cf1_j_cfg.ks (inferred preloaded)
20.62,APPROACH,ILS_TRACK,69.66,70,0.34,885.68,-3.86,2.54,5.45,270,0.011,0.2932,0,20,1,0.6,4.5,0.75,0.35,0.0168,0.4,0,55,0,-0.345,0,270.07,-3.109,0,1,-3.17,0,0,-3.1,270.07,-0.8151,0.0012,0.5792,-3.11,270.07,-1.72,0.1,15.483,0.071,-0.109,1,3,965.65,0.098,-3.109,885.74,0,0,0,269.99,0,0,0,0,0,0,0,0,0,0,0,0,0,2,2,0,0,VALID,0,0,0,0,0,1,0,0,0,0,0,0,0,0,0,0,0,0,0,0,125.52,407.87,2,0,0.12,0.12,171,8.33,0.12,0.12,20.62,FLYING,CF1-J,0:/Integrated Flight Computer/aircraft/cf1_j_cfg.ks (inferred preloaded)
20.98,APPROACH,ILS_TRACK,69.72,70,0.28,884.29,-3.86,2.52,5.43,270,0.011,0.2929,0,20,1,0.6,4.5,0.75,0.35,0.0168,0.4,0,55,0,-0.284,0,270.07,-3.12,0,1,-3.17,0,0,-3.12,270.07,-0.815,0.0012,0.5794,-3.12,270.07,-1.72,0.14,15.456,0.072,-0.12,1,3,965.65,0.099,-3.12,884.31,0,0,0,269.99,0,0,0,0,0,0,0,0,0,0,0,0,0,2,2,0,0,VALID,0,0,0,0,0,1,0,0,0,0,0,0,0,0,0,0,0,0,0,0,125.02,407.91,2,0,0.12,0.12,174,8.33,0.12,0.12,20.98,FLYING,CF1-J,0:/Integrated Flight Computer/aircraft/cf1_j_cfg.ks (inferred preloaded)
21.34,APPROACH,ILS_TRACK,69.78,70,0.22,882.9,-3.86,2.49,5.41,270,0.011,0.2924,0,20,1,0.6,4.5,0.75,0.35,0.0168,0.4,0,55,0,-0.227,0,270.07,-3.132,0,1,-3.17,0,0,-3.13,270.07,-0.8149,0.0012,0.5796,-3.13,270.07,-1.72,0.17,15.429,0.072,-0.132,1,3,965.65,0.1,-3.132,882.88,0,0,0,269.99,0,0,0,0,0,0,0,0,0,0,0,0,0,2,2,0,0,VALID,0,0,0,0,0,1,0,0,0,0,0,0,0,0,0,0,0,0,0,0,124.55,407.94,2,0,0.12,0.12,177,8.33,0.12,0.12,21.34,FLYING,CF1-J,0:/Integrated Flight Computer/aircraft/cf1_j_cfg.ks (inferred preloaded)
21.7,APPROACH,ILS_TRACK,69.83,70,0.17,881.5,-3.87,2.47,5.39,270,0.012,0.292,0,20,1,0.6,4.5,0.75,0.35,0.0168,0.4,0,55,0,-0.173,0,270.07,-3.143,0,1,-3.17,0,0,-3.14,270.07,-0.8147,0.0012,0.5798,-3.14,270.07,-1.73,0.21,15.401,0.071,-0.143,1,3,965.65,0.1,-3.143,881.45,0,0,0,269.99,0,0,0,0,0,0,0,0,0,0,0,0,0,2,2,0,0,VALID,0,0,0,0,0,1,0,0,0,0,0,0,0,0,0,0,0,0,0,0,124.1,407.98,2,0,0.12,0.12,180,8.33,0.12,0.12,21.7,FLYING,CF1-J,0:/Integrated Flight Computer/aircraft/cf1_j_cfg.ks (inferred preloaded)
22.06,APPROACH,ILS_TRACK,69.88,70,0.12,880.1,-3.87,2.45,5.37,270,0.013,0.2915,0,20,1,0.6,4.5,0.75,0.35,0.0168,0.4,0,55,0,-0.121,0,270.07,-3.153,0,1,-3.17,0,0,-3.15,270.07,-0.8146,0.0012,0.58,-3.15,270.07,-1.73,0.24,15.374,0.074,-0.153,1,3,965.65,0.1,-3.153,880.02,0,0,0,269.99,0,0,0,0,0,0,0,0,0,0,0,0,0,2,2,0,0,VALID,0,0,0,0,0,1,0,0,0,0,0,0,0,0,0,0,0,0,0,0,123.68,408.02,2,0,0.12,0.12,183,8.33,0.12,0.12,22.06,FLYING,CF1-J,0:/Integrated Flight Computer/aircraft/cf1_j_cfg.ks (inferred preloaded)
22.42,APPROACH,ILS_TRACK,69.93,70,0.07,878.71,-3.88,2.43,5.35,270,0.014,0.291,0,20,1,0.6,4.5,0.75,0.35,0.0168,0.4,0,55,0,-0.073,0,270.07,-3.163,0,1,-3.17,0,0,-3.16,270.07,-0.8145,0.0012,0.5802,-3.16,270.07,-1.73,0.28,15.347,0.069,-0.163,1,3,965.65,0.099,-3.163,878.58,0,0,0,269.99,0,0,0,0,0,0,0,0,0,0,0,0,0,2,2,0,0,VALID,0,0,0,0,0,1,0,0,0,0,0,0,0,0,0,0,0,0,0,0,123.28,408.07,2,0,0.12,0.12,186,8.33,0.12,0.12,22.42,FLYING,CF1-J,0:/Integrated Flight Computer/aircraft/cf1_j_cfg.ks (inferred preloaded)
22.78,APPROACH,ILS_TRACK,69.98,70,0.02,877.31,-3.88,2.42,5.33,270,0.015,0.2905,0,20,1,0.6,4.5,0.75,0.35,0.0168,0.4,0,55,0,-0.027,0,270.07,-3.173,0,1,-3.17,0,0,-3.17,270.07,-0.8143,0.0012,0.5804,-3.17,270.07,-1.73,0.32,15.319,0.072,-0.173,1,3,965.65,0.098,-3.173,877.15,0,0,0,269.99,0,0,0,0,0,0,0,0,0,0,0,0,0,2,2,0,0,VALID,0,0,0,0,0,1,0,0,0,0,0,0,0,0,0,0,0,0,0,0,122.9,408.11,2,0,0.12,0.12,189,8.33,0.12,0.12,22.78,FLYING,CF1-J,0:/Integrated Flight Computer/aircraft/cf1_j_cfg.ks (inferred preloaded)
23.14,APPROACH,ILS_TRACK,70.02,70,-0.02,875.91,-3.88,2.4,5.31,270,0.015,0.2899,0,19.998,1,0.6,4.5,0.75,0.35,0.0168,0.4,0,54.995,0,0.017,0,270.07,-3.182,0,1,-3.17,0,0,-3.18,270.07,-0.8142,0.0013,0.5805,-3.18,270.07,-1.73,0.35,15.292,0.075,-0.182,1,3,965.65,0.096,-3.182,875.71,0,0,0,269.99,0,0,0,0,0,0,0,0,0,0,0,0,0,2,2,0,0,VALID,0,0,0,0,0,1,0,0,0,0,0,0,0,0,0,0,0,0,0,0,122.53,408.16,2,0,0.12,0.12,192,8.33,0.12,0.12,23.14,FLYING,CF1-J,0:/Integrated Flight Computer/aircraft/cf1_j_cfg.ks (inferred preloaded)
23.5,APPROACH,ILS_TRACK,70.06,70,-0.06,874.51,-3.89,2.38,5.3,270,0.016,0.2892,0,19.982,1,0.6,4.5,0.75,0.35,0.0168,0.4,0,54.983,0,0.058,0,270.08,-3.19,0,1,-3.18,0,0,-3.19,270.07,-0.8141,0.0013,0.5807,-3.19,270.08,-1.74,0.38,15.265,0.077,-0.19,1,3,965.65,0.094,-3.19,874.28,0,0,0,269.99,0,0,0,0,0,0,0,0,0,0,0,0,0,2,2,0,0,VALID,0,0,0,0,0,1,0,0,0,0,0,0,0,0,0,0,0,0,0,0,122.18,408.21,2,0,0.12,0.12,195,8.33,0.12,0.12,23.5,FLYING,CF1-J,0:/Integrated Flight Computer/aircraft/cf1_j_cfg.ks (inferred preloaded)
23.86,APPROACH,ILS_TRACK,70.1,70,-0.1,873.1,-3.89,2.36,5.28,270,0.017,0.2883,0,19.952,1,0.6,4.5,0.75,0.35,0.0168,0.4,0,54.971,0,0.097,0,270.07,-3.198,0,1,-3.18,0,0,-3.19,270.07,-0.814,0.0012,0.5809,-3.2,270.07,-1.73,0.42,15.237,0.07,-0.198,1,3,965.65,0.091,-3.198,872.84,0,0,0,269.99,0,0,0,0,0,0,0,0,0,0,0,0,0,2,2,0,0,VALID,0,0,0,0,0,1,0,0,0,0,0,0,0,0,0,0,0,0,0,0,121.83,408.26,2,0,0.12,0.12,198,8.33,0.12,0.12,23.86,FLYING,CF1-J,0:/Integrated Flight Computer/aircraft/cf1_j_cfg.ks (inferred preloaded)
24.22,APPROACH,ILS_TRACK,70.14,70,-0.14,871.7,-3.9,2.35,5.27,270,0.018,0.2872,0,19.908,1,0.6,4.5,0.75,0.35,0.0168,0.4,0,54.96,0,0.133,0,270.07,-3.206,0,1,-3.18,0,0,-3.2,270.07,-0.8139,0.0012,0.581,-3.21,270.07,-1.74,0.45,15.21,0.073,-0.206,1,3,965.65,0.088,-3.206,871.4,0,0,0,269.99,0,0,0,0,0,0,0,0,0,0,0,0,0,2,2,0,0,VALID,0,0,0,0,0,1,0,0,0,0,0,0,0,0,0,0,0,0,0,0,121.48,408.31,2,0,0.12,0.12,201,8.33,0.12,0.12,24.22,FLYING,CF1-J,0:/Integrated Flight Computer/aircraft/cf1_j_cfg.ks (inferred preloaded)
24.58,APPROACH,ILS_TRACK,70.17,70,-0.17,870.29,-3.9,2.33,5.26,270,0.019,0.2861,0,19.852,1,0.6,4.5,0.75,0.35,0.0168,0.4,0,54.95,0,0.168,0,270.07,-3.212,0,1,-3.18,0,0,-3.21,270.07,-0.8138,0.0012,0.5811,-3.21,270.07,-1.74,0.48,15.182,0.07,-0.212,1,3,965.65,0.085,-3.212,869.97,0,0,0,269.99,0,0,0,0,0,0,0,0,0,0,0,0,0,2,2,0,0,VALID,0,0,0,0,0,1,0,0,0,0,0,0,0,0,0,0,0,0,0,0,121.12,408.36,2,0,0.12,0.12,204,8.33,0.12,0.12,24.58,FLYING,CF1-J,0:/Integrated Flight Computer/aircraft/cf1_j_cfg.ks (inferred preloaded)
24.94,APPROACH,ILS_TRACK,70.2,70,-0.2,868.88,-3.91,2.32,5.25,270,0.019,0.2849,0,19.783,1,0.6,4.5,0.75,0.35,0.0168,0.4,0,54.94,0,0.2,0,270.07,-3.219,0,1,-3.19,0,0,-3.22,270.07,-0.8137,0.0012,0.5813,-3.22,270.07,-1.74,0.51,15.155,0.071,-0.219,1,3,965.65,0.082,-3.219,868.53,0,0,0,269.99,0,0,0,0,0,0,0,0,0,0,0,0,0,2,2,0,0,VALID,0,0,0,0,0,1,0,0,0,0,0,0,0,0,0,0,0,0,0,0,120.75,408.41,2,0,0.12,0.12,207,8.33,0.12,0.12,24.94,FLYING,CF1-J,0:/Integrated Flight Computer/aircraft/cf1_j_cfg.ks (inferred preloaded)
25.3,APPROACH,ILS_TRACK,70.23,70,-0.23,867.47,-3.91,2.31,5.24,270,0.02,0.2837,0,19.704,1,0.6,4.5,0.75,0.35,0.0168,0.4,0,54.931,0,0.23,0,270.07,-3.224,0,1,-3.19,0,0,-3.22,270.07,-0.8136,0.0012,0.5814,-3.22,270.07,-1.74,0.54,15.128,0.069,-0.224,1,3,965.65,0.078,-3.224,867.09,0,0,0,269.99,0,0,0,0,0,0,0,0,0,0,0,0,0,2,2,0,0,VALID,0,0,0,0,0,1,0,0,0,0,0,0,0,0,0,0,0,0,0,0,120.37,408.47,2,0,0.12,0.12,210,8.33,0.12,0.12,25.3,FLYING,CF1-J,0:/Integrated Flight Computer/aircraft/cf1_j_cfg.ks (inferred preloaded)
25.66,APPROACH,ILS_TRACK,70.26,70,-0.26,866.06,-3.92,2.29,5.23,270,0.021,0.2825,0,19.615,1,0.6,4.5,0.75,0.35,0.0168,0.4,0,54.923,0,0.257,0,270.07,-3.23,0,1,-3.19,0,0,-3.23,270.07,-0.8136,0.0011,0.5815,-3.23,270.07,-1.75,0.57,15.1,0.065,-0.23,1,3,965.65,0.075,-3.23,865.65,0,0,0,269.99,0,0,0,0,0,0,0,0,0,0,0,0,0,2,2,0,0,VALID,0,0,0,0,0,1,0,0,0,0,0,0,0,0,0,0,0,0,0,0,119.99,408.53,2,0,0.12,0.12,213,8.33,0.12,0.12,25.66,FLYING,CF1-J,0:/Integrated Flight Computer/aircraft/cf1_j_cfg.ks (inferred preloaded)
26.02,APPROACH,ILS_TRACK,70.28,70,-0.28,864.65,-3.93,2.28,5.22,270,0.022,0.2814,0,19.516,1,0.6,4.5,0.75,0.35,0.0168,0.4,0,54.915,0,0.283,0,270.07,-3.234,0,1,-3.2,0,0,-3.23,270.07,-0.8135,0.0012,0.5816,-3.23,270.07,-1.75,0.59,15.073,0.071,-0.234,1,3,965.65,0.07,-3.234,864.21,0,0,0,269.99,0,0,0,0,0,0,0,0,0,0,0,0,0,2,2,0,0,VALID,0,0,0,0,0,1,0,0,0,0,0,0,0,0,0,0,0,0,0,0,119.6,408.59,2,0,0.12,0.12,216,8.33,0.12,0.12,26.02,FLYING,CF1-J,0:/Integrated Flight Computer/aircraft/cf1_j_cfg.ks (inferred preloaded)
26.38,APPROACH,ILS_TRACK,70.31,70,-0.31,863.23,-3.93,2.27,5.21,270,0.022,0.2803,0,19.409,1,0.6,4.5,0.75,0.35,0.0168,0.4,0,54.908,0,0.305,0,270.07,-3.238,0,1,-3.2,0,0,-3.24,270.07,-0.8134,0.0012,0.5817,-3.24,270.07,-1.75,0.62,15.045,0.072,-0.238,1,3,965.65,0.066,-3.238,862.77,0,0,0,269.99,0,0,0,0,0,0,0,0,0,0,0,0,0,2,2,0,0,VALID,0,0,0,0,0,1,0,0,0,0,0,0,0,0,0,0,0,0,0,0,119.21,408.65,2,0,0.12,0.12,219,8.33,0.12,0.12,26.38,FLYING,CF1-J,0:/Integrated Flight Computer/aircraft/cf1_j_cfg.ks (inferred preloaded)
26.74,APPROACH,ILS_TRACK,70.33,70,-0.33,861.81,-3.94,2.26,5.21,270,0.022,0.2793,0,19.294,1,0.6,4.5,0.75,0.35,0.0168,0.4,0,54.902,0,0.326,0,270.07,-3.241,0,1,-3.2,0,0,-3.24,270.07,-0.8134,0.0013,0.5818,-3.24,270.07,-1.75,0.64,15.018,0.075,-0.241,1,3,965.65,0.061,-3.241,861.33,0,0,0,269.99,0,0,0,0,0,0,0,0,0,0,0,0,0,2,2,0,0,VALID,0,0,0,0,0,1,0,0,0,0,0,0,0,0,0,0,0,0,0,0,118.81,408.71,2,0,0.12,0.12,222,8.33,0.12,0.12,26.74,FLYING,CF1-J,0:/Integrated Flight Computer/aircraft/cf1_j_cfg.ks (inferred preloaded)
27.01,APPROACH,ILS_TRACK,70.34,70,-0.34,860.74,-3.94,2.25,5.19,270,0.026,0.2789,0,19.218,1,0.6,4.5,0.75,0.35,0.0168,0.4,0,54.899,0,0.337,0,270.07,-3.235,0,1,-3.21,0,0,-3.24,270.07,-0.8134,0.0013,0.5817,-3.24,270.07,-1.76,0.65,15,0.074,-0.235,1,3,965.65,0.05,-3.235,860.42,0,0,0,269.99,0,0,0,0,0,0,0,0,0,0,0,0,0,2,2,0,0,VALID,0,0,0,0,0,1,0,0,0,0,0,0,0,0,0,0,0,0,0,0,118.51,408.75,2,0,0.127,0.127,224,7.39,0.127,0.101,27.01,FLYING,CF1-J,0:/Integrated Flight Computer/aircraft/cf1_j_cfg.ks (inferred preloaded)
27.28,APPROACH,ILS_TRACK,70.35,70,-0.35,859.67,-3.95,2.23,5.18,270,0.023,0.2783,0,19.138,1,0.6,4.5,0.75,0.35,0.0168,0.4,0,54.896,0,0.346,0,270.07,-3.236,0,1,-3.21,0,0,-3.23,270.07,-0.8134,0.0012,0.5817,-3.24,270.07,-1.76,0.66,14.983,0.07,-0.236,1,3,965.65,0.047,-3.236,859.5,0,0,0,269.99,0,0,0,0,0,0,0,0,0,0,0,0,0,2,2,0,0,VALID,0,0,0,0,0,1,0,0,0,0,0,0,0,0,0,0,0,0,0,0,118.23,408.8,2,0,0.23,0.23,225,3.69,0.23,0.127,27.28,FLYING,CF1-J,0:/Integrated Flight Computer/aircraft/cf1_j_cfg.ks (inferred preloaded)
27.61,APPROACH,ILS_TRACK,70.36,70,-0.36,858.35,-3.99,2.22,5.19,270,0.022,0.2763,0,19.023,1,0.6,4.5,0.75,0.35,0.0168,0.4,0,54.892,0,0.359,0,270.07,-3.237,0,1,-3.23,0,0,-3.23,270.07,-0.8133,0.0012,0.5818,-3.24,270.07,-1.76,0.68,14.958,0.071,-0.237,1,3,965.65,0.043,-3.237,858.22,0,0,0,269.99,0,0,0,0,0,0,0,0,0,0,0,0,0,2,2,0,0,VALID,0,0,0,0,0,1,0,0,0,0,0,0,0,0,0,0,0,0,0,0,117.89,408.86,2,0,0.32,0.32,226,3.01,0.32,0.23,27.61,FLYING,CF1-J,0:/Integrated Flight Computer/aircraft/cf1_j_cfg.ks (inferred preloaded)
27.98,APPROACH,ILS_TRACK,70.39,70,-0.39,856.87,-4.12,2.23,5.3,270,0.022,0.2714,0,18.888,1,0.6,4.5,0.75,0.35,0.0168,0.4,0,54.885,0,0.382,0,270.07,-3.201,0,1,-3.29,0,0,-3.23,270.07,-0.8137,0.0013,0.5813,-3.2,270.07,-1.76,0.67,14.931,0.075,-0.201,1,3,965.65,-0.002,-3.201,856.81,0,0,0,269.99,0,0,0,0,0,0,0,0,0,0,0,0,0,2,2,0,0,VALID,0,0,0,0,0,1,0,0,0,0,0,0,0,0,0,0,0,0,0,0,117.49,408.92,2,0,0.353,0.353,227,2.72,0.353,0.32,27.98,FLYING,CF1-J,0:/Integrated Flight Computer/aircraft/cf1_j_cfg.ks (inferred preloaded)
28.38,APPROACH,ILS_TRACK,70.45,70,-0.45,855.2,-4.39,2.34,5.6,270,0.019,0.2587,0,18.719,1,0.6,4.5,0.75,0.35,0.0168,0.4,0,54.869,0,0.437,0,270.07,-3.083,0,1,-3.48,0,0,-3.2,270.07,-0.8148,0.0012,0.5797,-3.08,270.07,-1.76,0.62,14.902,0.07,-0.083,1,3,965.65,-0.13,-3.083,855.25,0,0,0,269.99,0,0,0,0,0,0,0,0,0,0,0,0,0,2,2,0,0,VALID,0,0,0,0,0,1,0,0,0,0,0,0,0,0,0,0,0,0,0,0,116.92,408.97,2,0,0.389,0.389,228,2.52,0.389,0.353,28.38,FLYING,CF1-J,0:/Integrated Flight Computer/aircraft/cf1_j_cfg.ks (inferred preloaded)
28.78,APPROACH,ILS_TRACK,70.56,70,-0.56,853.56,-4.53,3.07,6.75,270,0.017,0.2362,0,18.504,1,0.6,4.5,0.75,0.35,0.0168,0.4,0,54.839,0,0.535,0,270.07,-3.045,0,1,-3.72,0,0,-3.08,270.07,-0.8152,0.0012,0.5792,-3.05,270.07,-1.77,0.56,14.871,0.072,-0.045,1,3,965.65,-0.154,-3.045,853.65,0,0,0,269.99,0,0,0,0,0,0,0,0,0,0,0,0,0,2,2,0,0,VALID,0,0,0,0,0,1,0,0,0,0,0,0,0,0,0,0,0,0,0,0,115.95,409,2,0,0.4,0.4,229,2.5,0.4,0.389,28.78,FLYING,CF1-J,0:/Integrated Flight Computer/aircraft/cf1_j_cfg.ks (inferred preloaded)
29.18,APPROACH,ILS_TRACK,70.65,70,-0.65,851.93,-4.29,4.15,7.59,270,0.015,0.2154,0,18.251,1,0.6,4.5,0.75,0.35,0.0168,0.4,0,54.81,0,0.633,0,270.07,-3.112,0,1,-3.6,0,0,-3.04,270.07,-0.8145,0.0012,0.5802,-3.11,270.07,-1.77,0.54,14.84,0.073,-0.112,1,3,965.65,-0.061,-3.112,852.04,0,0,0,269.99,0,0,0,0,0,0,0,0,0,0,0,0,0,2,2,0,0,VALID,0,0,0,0,0,1,0,0,0,0,0,0,0,0,0,0,0,0,0,0,114.27,409.04,2,0,0.4,0.4,230,2.5,0.4,0.4,29.18,FLYING,CF1-J,0:/Integrated Flight Computer/aircraft/cf1_j_cfg.ks (inferred preloaded)
29.58,APPROACH,ILS_TRACK,70.67,70,-0.67,850.18,-4.01,4.02,6.81,270,0.005,0.2104,0,17.982,1,0.6,4.5,0.75,0.35,0.0168,0.4,0,54.798,0,0.673,0,270.07,-2.943,0,1,-3.27,0,0,-3.11,270.07,-0.8162,0.0012,0.5778,-2.94,270.07,-1.77,0.44,14.81,0.071,0.057,1,3,965.65,-0.237,-2.943,850.44,0,0,0,269.99,0,0,0,0,0,0,0,0,0,0,0,0,0,2,2,0,0,VALID,0,0,0,0,0,1,0,0,0,0,0,0,0,0,0,0,0,0,0,0,111.93,409.11,2,0,0.4,0.4,231,2.5,0.4,0.4,29.58,FLYING,CF1-J,0:/Integrated Flight Computer/aircraft/cf1_j_cfg.ks (inferred preloaded)
29.98,APPROACH,ILS_TRACK,70.66,70,-0.66,848.5,-4.11,3.34,6.3,270,0.011,0.2171,0,17.716,1,0.6,4.5,0.75,0.35,0.0168,0.4,0,54.801,0,0.664,0,270.07,-2.871,0,1,-3.28,0,0,-2.94,270.07,-0.8169,0.0012,0.5768,-2.87,270.07,-1.77,0.33,14.779,0.072,0.129,1,3,965.65,-0.285,-2.871,848.83,0,0,0,269.99,0,0,0,0,0,0,0,0,0,0,0,0,0,2,2,0,0,VALID,0,0,0,0,0,1,0,0,0,0,0,0,0,0,0,0,0,0,0,0,109.51,409.2,2,0,0.4,0.4,232,2.5,0.4,0.4,29.98,FLYING,CF1-J,0:/Integrated Flight Computer/aircraft/cf1_j_cfg.ks (inferred preloaded)
30.38,APPROACH,ILS_TRACK,70.65,70,-0.65,846.86,-4.15,3.37,6.52,270.01,0.015,0.2224,0,17.456,1,0.6,4.5,0.75,0.35,0.0168,0.4,0,54.804,0,0.652,0,270.07,-3.013,0,1,-3.36,0,0,-2.87,270.07,-0.8154,0.0012,0.5789,-3.01,270.07,-1.77,0.29,14.748,0.068,-0.013,1,3,965.65,-0.093,-3.013,847.22,0,0,0,269.99,0,0,0,0,0,0,0,0,0,0,0,0,0,2,2,0,0,VALID,0,0,0,0,0,1,0,0,0,0,0,0,0,0,0,0,0,0,0,0,107.5,409.3,2,0,0.4,0.4,233,2.5,0.4,0.4,30.38,FLYING,CF1-J,0:/Integrated Flight Computer/aircraft/cf1_j_cfg.ks (inferred preloaded)
30.78,APPROACH,ILS_TRACK,70.64,70,-0.64,845.21,-4.15,3.48,6.58,270.01,0.017,0.2253,0,17.198,1,0.6,4.5,0.75,0.35,0.0168,0.4,0,54.807,0,0.643,0,270.07,-2.998,0,1,-3.36,0,0,-3.01,270.07,-0.8155,0.0011,0.5787,-3,270.07,-1.76,0.25,14.718,0.068,0.002,1,3,965.65,-0.098,-2.998,845.62,0,0,0,269.99,0,0,0,0,0,0,0,0,0,0,0,0,0,2,2,0,0,VALID,0,0,0,0,0,1,0,0,0,0,0,0,0,0,0,0,0,0,0,0,105.9,409.39,2,0,0.4,0.4,234,2.5,0.4,0.4,30.78,FLYING,CF1-J,0:/Integrated Flight Computer/aircraft/cf1_j_cfg.ks (inferred preloaded)
31.18,APPROACH,ILS_TRACK,70.61,70,-0.61,843.56,-4.15,3.51,6.61,270.01,0.017,0.2305,0,16.95,1,0.6,4.5,0.75,0.35,0.0168,0.4,0,54.814,0,0.62,0,270.07,-2.959,0,1,-3.36,0,0,-3,270.07,-0.8159,0.0011,0.5782,-2.96,270.07,-1.76,0.2,14.687,0.066,0.041,1,3,965.65,-0.127,-2.959,844.02,0,0,0,269.99,0,0,0,0,0,0,0,0,0,0,0,0,0,2,2,0,0,VALID,0,0,0,0,0,1,0,0,0,0,0,0,0,0,0,0,0,0,0,0,104.59,409.5,2,0,0.4,0.4,235,2.5,0.4,0.4,31.18,FLYING,CF1-J,0:/Integrated Flight Computer/aircraft/cf1_j_cfg.ks (inferred preloaded)
31.58,APPROACH,ILS_TRACK,70.58,70,-0.58,841.9,-4.14,3.54,6.65,270.02,0.018,0.2377,0,16.717,1,0.6,4.5,0.75,0.35,0.0168,0.4,0,54.825,0,0.584,0,270.07,-2.944,0,1,-3.36,0,0,-2.96,270.07,-0.816,0.0011,0.578,-2.94,270.07,-1.75,0.15,14.657,0.066,0.056,1,3,965.65,-0.127,-2.944,842.41,0,0,0,269.99,0,0,0,0,0,0,0,0,0,0,0,0,0,2,2,0,0,VALID,0,0,0,0,0,1,0,0,0,0,0,0,0,0,0,0,0,0,0,0,103.6,409.61,2,0,0.4,0.4,236,2.5,0.4,0.4,31.58,FLYING,CF1-J,0:/Integrated Flight Computer/aircraft/cf1_j_cfg.ks (inferred preloaded)
31.98,APPROACH,ILS_TRACK,70.53,70,-0.53,840.25,-4.14,3.57,6.67,270.02,0.019,0.2459,0,16.502,1,0.6,4.5,0.75,0.35,0.0168,0.4,0,54.839,0,0.537,0,270.06,-2.929,0,1,-3.36,0,0,-2.94,270.07,-0.8161,0.0011,0.5779,-2.93,270.06,-1.74,0.1,14.626,0.065,0.071,1,3,965.65,-0.127,-2.929,840.81,0,0,0,269.99,0,0,0,0,0,0,0,0,0,0,0,0,0,2,2,0,0,VALID,0,0,0,0,0,1,0,0,0,0,0,0,0,0,0,0,0,0,0,0,102.98,409.73,2,0,0.4,0.4,237,2.5,0.4,0.4,31.98,FLYING,CF1-J,0:/Integrated Flight Computer/aircraft/cf1_j_cfg.ks (inferred preloaded)
32.38,APPROACH,ILS_TRACK,70.47,70,-0.47,838.6,-4.13,3.6,6.7,270.03,0.021,0.2544,0,16.308,1,0.6,4.5,0.75,0.35,0.0168,0.4,0,54.855,0,0.484,0,270.06,-2.916,0,1,-3.36,0,0,-2.93,270.06,-0.8162,0.001,0.5777,-2.92,270.06,-1.73,0.05,14.596,0.062,0.084,1,3,965.65,-0.124,-2.916,839.21,0,0,0,269.99,0,0,0,0,0,0,0,0,0,0,0,0,0,2,2,0,0,VALID,0,0,0,0,0,1,0,0,0,0,0,0,0,0,0,0,0,0,0,0,102.73,409.85,2,0,0.4,0.4,238,2.5,0.4,0.4,32.38,FLYING,CF1-J,0:/Integrated Flight Computer/aircraft/cf1_j_cfg.ks (inferred preloaded)
32.78,APPROACH,ILS_TRACK,70.41,70,-0.41,836.96,-4.12,3.62,6.72,270.03,0.022,0.2628,0,16.137,1,0.6,4.5,0.75,0.35,0.0168,0.4,0,54.872,0,0.427,0,270.06,-2.905,0,1,-3.35,0,0,-2.91,270.06,-0.8163,0.001,0.5776,-2.91,270.06,-1.71,0,14.565,0.059,0.095,1,3,965.65,-0.12,-2.905,837.61,0,0,0,269.99,0,0,0,0,0,0,0,0,0,0,0,0,0,2,2,0,0,VALID,0,0,0,0,0,1,0,0,0,0,0,0,0,0,0,0,0,0,0,0,102.75,409.98,2,0,0.4,0.4,239,2.5,0.4,0.4,32.78,FLYING,CF1-J,0:/Integrated Flight Computer/aircraft/cf1_j_cfg.ks (inferred preloaded)
33.18,APPROACH,ILS_TRACK,70.36,70,-0.36,835.31,-4.11,3.65,6.74,270.03,0.023,0.2705,0,15.99,1,0.6,4.5,0.75,0.35,0.0168,0.4,0,54.89,0,0.368,0,270.06,-2.894,0,1,-3.35,0,0,-2.9,270.06,-0.8164,0.001,0.5775,-2.89,270.06,-1.7,-0.04,14.535,0.057,0.106,1,3,965.65,-0.116,-2.894,836.01,0,0,0,269.99,0,0,0,0,0,0,0,0,0,0,0,0,0,2,2,0,0,VALID,0,0,0,0,0,1,0,0,0,0,0,0,0,0,0,0,0,0,0,0,102.89,410.1,2,0,0.4,0.4,240,2.5,0.4,0.4,33.18,FLYING,CF1-J,0:/Integrated Flight Computer/aircraft/cf1_j_cfg.ks (inferred preloaded)
33.58,APPROACH,ILS_TRACK,70.3,70,-0.3,833.67,-4.1,3.67,6.76,270.04,0.024,0.2774,0,15.867,1,0.6,4.5,0.75,0.35,0.0168,0.4,0,54.908,0,0.308,0,270.06,-2.885,0,1,-3.34,0,0,-2.89,270.06,-0.8165,0.0009,0.5774,-2.89,270.06,-1.68,-0.09,14.504,0.056,0.115,1,3,965.65,-0.111,-2.885,834.42,0,0,0,269.99,0,0,0,0,0,0,0,0,0,0,0,0,0,2,2,0,0,VALID,0,0,0,0,0,1,0,0,0,0,0,0,0,0,0,0,0,0,0,0,103.09,410.23,2,0,0.4,0.4,241,2.5,0.4,0.4,33.58,FLYING,CF1-J,0:/Integrated Flight Computer/aircraft/cf1_j_cfg.ks (inferred preloaded)
33.98,APPROACH,ILS_TRACK,70.24,70,-0.24,832.04,-4.09,3.7,6.78,270.04,0.025,0.2836,0,15.767,1,0.6,4.5,0.75,0.35,0.0168,0.4,0,54.925,0,0.25,0,270.06,-2.876,0,1,-3.34,0,0,-2.88,270.06,-0.8165,0.0009,0.5773,-2.88,270.06,-1.66,-0.13,14.474,0.055,0.124,1,3,965.65,-0.106,-2.876,832.82,0,0,0,269.99,0,0,0,0,0,0,0,0,0,0,0,0,0,2,2,0,0,VALID,0,0,0,0,0,1,0,0,0,0,0,0,0,0,0,0,0,0,0,0,103.37,410.35,2,0,0.4,0.4,242,2.5,0.4,0.4,33.98,FLYING,CF1-J,0:/Integrated Flight Computer/aircraft/cf1_j_cfg.ks (inferred preloaded)
34.38,APPROACH,ILS_TRACK,70.18,70,-0.18,830.41,-4.09,3.72,6.8,270.05,0.027,0.289,0,15.69,1,0.6,4.5,0.75,0.35,0.0168,0.4,0,54.942,0,0.193,0,270.05,-2.868,0,1,-3.33,0,0,-2.87,270.06,-0.8166,0.0008,0.5772,-2.87,270.05,-1.64,-0.17,14.443,0.051,0.132,1,3,965.65,-0.101,-2.868,831.23,0,0,0,269.99,0,0,0,0,0,0,0,0,0,0,0,0,0,2,2,0,0,VALID,0,0,0,0,0,1,0,0,0,0,0,0,0,0,0,0,0,0,0,0,103.69,410.48,2,0,0.4,0.4,243,2.5,0.4,0.4,34.38,FLYING,CF1-J,0:/Integrated Flight Computer/aircraft/cf1_j_cfg.ks (inferred preloaded)
34.78,APPROACH,ILS_TRACK,70.13,70,-0.13,828.78,-4.08,3.74,6.82,270.05,0.025,0.2939,0,15.635,1,0.6,4.5,0.75,0.35,0.0168,0.4,0,54.959,0,0.137,0,270.05,-2.861,0,1,-3.33,0,0,-2.87,270.05,-0.8166,0.0008,0.5772,-2.86,270.05,-1.62,-0.21,14.413,0.05,0.139,1,3,965.65,-0.095,-2.861,829.64,0,0,0,269.99,0,0,0,0,0,0,0,0,0,0,0,0,0,2,2,0,0,VALID,0,0,0,0,0,1,0,0,0,0,0,0,0,0,0,0,0,0,0,0,104.07,410.6,2,0,0.4,0.4,244,2.5,0.4,0.4,34.78,FLYING,CF1-J,0:/Integrated Flight Computer/aircraft/cf1_j_cfg.ks (inferred preloaded)
35.18,APPROACH,ILS_TRACK,70.07,70,-0.07,827.15,-4.07,3.77,6.84,270.05,0.024,0.2982,0,15.601,1,0.6,4.5,0.75,0.35,0.0168,0.4,0,54.975,0,0.084,0,270.05,-2.855,0,1,-3.32,0,0,-2.86,270.05,-0.8166,0.0008,0.5771,-2.86,270.05,-1.59,-0.24,14.383,0.047,0.145,1,3,965.65,-0.089,-2.855,828.05,0,0,0,269.99,0,0,0,0,0,0,0,0,0,0,0,0,0,2,2,0,0,VALID,0,0,0,0,0,1,0,0,0,0,0,0,0,0,0,0,0,0,0,0,104.49,410.72,2,0,0.4,0.4,245,2.5,0.4,0.4,35.18,FLYING,CF1-J,0:/Integrated Flight Computer/aircraft/cf1_j_cfg.ks (inferred preloaded)
35.58,APPROACH,ILS_TRACK,70.02,70,-0.02,825.53,-4.06,3.79,6.85,270.06,0.024,0.302,0,15.588,1,0.6,4.5,0.75,0.35,0.0168,0.4,0,54.99,0,0.033,0,270.05,-2.85,0,1,-3.32,0,0,-2.85,270.05,-0.8167,0.0008,0.5771,-2.85,270.05,-1.56,-0.28,14.352,0.045,0.15,1,3,965.65,-0.083,-2.85,826.46,0,0,0,269.99,0,0,0,0,0,0,0,0,0,0,0,0,0,2,2,0,0,VALID,0,0,0,0,0,1,0,0,0,0,0,0,0,0,0,0,0,0,0,0,104.94,410.84,2,0,0.4,0.4,246,2.5,0.4,0.4,35.58,FLYING,CF1-J,0:/Integrated Flight Computer/aircraft/cf1_j_cfg.ks (inferred preloaded)
35.98,APPROACH,ILS_TRACK,69.98,70,0.02,823.91,-4.05,3.81,6.87,270.06,0.025,0.3054,0,15.594,1,0.6,4.5,0.75,0.35,0.0168,0.4,0,55,0,-0.015,0,270.04,-2.845,0,1,-3.31,0,0,-2.85,270.05,-0.8167,0.0007,0.5771,-2.85,270.04,-1.53,-0.31,14.322,0.042,0.155,1,3,965.65,-0.078,-2.845,824.87,0,0,0,269.99,0,0,0,0,0,0,0,0,0,0,0,0,0,2,2,0,0,VALID,0,0,0,0,0,1,0,0,0,0,0,0,0,0,0,0,0,0,0,0,105.41,410.96,2,0,0.4,0.4,247,2.5,0.4,0.4,35.98,FLYING,CF1-J,0:/Integrated Flight Computer/aircraft/cf1_j_cfg.ks (inferred preloaded)
36.38,APPROACH,ILS_TRACK,69.93,70,0.07,822.3,-4.04,3.82,6.88,270.06,0.024,0.3084,0,15.618,1,0.6,4.5,0.75,0.35,0.0168,0.4,0,55,0,-0.06,0,270.04,-2.842,0,1,-3.31,0,0,-2.84,270.04,-0.8167,0.0006,0.5771,-2.84,270.04,-1.5,-0.34,14.292,0.039,0.158,1,3,965.65,-0.071,-2.842,823.28,0,0,0,269.99,0,0,0,0,0,0,0,0,0,0,0,0,0,2,2,0,0,VALID,0,0,0,0,0,1,0,0,0,0,0,0,0,0,0,0,0,0,0,0,105.91,411.07,2,0,0.4,0.4,248,2.5,0.4,0.4,36.38,FLYING,CF1-J,0:/Integrated Flight Computer/aircraft/cf1_j_cfg.ks (inferred preloaded)
36.78,APPROACH,ILS_TRACK,69.89,70,0.11,820.69,-4.03,3.84,6.89,270.07,0.022,0.311,0,15.659,1,0.6,4.5,0.75,0.35,0.0168,0.4,0,55,0,-0.102,0,270.04,-2.838,0,1,-3.3,0,0,-2.84,270.04,-0.8167,0.0006,0.5771,-2.84,270.04,-1.46,-0.36,14.261,0.037,0.162,1,3,965.65,-0.066,-2.838,821.7,0,0,0,269.99,0,0,0,0,0,0,0,0,0,0,0,0,0,2,2,0,0,VALID,0,0,0,0,0,1,0,0,0,0,0,0,0,0,0,0,0,0,0,0,106.43,411.18,2,0,0.4,0.4,249,2.5,0.4,0.4,36.78,FLYING,CF1-J,0:/Integrated Flight Computer/aircraft/cf1_j_cfg.ks (inferred preloaded)
37.18,APPROACH,ILS_TRACK,69.85,70,0.15,819.08,-4.02,3.85,6.9,270.07,0.019,0.3132,0,15.715,1,0.6,4.5,0.75,0.35,0.0168,0.4,0,55,0,-0.14,0,270.03,-2.836,0,1,-3.3,0,0,-2.84,270.04,-0.8167,0.0006,0.5771,-2.84,270.03,-1.43,-0.39,14.231,0.034,0.164,1,3,965.65,-0.059,-2.836,820.11,0,0,0,269.99,0,0,0,0,0,0,0,0,0,0,0,0,0,2,2,0,0,VALID,0,0,0,0,0,1,0,0,0,0,0,0,0,0,0,0,0,0,0,0,106.97,411.29,2,0,0.4,0.4,250,2.5,0.4,0.4,37.18,FLYING,CF1-J,0:/Integrated Flight Computer/aircraft/cf1_j_cfg.ks (inferred preloaded)
37.58,APPROACH,ILS_TRACK,69.82,70,0.18,817.48,-4.01,3.87,6.91,270.08,0.016,0.3151,0,15.785,1,0.6,4.5,0.75,0.35,0.0168,0.4,0,55,0,-0.175,0,270.03,-2.835,0,1,-3.29,0,0,-2.83,270.03,-0.8167,0.0005,0.5771,-2.84,270.03,-1.39,-0.41,14.201,0.031,0.165,1,3,965.65,-0.053,-2.835,818.53,0,0,0,269.99,0,0,0,0,0,0,0,0,0,0,0,0,0,2,2,0,0,VALID,0,0,0,0,0,1,0,0,0,0,0,0,0,0,0,0,0,0,0,0,107.51,411.4,2,0,0.4,0.4,251,2.5,0.4,0.4,37.58,FLYING,CF1-J,0:/Integrated Flight Computer/aircraft/cf1_j_cfg.ks (inferred preloaded)
37.98,APPROACH,ILS_TRACK,69.79,70,0.21,815.88,-4,3.88,6.91,270.08,0.016,0.3166,0,15.868,1,0.6,4.5,0.75,0.35,0.0168,0.4,0,55,0,-0.207,0,270.03,-2.834,0,1,-3.29,0,0,-2.83,270.03,-0.8167,0.0005,0.5771,-2.83,270.03,-1.35,-0.43,14.171,0.029,0.166,1,3,965.65,-0.047,-2.834,816.94,0,0,0,269.99,0,0,0,0,0,0,0,0,0,0,0,0,0,2,2,0,0,VALID,0,0,0,0,0,1,0,0,0,0,0,0,0,0,0,0,0,0,0,0,108.06,411.51,2,0,0.4,0.4,252,2.5,0.4,0.4,37.98,FLYING,CF1-J,0:/Integrated Flight Computer/aircraft/cf1_j_cfg.ks (inferred preloaded)
38.38,APPROACH,ILS_TRACK,69.76,70,0.24,814.28,-4,3.89,6.92,270.08,0.014,0.3179,0,15.961,1,0.6,4.5,0.75,0.35,0.0168,0.4,0,55,0,-0.234,0,270.03,-2.834,0,1,-3.28,0,0,-2.83,270.03,-0.8166,0.0004,0.5772,-2.83,270.03,-1.3,-0.44,14.14,0.025,0.166,1,3,965.65,-0.041,-2.834,815.36,0,0,0,269.99,0,0,0,0,0,0,0,0,0,0,0,0,0,2,2,0,0,VALID,0,0,0,0,0,1,0,0,0,0,0,0,0,0,0,0,0,0,0,0,108.61,411.61,2,0,0.4,0.4,253,2.5,0.4,0.4,38.38,FLYING,CF1-J,0:/Integrated Flight Computer/aircraft/cf1_j_cfg.ks (inferred preloaded)
38.78,APPROACH,ILS_TRACK,69.74,70,0.26,812.68,-3.99,3.9,6.92,270.09,0.013,0.3188,0,16.065,1,0.6,4.5,0.75,0.35,0.0168,0.4,0,55,0,-0.258,0,270.02,-2.835,0,1,-3.27,0,0,-2.83,270.03,-0.8166,0.0004,0.5772,-2.84,270.02,-1.26,-0.46,14.11,0.023,0.165,1,3,965.65,-0.035,-2.835,813.78,0,0,0,269.99,0,0,0,0,0,0,0,0,0,0,0,0,0,2,2,0,0,VALID,0,0,0,0,0,1,0,0,0,0,0,0,0,0,0,0,0,0,0,0,109.16,411.71,2,0,0.4,0.4,254,2.5,0.4,0.4,38.78,FLYING,CF1-J,0:/Integrated Flight Computer/aircraft/cf1_j_cfg.ks (inferred preloaded)
39.18,APPROACH,ILS_TRACK,69.72,70,0.28,811.09,-3.98,3.91,6.93,270.09,0.01,0.3195,0,16.176,1,0.6,4.5,0.75,0.35,0.0168,0.4,0,55,0,-0.278,0,270.02,-2.835,0,1,-3.27,0,0,-2.83,270.02,-0.8166,0.0003,0.5773,-2.84,270.02,-1.21,-0.47,14.08,0.02,0.165,1,3,965.65,-0.03,-2.835,812.2,0,0,0,269.99,0,0,0,0,0,0,0,0,0,0,0,0,0,2,2,0,0,VALID,0,0,0,0,0,1,0,0,0,0,0,0,0,0,0,0,0,0,0,0,109.71,411.81,2,0,0.4,0.4,255,2.5,0.4,0.4,39.18,FLYING,CF1-J,0:/Integrated Flight Computer/aircraft/cf1_j_cfg.ks (inferred preloaded)
39.58,APPROACH,ILS_TRACK,69.7,70,0.3,809.5,-3.97,3.92,6.93,270.09,0.006,0.3198,0,16.294,1,0.6,4.5,0.75,0.35,0.0168,0.4,0,55,0,-0.295,0,270.02,-2.837,0,1,-3.26,0,0,-2.83,270.02,-0.8165,0.0003,0.5773,-2.84,270.02,-1.16,-0.48,14.05,0.017,0.163,1,3,965.65,-0.024,-2.837,810.62,0,0,0,269.99,0,0,0,0,0,0,0,0,0,0,0,0,0,2,2,0,0,VALID,0,0,0,0,0,1,0,0,0,0,0,0,0,0,0,0,0,0,0,0,110.26,411.9,2,0,0.4,0.4,256,2.5,0.4,0.4,39.58,FLYING,CF1-J,0:/Integrated Flight Computer/aircraft/cf1_j_cfg.ks (inferred preloaded)
39.98,APPROACH,ILS_TRACK,69.69,70,0.31,807.91,-3.97,3.92,6.93,270.09,0.006,0.3199,0,16.417,1,0.6,4.5,0.75,0.35,0.0168,0.4,0,55,0,-0.308,0,270.01,-2.84,0,1,-3.26,0,0,-2.84,270.02,-0.8165,0.0002,0.5774,-2.84,270.01,-1.12,-0.49,14.02,0.014,0.16,1,3,965.65,-0.018,-2.84,809.04,0,0,0,269.99,0,0,0,0,0,0,0,0,0,0,0,0,0,2,2,0,0,VALID,0,0,0,0,0,1,0,0,0,0,0,0,0,0,0,0,0,0,0,0,110.79,412,2,0,0.4,0.4,257,2.5,0.4,0.4,39.98,FLYING,CF1-J,0:/Integrated Flight Computer/aircraft/cf1_j_cfg.ks (inferred preloaded)
40.38,APPROACH,ILS_TRACK,69.68,70,0.32,806.33,-3.96,3.92,6.93,270.1,0.006,0.3197,0,16.543,1,0.6,4.5,0.75,0.35,0.0168,0.4,0,55,0,-0.316,0,270.01,-2.843,0,1,-3.25,0,0,-2.84,270.01,-0.8164,0.0002,0.5775,-2.84,270.01,-1.07,-0.49,13.99,0.012,0.157,1,3,965.65,-0.012,-2.843,807.46,0,0,0,269.99,0,0,0,0,0,0,0,0,0,0,0,0,0,2,2,0,0,VALID,0,0,0,0,0,1,0,0,0,0,0,0,0,0,0,0,0,0,0,0,111.31,412.09,2,0,0.4,0.4,258,2.5,0.4,0.4,40.38,FLYING,CF1-J,0:/Integrated Flight Computer/aircraft/cf1_j_cfg.ks (inferred preloaded)
40.78,APPROACH,ILS_TRACK,69.68,70,0.32,804.75,-3.95,3.93,6.93,270.1,0.004,0.3192,0,16.672,1,0.6,4.5,0.75,0.35,0.0168,0.4,0,55,0,-0.322,0,270.01,-2.846,0,1,-3.25,0,0,-2.84,270.01,-0.8163,0.0001,0.5776,-2.85,270.01,-1.01,-0.49,13.959,0.008,0.154,1,3,965.65,-0.007,-2.846,805.88,0,0,0,269.99,0,0,0,0,0,0,0,0,0,0,0,0,0,2,2,0,0,VALID,0,0,0,0,0,1,0,0,0,0,0,0,0,0,0,0,0,0,0,0,111.82,412.18,2,0,0.4,0.4,259,2.5,0.4,0.4,40.78,FLYING,CF1-J,0:/Integrated Flight Computer/aircraft/cf1_j_cfg.ks (inferred preloaded)
41.18,APPROACH,ILS_TRACK,69.68,70,0.32,803.17,-3.95,3.93,6.92,270.1,0.005,0.3185,0,16.802,1,0.6,4.5,0.75,0.35,0.0168,0.4,0,55,0,-0.323,0,270,-2.85,0,1,-3.24,0,0,-2.84,270.01,-0.8163,0,0.5777,-2.85,270,-0.96,-0.49,13.929,0.003,0.15,1,3,965.65,-0.001,-2.85,804.3,0,0,0,269.99,0,0,0,0,0,0,0,0,0,0,0,0,0,2,2,0,0,VALID,0,0,0,0,0,1,0,0,0,0,0,0,0,0,0,0,0,0,0,0,112.32,412.26,2,0,0.4,0.4,260,2.5,0.4,0.4,41.18,FLYING,CF1-J,0:/Integrated Flight Computer/aircraft/cf1_j_cfg.ks (inferred preloaded)
41.58,APPROACH,ILS_TRACK,69.68,70,0.32,801.59,-3.94,3.93,6.92,270.11,0.002,0.3175,0,16.93,1,0.6,4.5,0.75,0.35,0.0168,0.4,0,55,0,-0.322,0,270,-2.855,0,1,-3.24,0,0,-2.85,270,-0.8162,0,0.5778,-2.86,270,-0.9,-0.49,13.899,0,0.145,1,3,965.65,0.004,-2.855,802.72,0,0,0,269.99,0,0,0,0,0,0,0,0,0,0,0,0,0,2,2,0,0,VALID,0,0,0,0,0,1,0,0,0,0,0,0,0,0,0,0,0,0,0,0,112.79,412.34,2,0,0.4,0.4,261,2.5,0.4,0.4,41.58,FLYING,CF1-J,0:/Integrated Flight Computer/aircraft/cf1_j_cfg.ks (inferred preloaded)
41.98,APPROACH,ILS_TRACK,69.68,70,0.32,800.02,-3.94,3.93,6.91,270.11,0,0.3162,0,17.057,1,0.6,4.5,0.75,0.35,0.0168,0.4,0,55,0,-0.316,0,270,-2.86,0,1,-3.23,0,0,-2.85,270,-0.8161,-0.0001,0.5779,-2.86,270,-0.84,-0.49,13.869,-0.002,0.14,1,3,965.65,0.009,-2.86,801.14,0,0,0,269.99,0,0,0,0,0,0,0,0,0,0,0,0,0,2,2,0,0,VALID,0,0,0,0,0,1,0,0,0,0,0,0,0,0,0,0,0,0,0,0,113.25,412.43,2,0,0.4,0.4,262,2.5,0.4,0.4,41.98,FLYING,CF1-J,0:/Integrated Flight Computer/aircraft/cf1_j_cfg.ks (inferred preloaded)
42.38,APPROACH,ILS_TRACK,69.69,70,0.31,798.44,-3.93,3.92,6.91,270.11,-0.004,0.3147,0,17.18,1,0.6,4.5,0.75,0.35,0.0168,0.4,0,55,0,-0.308,0,269.99,-2.866,0,1,-3.23,0,0,-2.86,270,-0.816,-0.0001,0.578,-2.87,269.99,-0.79,-0.48,13.839,-0.005,0.134,1,3,965.65,0.014,-2.866,799.56,0,0,0,269.99,0,0,0,0,0,0,0,0,0,0,0,0,0,2,2,0,0,VALID,0,0,0,0,0,1,0,0,0,0,0,0,0,0,0,0,0,0,0,0,113.68,412.5,2,0,0.4,0.4,263,2.5,0.4,0.4,42.38,FLYING,CF1-J,0:/Integrated Flight Computer/aircraft/cf1_j_cfg.ks (inferred preloaded)
42.78,APPROACH,ILS_TRACK,69.71,70,0.29,796.87,-3.93,3.92,6.9,270.11,-0.005,0.313,0,17.299,1,0.6,4.5,0.75,0.35,0.0168,0.4,0,55,0,-0.296,0,269.99,-2.872,0,1,-3.23,0,0,-2.86,269.99,-0.8159,-0.0002,0.5782,-2.87,269.99,-0.73,-0.48,13.809,-0.008,0.128,1,3,965.65,0.019,-2.872,797.98,0,0,0,269.99,0,0,0,0,0,0,0,0,0,0,0,0,0,2,2,0,0,VALID,0,0,0,0,0,1,0,0,0,0,0,0,0,0,0,0,0,0,0,0,114.09,412.58,2,0,0.4,0.4,264,2.5,0.4,0.4,42.78,FLYING,CF1-J,0:/Integrated Flight Computer/aircraft/cf1_j_cfg.ks (inferred preloaded)
43.18,APPROACH,ILS_TRACK,69.72,70,0.28,795.3,-3.92,3.92,6.89,270.11,-0.007,0.311,0,17.411,1,0.6,4.5,0.75,0.35,0.0168,0.4,0,55,0,-0.282,0,269.99,-2.878,0,1,-3.22,0,0,-2.87,269.99,-0.8158,-0.0002,0.5783,-2.88,269.99,-0.66,-0.47,13.779,-0.012,0.122,1,3,965.65,0.023,-2.878,796.39,0,0,0,269.99,0,0,0,0,0,0,0,0,0,0,0,0,0,2,2,0,0,VALID,0,0,0,0,0,1,0,0,0,0,0,0,0,0,0,0,0,0,0,0,114.47,412.66,2,0,0.4,0.4,265,2.5,0.4,0.4,43.18,FLYING,CF1-J,0:/Integrated Flight Computer/aircraft/cf1_j_cfg.ks (inferred preloaded)
