t_s,phase,subphase,ias_ms,vapp_ms,spd_err_ms,agl_m,vs_ms,pitch_deg,aoa_deg,hdg_deg,bank_deg,thr_cmd,thr_cur,thr_intg,at_gain,at_tau_s,at_a_up,at_a_dn,at_kp_thr,at_ki_spd,at_thr_slew,aa_hdg_cmd_deg,aa_fpa_cmd_deg,ils_loc_m,ils_gs_m,ils_dist_km,loc_corr_deg,gs_corr_deg,flare_fpa_cmd,flare_tgt_vs,flare_frac,steer_hdg_deg,steer_blend,ro_loc_corr_deg,ro_hdg_err_deg,ro_yaw_tgt,ro_yaw_scale,ro_yaw_gate,yaw_cmd,roll_cmd,pitch_cmd,ro_pitch_tgt_deg,ro_pitch_err_deg,ro_pitch_ff,ro_roll_assist,flaps_cur,flaps_tgt,asc_j_ab,asc_j_rk,asc_validity,asc_q_pa,asc_q_raw_pa,asc_mach,asc_apo_m,asc_drag_n,asc_w_prop,asc_edot_aero,asc_edot_orb,asc_pitch_bias,asc_blend,asc_spooling,asc_ab_thr_ratio,asc_ab_t_now,asc_ab_t_avail,asc_ab_ign_on,asc_ab_flameouts,asc_rk_t_now,asc_rk_t_avail,asc_rk_ign_on,asc_rk_flameouts,ship_thrust,ship_avail_thrust,ship_ign_on,ship_flameouts,ifc_raw_dt_s,ifc_dt_s,ifc_loop_n,ifc_hz_est,ifc_raw_dt_max_s,ifc_raw_dt_min_s,phase_el_s,status
0.94,TAKEOFF,TO_PREFLIGHT,0.15,80,79.85,3.57,-0.01,-0.32,7.33,91.27,-0.041,0.2,0,0,0,0,0,0,0,0,0,90.4,0,0,0,0,0,0,0,0,0,90.4,1,0,0.866,0,0,1,0,0,0,0,0,0,0,1,2,0,0,VALID,0,0,0,0,0,1,0,0,0,0,0,0,0,0,0,0,0,0,0,0,0,887.32,2,0,0.8,0.5,1,0.2,0.8,0.02,0.22,LANDED
6,TAKEOFF,TO_PREFLIGHT,0.14,80,79.86,3.58,0,-0.27,-0.39,91.11,-0.168,1,0,0,0,0,0,0,0,0,0,90.4,0,0,0,0,0,0,0,0,0,90.4,1,0,0.875,0,0,1,0,0,0,0,0,0,0,2,2,0,0,VALID,0,0,0,0,0,1,0,0,0,0,0,0,0,0,0,0,0,0,0,0,467.1,887.31,2,0,0.12,0.12,49,9.49,0.8,0.08,5.28,LANDED
11.14,TAKEOFF,TO_GROUND_ROLL,7.46,80,72.54,3.61,-0.01,-0.15,-0.08,91.05,-0.055,1,0,0,0,0,0,0,0,0,0,90.4,0,0,0,0,0,0,0,0,0,90.4,1,0,0.652,-0.0195,0.622,0,-0.0195,0,0,0,0,0,0,2,2,0,0,VALID,0,0,0,0,0,1,0,0,0,0,0,0,0,0,0,0,0,0,0,0,737.64,886.99,2,0,0.18,0.18,86,7.2,0.22,0.12,10.42,LANDED
16.28,TAKEOFF,TO_GROUND_ROLL,32.26,80,47.74,3.61,-0.07,-0.15,-0.03,91.09,-0.051,1,0,0,0,0,0,0,0,0,0,90.34,0,0,0,0,-0.059,0,0,0,0,90.34,1,-0.059,0.752,-0.0312,0.87,0,-0.0312,0,0,0,0,0,0,2,2,0,0,VALID,0,0,0,0,0,1,0,0,0,0,0,0,0,0,0,0,0,0,0,0,830.09,883.16,2,0,0.18,0.18,114,5.45,0.28,0.18,15.56,LANDED
21.42,TAKEOFF,TO_GROUND_ROLL,58.83,80,21.17,3.61,-0.1,-0.13,-0.04,91.11,-0.053,1,0,0,0,0,0,0,0,0,0,90.2,0,0,0,0,-0.203,0,0,0,0,90.2,1,-0.203,0.911,-0.0433,1,0,-0.0433,0,0,0,0,0,0,2,2,0,0,VALID,0,0,0,0,0,1,0,0,0,0,0,0,0,0,0,0,0,0,0,0,860.03,878.88,2,0,0.18,0.18,142,5.45,0.28,0.18,20.7,LANDED
26.56,TAKEOFF,TO_GROUND_ROLL,86.14,80,-6.14,3.59,-0.12,-0.16,-0.08,91.1,-0.085,1,0,0,0,0,0,0,0,0,0,89.97,0,0,0,0,-0.436,0,0,0,0,89.97,1,-0.436,1.137,-0.0534,1,0,-0.0534,0,0,0,0,0,0,2,2,0,0,VALID,0,0,0,0,0,1,0,0,0,0,0,0,0,0,0,0,0,0,0,0,894.71,901.88,2,0,0.18,0.18,170,5.45,0.28,0.18,25.84,LANDED
31.7,TAKEOFF,TO_GROUND_ROLL,115.63,80,-35.63,3.61,0.01,-0.05,-0.06,91.06,-0.045,1,0,0,0,0,0,0,0,0,0,89.66,0,0,0,0,-0.749,0,0,0,0,89.66,1,-0.749,1.406,-0.0662,1,0,-0.0662,0,0,0,0,0,0,2,2,0,0,VALID,0,0,0,0,0,1,0,0,0,0,0,0,0,0,0,0,0,0,0,0,998.52,1001.73,2,0,0.18,0.18,198,5.45,0.28,0.18,30.98,LANDED
36.8,TAKEOFF,TO_ROTATE,148.51,80,-68.51,3.71,0.18,0.35,0.28,90.15,-0.133,1,0,0,0,0,0,0,0,0,0,89.49,9.362,0,0,0,-0.983,0,0,0,0,89.49,1,-0.983,0.727,-0.0258,1,0,-0.0258,0,0.72,9.362,9.019,0.08,0,2,2,0,0,VALID,0,0,0,0,0,1,0,0,0,0,0,0,0,0,0,0,0,0,0,0,1128.64,1130.32,2,0,0.24,0.24,222,4.71,0.28,0.18,36.08,LANDED
41.82,TAKEOFF,TO_ROTATE,184.32,80,-104.32,13.29,-8.24,15.45,17.82,89.91,-0.576,1,0,0,0,0,0,0,0,0,0,90.4,11.5,0,0,0,0,0,0,0,0,90.4,1,0,-0.508,0,0,3,0,0,0,11.5,-3.586,0,0,2,2,0,0,VALID,0,0,0,0,0,1,0,0,0,0,0,0,0,0,0,0,0,0,0,0,1293.82,1294.72,2,0,0.1,0.1,260,7.57,0.34,0.1,41.1,FLYING
46.88,TAKEOFF,TO_CLIMB,198.46,80,-118.46,96.65,17.22,18.54,13.61,90.5,-1.372,0.82,0,0,0,0,0,0,0,0,0,90.4,7,0,0,0,0,0,0,0,0,90.4,1,0,0.096,0,0,3,0,0,0,11.5,-9.244,0,0,1,1,0,0,VALID,0,0,0,0,0,1,0,0,0,0,0,0,0,0,0,0,0,0,0,0,1214.13,1363.04,2,0,0.12,0.12,304,8.73,0.2,0.1,46.16,FLYING
51.9,TAKEOFF,TO_CLIMB,219.57,80,-139.57,205.42,25.35,16.36,9.75,90.42,-0.366,0.82,0,0,0,0,0,0,0,0,0,90.4,7,0,0,0,0,0,0,0,0,90.4,1,0,0.024,0,0,3,0,0,0,11.5,-9.244,0,0,1,1,0,0,VALID,0,0,0,0,0,1,0,0,0,0,0,0,0,0,0,0,0,0,0,0,1217.65,1464.06,2,0,0.12,0.12,345,8.17,0.22,0.12,51.18,FLYING
56.98,ASCENT,AB_CORRIDOR,246.76,80,-166.76,345,29.78,15.69,8.74,90.4,-0.051,0.9668,0,0,0,0,0,0,0,0,0,90.4,7.247,0,0,0,0,0,0,0,0,90.4,1,0,-0.001,0,0,3,0,0,0,11.5,-9.244,0,0,1,1,13.071,3.309,DEGRADED,32212.8,32780.9,0.697,360,0,1.1259,1903.92,1277.63,0.299,0,0,0.8438,1345.95,1595.03,2,0,1347.29,398.84,2,0,1359.98,1601.41,2,0,0.26,0.26,379,6.69,0.44,0.12,1.58,FLYING
62.02,ASCENT,AB_CORRIDOR,280.45,80,-200.45,521.07,42.39,17.52,8.77,90.4,0.001,0.8478,0,0,0,0,0,0,0,0,0,90.4,10.27,0,0,0,0,0,0,0,0,90.4,1,0,-0.001,0,0,3,0,0,0,11.5,-9.244,0,0,1,1,9.475,2.439,DEGRADED,40148.1,40966.9,0.79,547,0,1.1269,4114.05,3063.93,1.57,0,0,0.8822,1564.1,1772.87,2,0,1564.39,443.31,2,0,1567.25,1780.11,2,0,0.26,0.26,398,3.77,0.36,0.26,6.62,FLYING
67.06,ASCENT,AB_CORRIDOR,310.21,80,-230.21,796.74,68.71,21.56,8.65,90.4,0.022,0.7306,0,0,0,0,0,0,0,0,0,90.4,15.101,0,0,0,0,0,0,0,0,90.4,1,0,-0.001,0,0,3,0,0,0,11.5,-9.244,0,0,1,1,9.685,2.568,DEGRADED,47959.5,48583.4,0.877,918,0,1.1279,4537.44,3008.99,2.257,0,0,0.7958,1533.61,1927.23,2,0,1533.15,481.86,2,0,1528.94,1931.54,2,0,0.26,0.26,417,3.77,0.36,0.26,11.66,FLYING
72.1,ASCENT,AB_CORRIDOR,326.16,80,-246.16,1225.98,101.65,26.86,8.76,90.4,0.02,0.6662,0,0,0,0,0,0,0,0,0,90.4,20.406,0,0,0,0,0,0,0,0,90.4,1,0,-0.001,0,0,3,0,0,0,11.5,-9.244,0,0,1,1,9.898,2.65,DEGRADED,52256,52462.8,0.941,1571,0,1.1288,4387.66,2368.36,2.405,0,0,0.7067,1406.33,1990.11,2,0,1405.82,497.53,2,0,1401.08,1990.41,2,0,0.26,0.26,436,3.77,0.36,0.26,16.7,FLYING
77.14,ASCENT,AB_CORRIDOR,328.23,80,-248.23,1819.65,132.61,31.29,8.19,90.4,0.021,0.664,0,0,0,0,0,0,0,0,0,90.4,25,0,0,0,0,0,0,0,0,90.4,1,0,-0.001,0,0,3,0,0,0,11.5,-9.244,0,0,1,1,10.087,2.795,DEGRADED,52400.4,52274,0.983,2501,0,1.1296,4126.74,1863.23,2.116,0,0,0.6686,1312.81,1963.65,2,0,1312.59,490.89,2,0,1310.52,1961.48,2,0,0.26,0.26,455,3.77,0.36,0.26,21.74,FLYING
82.18,ASCENT,AB_CORRIDOR,328.74,80,-248.74,2532.7,146.91,29.89,5.06,90.4,0.035,0.6803,0,0,0,0,0,0,0,0,0,90.4,25,0,0,0,0,0,0,0,0,90.4,1,0,-0.001,0,0,3,0,0,0,11.5,-9.244,0,0,1,1,10.548,3.148,DEGRADED,51314.9,51247.2,1.029,3470,0,1.1305,4119.1,2612.39,1.908,0,0,0.6716,1295.52,1929.14,2,0,1295.54,482.28,2,0,1295.69,1928.46,2,0,0.26,0.26,474,3.77,0.36,0.26,26.78,FLYING
87.22,ASCENT,AB_CORRIDOR,330.4,80,-250.4,3291.3,154.02,29.94,4.91,90.41,0.024,0.6923,0,0,0,0,0,0,0,0,0,90.4,25,0,0,0,0,0,0,0,0,90.4,1,0,-0.001,0,0,3,0,0,0,11.5,-9.244,0,0,1,1,10.893,3.5,DEGRADED,50512.6,50423.4,1.085,4348,0,1.1313,4260.2,2933.99,1.781,0,0,0.6808,1307.04,1919.91,2,0,1307.12,479.98,2,0,1307.88,1919.89,2,0,0.26,0.26,493,3.77,0.36,0.26,31.82,FLYING
92.26,ASCENT,AB_CORRIDOR,331.36,80,-251.36,4085.14,161.01,29.97,4.83,90.41,0.066,0.7081,0,0,0,0,0,0,0,0,0,90.4,25,0,0,0,0,0,0,0,0,90.4,1,0,-0.001,0,0,3,0,0,0,11.5,-9.244,0,0,1,1,11.253,3.872,DEGRADED,49462.5,49354.1,1.146,5257,0,1.1321,4467.52,3142.15,1.628,0,0,0.693,1336.49,1928.51,2,0,1336.65,482.14,2,0,1338.17,1929.29,2,0,0.26,0.26,512,3.77,0.36,0.26,36.86,FLYING
97.3,ASCENT,AB_CORRIDOR,331.89,80,-251.89,4914.17,168.07,29.61,4.42,90.4,0.076,0.726,0,0,0,0,0,0,0,0,0,90.4,25,0,0,0,0,0,0,0,0,90.4,1,0,-0.001,0,0,3,0,0,0,11.5,-9.244,0,0,1,1,11.657,4.275,DEGRADED,48265.1,48150.6,1.214,6212,0,1.133,4763.27,3422.6,1.456,0,0,0.7083,1387.97,1959.59,2,0,1388.23,489.92,2,0,1390.64,1961.36,2,0,0.26,0.26,531,3.77,0.36,0.26,41.88,FLYING
102.34,ASCENT,AB_CORRIDOR,332.49,80,-252.49,5781.18,175.75,28.56,3.4,90.4,0.051,0.744,0,0,0,0,0,0,0,0,0,90.4,25,0,0,0,0,0,0,0,0,90.4,1,0,-0.001,0,0,3,0,0,0,11.5,-9.244,0,0,1,1,12.164,4.734,DEGRADED,47065,46951.1,1.293,7222,0,1.1339,5199.45,3823.81,1.272,0,0,0.7253,1464.97,2019.76,2,0,1465.34,504.98,2,0,1468.91,2023.02,2,0,0.26,0.26,550,3.77,0.36,0.26,46.94,FLYING
107.38,ASCENT,AB_CORRIDOR,333.82,80,-253.82,6691.15,185.45,28.84,3.66,90.4,0.054,0.7592,0,0,0,0,0,0,0,0,0,90.4,25,0,0,0,0,0,0,0,0,90.4,1,0,-0.001,0,0,3,0,0,0,11.5,-9.244,0,0,1,1,12.676,5.221,DEGRADED,46051.7,45956.7,1.387,8311,0,1.1348,5767.75,4413.68,1.082,0,0,0.742,1572.5,2119.2,2,0,1572.98,529.86,2,0,1577.58,2123.91,2,0,0.26,0.26,569,3.77,0.36,0.26,51.98,FLYING
112.42,ASCENT,AB_CORRIDOR,334.65,80,-254.65,7652.94,196.41,29.32,4.14,90.4,0.058,0.775,0,0,0,0,0,0,0,0,0,90.4,25,0,0,0,0,0,0,0,0,90.4,1,0,-0.001,0,0,3,0,0,0,11.5,-9.244,0,0,1,1,13.268,5.764,DEGRADED,44998.1,44892.6,1.498,9498,0,1.1359,6507.59,5060.24,0.951,0,0,0.7578,1708.38,2254.38,2,0,1708.98,563.67,2,0,1714.62,2260.33,2,0,0.26,0.26,588,3.77,0.36,0.26,57.02,FLYING
117.46,ASCENT,AB_CORRIDOR,334.82,80,-254.82,8674.93,209.26,29.84,4.62,90.4,0.063,0.7922,0,0,0,0,0,0,0,0,0,90.4,25,0,0,0,0,0,0,0,0,90.4,1,0,-0.001,0,0,3,0,0,0,11.5,-9.244,0,0,1,1,13.888,6.355,DEGRADED,43856.6,43735.9,1.63,10807,0,1.137,7415.77,5900.46,0.631,0,0,0.774,1856.12,2398.13,2,0,1856.68,599.6,2,0,1862.03,2403.32,2,0,0.26,0.26,607,3.77,0.36,0.26,62.06,FLYING
122.5,ASCENT,AB_CORRIDOR,326.75,80,-246.75,9766.48,223.95,30.21,5.01,90.4,0.065,0.8318,0,0,0,0,0,0,0,0,0,90.4,25,0,0,0,0,0,0,0,0,90.4,1,0,-0.001,0,0,3,0,0,0,11.5,-9.244,0,0,1,1,14.497,6.942,DEGRADED,41212.7,40899.8,1.754,12251,0,1.1382,8244.49,6700.89,0.17,0,0,0.7968,1939.93,2434.64,2,0,1940.23,608.66,2,0,1943.03,2434.44,2,0,0.26,0.26,626,3.77,0.36,0.26,67.1,FLYING
127.54,ASCENT,AB_CORRIDOR,315.26,80,-235.26,10933.67,238.88,30.25,5.09,90.4,0.071,0.8832,0,0,0,0,0,0,0,0,0,90.4,24.698,0,0,0,0,0,0,0,0,90.4,1,0,-0.001,0,0,3,0,0,0,11.5,-9.244,0,0,1,1,15.279,7.645,DEGRADED,37785.8,37445.8,1.881,13836,0,1.1394,9021.29,7450.27,-0.461,0,0,0.8356,2011.42,2407.27,2,0,2011.69,601.79,2,0,2014.16,2405.29,2,0,0.26,0.26,645,3.77,0.36,0.26,72.14,FLYING
132.58,ASCENT,AB_CORRIDOR,302.68,80,-222.68,12158.8,245.42,27.39,3.33,90.39,0.123,0.9354,0,0,0,0,0,0,0,0,0,90.4,22.978,0,0,0,0,0,0,0,0,90.4,1,0,-0.001,0,0,3,0,0,0,11.5,-9.244,0,0,1,1,23.2,8.46,VALID,34307.4,33987.3,2.021,15356,0,1.1407,9885.81,8585.53,-1.127,0,0,0.8831,2068.62,2342.51,2,0,2068.83,585.59,2,0,2070.61,2339.45,2,0,0.26,0.26,664,3.77,0.36,0.26,77.16,FLYING
137.62,ASCENT,AB_CORRIDOR,290.61,80,-210.61,13387.57,240.47,23.97,2.05,90.39,0.251,0.9824,0,0,0,0,0,0,0,0,0,90.4,20.175,0,0,0,0,0,0,0,0,90.4,1,0,-0.001,0,0,3,0,0,0,11.5,-9.244,0,0,1,1,24.795,9.337,VALID,31176.3,30893.9,2.174,16590,0,1.1421,10805.4,9668.27,-1.709,0,0,0.932,2116.38,2270.79,2,0,2116.57,567.67,2,0,2118.28,2268.13,2,0,0.26,0.26,683,3.77,0.36,0.26,82.2,FLYING
142.64,ASCENT,AB_CORRIDOR,280.03,80,-200.03,14573.71,229.12,20.45,1.07,90.39,0.402,1,0,0,0,0,0,0,0,0,0,90.4,17.053,0,0,0,0,0,0,0,0,90.4,1,0,-0.001,0,0,3,0,0,0,11.5,-9.244,0,0,1,1,26.36,10.218,VALID,28551.2,28324.8,2.34,17577,0,1.1434,11750.83,10759.43,-2.289,0,0,0.9731,2152.8,2212.35,2,0,2152.84,553.06,2,0,2153.2,2210.33,2,0,0.26,0.26,702,3.77,0.36,0.26,87.24,FLYING
147.66,ASCENT,AB_CORRIDOR,271.07,80,-191.07,15683.6,212.26,17.2,0.63,90.39,0.573,1,0,0,0,0,0,0,0,0,0,90.4,13.848,0,0,0,0,0,0,0,0,90.4,1,0,-0.001,0,0,3,0,0,0,11.5,-9.244,0,0,1,1,27.959,11.087,VALID,26434.1,26255.1,2.513,18339,0,1.1448,12547.61,11603.89,-2.757,0,0,0.9902,2146.77,2167.99,2,0,2146.7,541.98,2,0,2146.08,2166.48,2,0,0.26,0.26,721,3.8,0.34,0.26,92.26,FLYING
152.68,ASCENT,AB_CORRIDOR,263.62,80,-183.62,16691.34,187.82,12.04,-1.56,90.4,0.005,1,0,0,0,0,0,0,0,0,0,90.4,10.562,0,0,0,0,0,0,0,0,90.4,1,0,-0.001,0,0,3,0,0,0,11.5,-9.244,0,0,1,1,29.587,11.901,VALID,24755,24608,2.686,18869,0,1.1461,13171.34,12173.51,-3.132,0,0,0.9966,2105.68,2112.88,2,0,2105.42,528.18,2,0,2102.87,2109.89,2,0,0.26,0.26,740,3.8,0.34,0.26,97.28,FLYING
157.7,ASCENT,AB_CORRIDOR,258.72,80,-178.72,17552.66,154.8,8.02,-2.45,90.4,0.036,1,0,0,0,0,0,0,0,0,0,90.4,7.274,0,0,0,0,0,0,0,0,90.4,1,0,-0.001,0,0,3,0,0,0,11.5,-9.244,0,0,1,1,31.188,12.631,VALID,23594.6,23512.5,2.858,19102,0,1.1474,13471.37,12539.96,-3.27,0,0,0.999,2021.28,2023.36,2,0,2020.89,505.79,2,0,2017.22,2019.38,2,0,0.26,0.26,759,3.8,0.34,0.26,102.3,FLYING
162.72,ASCENT,AB_CORRIDOR,257.05,80,-177.05,18206.99,105.01,2.12,-4.74,90.4,-0.031,1,0,0,0,0,0,0,0,0,0,90.4,3.721,0,0,0,0,0,0,0,0,90.4,1,0,-0.001,0,0,3,0,0,0,11.5,-9.244,0,0,1,1,17.134,13.236,DEGRADED,23054.8,23045.3,3.02,19006,0,1.1486,13488.29,11881.04,-3.045,0,0,0.9998,1926.54,1926.96,2,0,1926.21,481.7,2,0,1923.08,1923.66,2,0,0.26,0.26,778,3.78,0.34,0.26,107.32,FLYING
167.74,ASCENT,AB_CORRIDOR,261.6,80,-181.6,18613.39,58.62,4.39,0.82,90.4,-0.094,1,0,0,0,0,0,0,0,0,0,90.4,1.113,0,0,0,0,0,0,0,0,90.4,1,0,-0.001,0,0,3,0,0,0,11.5,-9.244,0,0,1,1,18.152,13.985,DEGRADED,23594.7,23703.1,3.189,18861,0,1.1498,13669.77,12401.04,-2.451,0,0,0.9999,1866.3,1866.41,2,0,1866.15,466.58,2,0,1864.77,1864.94,2,0,0.26,0.26,797,3.78,0.34,0.26,112.34,FLYING
172.76,ASCENT,AB_CORRIDOR,270.82,80,-190.82,18839.71,32.58,4.44,2.58,90.39,0.234,1,0,0,0,0,0,0,0,0,0,90.4,0.189,0,0,0,0,0,0,0,0,90.4,1,0,-0.001,0,0,3,0,0,0,11.5,-9.244,0,0,1,1,36.349,14.71,VALID,25101.2,25274.1,3.368,18900,0,1.151,14100.21,12898.31,-1.699,0,0,1,1840.5,1840.41,2,0,1840.44,460.1,2,0,1839.9,1839.85,2,0,0.26,0.26,816,3.8,0.34,0.26,117.36,FLYING
177.8,ASCENT,AB_CORRIDOR,282.59,80,-202.59,18952.07,13.57,6.45,5.7,90.39,0.1,1,0,0,0,0,0,0,0,0,0,90.4,-0.116,0,0,0,0,0,0,0,0,90.4,1,0,-0.001,0,0,3,0,0,0,11.5,-9.244,0,0,1,1,37.996,15.381,VALID,27184.2,27405.8,3.546,18953,0,1.1521,14657.83,13088.8,-0.855,0,0,1,1835.7,1835.72,2,0,1835.71,458.93,2,0,1835.86,1835.88,2,0,0.26,0.26,835,3.78,0.34,0.26,122.38,FLYING
182.84,ASCENT,AB_CORRIDOR,295.11,80,-215.11,19004.03,10.9,9.59,9.01,90.4,0.019,1,0,0,0,0,0,0,0,0,0,90.4,0.392,0,0,0,0,0,0,0,0,90.4,1,0,-0.001,0,0,3,0,0,0,11.5,-9.244,0,0,1,1,27.533,15.919,DEGRADED,29595.7,29818.8,3.717,18997,0,1.1533,15224.17,12637.53,-0.162,0,0,1,1840.9,1840.9,2,0,1840.9,460.23,2,0,1840.94,1840.94,2,0,0.26,0.26,854,3.77,0.36,0.26,127.44,FLYING
187.86,ASCENT,AB_CORRIDOR,305.27,80,-225.27,19086.46,22.68,10.85,9.73,90.4,-0.001,0.9747,0,0,0,0,0,0,0,0,0,90.4,1.346,0,0,0,0,0,0,0,0,90.4,1,0,-0.001,0,0,3,0,0,0,11.5,-9.244,0,0,1,1,28.325,16.447,DEGRADED,31687.8,31862.8,3.872,19089,0,1.1545,15624.24,12068.74,0.239,0,0,0.9894,1812.99,1832.43,2,0,1812.74,458.1,2,0,1810.45,1831.64,2,0,0.26,0.26,873,3.77,0.36,0.26,132.46,FLYING
192.88,ASCENT,AB_CORRIDOR,311.25,80,-231.25,19245.83,41.8,12.47,10.47,90.4,-0.006,0.9545,0,0,0,0,0,0,0,0,0,90.4,2.357,0,0,0,0,0,0,0,0,90.4,1,0,-0.001,0,0,3,0,0,0,11.5,-9.244,0,0,1,1,28.99,16.899,DEGRADED,33031.6,33116.1,4.006,19308,0,1.1556,15525.49,10942.4,0.367,0,0,0.9668,1738.88,1798.53,2,0,1738.55,449.61,2,0,1735.37,1796.5,2,0,0.26,0.26,892,3.78,0.34,0.26,137.48,FLYING
197.9,ASCENT,AB_CORRIDOR,312.7,80,-232.7,19509.51,62.68,12.99,10.07,90.4,-0.011,0.9488,0,0,0,0,0,0,0,0,0,90.4,3.161,0,0,0,0,0,0,0,0,90.4,1,0,-0.001,0,0,3,0,0,0,11.5,-9.244,0,0,1,1,29.785,17.419,DEGRADED,33410.9,33409.4,4.125,19714,0,1.1566,15204.41,10533.21,0.256,0,0,0.9533,1651.23,1732.13,2,0,1650.86,432.99,2,0,1647.41,1728.83,2,0,0.26,0.26,911,3.78,0.34,0.26,142.5,FLYING
202.92,ASCENT,AB_CORRIDOR,310.63,80,-230.63,19868.61,79.7,13.04,9.43,90.4,-0.009,0.9546,0,0,0,0,0,0,0,0,0,90.4,3.626,0,0,0,0,0,0,0,0,90.4,1,0,-0.001,0,0,3,0,0,0,11.5,-9.244,0,0,1,1,30.565,17.978,DEGRADED,33023.8,32955.3,4.238,20264,0,1.1577,14775.81,10547.68,0.029,0,0,0.9516,1556.85,1635.99,2,0,1556.45,408.94,2,0,1552.69,1631.63,2,0,0.26,0.26,930,3.78,0.34,0.26,147.52,FLYING
207.94,ASCENT,AB_CORRIDOR,305.54,80,-225.54,20304.76,93.22,12.71,8.59,90.4,-0.012,0.9701,0,0,0,0,0,0,0,0,0,90.4,3.804,0,0,0,0,0,0,0,0,90.4,1,0,-0.001,0,0,3,0,0,0,11.5,-9.244,0,0,1,1,31.285,18.553,DEGRADED,31993.3,31870.6,4.342,20909,0,1.1586,14190.66,10312.32,-0.308,0,0,0.9584,1452.86,1515.88,2,0,1452.44,378.91,2,0,1448.35,1510.7,2,0,0.26,0.26,949,3.78,0.34,0.26,152.54,FLYING
212.96,ASCENT,AB_CORRIDOR,299.11,80,-219.11,20785.53,95.71,9.12,4.99,90.4,-0.009,0.9905,0,0,0,0,0,0,0,0,0,90.4,3.497,0,0,0,0,0,0,0,0,90.4,1,0,-0.001,0,0,3,0,0,0,11.5,-9.244,0,0,1,1,32.229,19.26,DEGRADED,30634.2,30507,4.447,21506,0,1.1595,13554.67,10933.77,-0.637,0,0,0.9728,1344.07,1381.69,2,0,1343.65,345.35,2,0,1339.59,1376.34,2,0,0.26,0.26,968,3.78,0.34,0.26,157.56,FLYING
218.04,ASCENT,AB_CORRIDOR,292.92,80,-212.92,21253.33,88.69,7.87,4.15,90.4,0.044,1,0,0,0,0,0,0,0,0,0,90.4,2.834,0,0,0,0,0,0,0,0,90.4,1,0,-0.001,0,0,3,0,0,0,11.5,-9.244,0,0,1,1,32.994,19.854,DEGRADED,29329.2,29222,4.551,21912,0,1.1603,12813.81,10718.36,-0.897,0,0,0.9892,1236.58,1250.08,2,0,1236.14,312.46,2,0,1231.96,1245.08,2,0,0.24,0.24,988,3.95,0.34,0.24,162.64,FLYING
223.18,ASCENT,AB_CORRIDOR,287.44,80,-207.44,21677.35,75.63,6.08,2.97,90.4,0.008,1,0,0,0,0,0,0,0,0,0,90.4,2.032,0,0,0,0,0,0,0,0,90.4,1,0,-0.001,0,0,3,0,0,0,11.5,-9.244,0,0,1,1,33.717,20.407,DEGRADED,28190.6,28104.4,4.648,22189,0,1.1611,11950.32,10070.11,-1.084,0,0,0.9965,1124.06,1127.99,2,0,1123.64,281.94,2,0,1119.63,1123.58,2,0,0.24,0.24,1009,4.09,0.34,0.24,167.78,FLYING
228.32,ASCENT,AB_CORRIDOR,283.72,80,-203.72,22022.53,58.4,4.73,2.38,90.4,-0.004,1,0,0,0,0,0,0,0,0,0,90.4,1.201,0,0,0,0,0,0,0,0,90.4,1,0,-0.001,0,0,3,0,0,0,11.5,-9.244,0,0,1,1,49.174,20.899,VALID,27393.8,27342.4,4.74,22337,0,1.1617,11098.48,9488.85,-1.161,0,0,0.9991,1024.21,1025.17,2,0,1023.86,256.25,2,0,1020.56,1021.63,2,0,0.24,0.24,1030,4.09,0.34,0.24,172.92,FLYING
233.46,ASCENT,AB_CORRIDOR,281.34,80,-201.34,22291.68,46.36,5.71,3.87,90.39,0.131,1,0,0,0,0,0,0,0,0,0,90.4,0.619,0,0,0,0,0,0,0,0,90.4,1,0,-0.001,0,0,3,0,0,0,11.5,-9.244,0,0,1,1,35.021,21.31,DEGRADED,26896.1,26863.1,4.822,22483,0,1.1624,10348.09,8470.82,-1.218,0,0,0.9999,942.44,942.49,2,0,942.15,235.59,2,0,939.39,939.57,2,0,0.24,0.24,1051,4.09,0.34,0.24,178.06,FLYING
238.5,ASCENT,AB_CORRIDOR,280.34,80,-200.34,22495.04,34.24,5.03,3.67,90.4,0.053,1,0,0,0,0,0,0,0,0,0,90.4,0.155,0,0,0,0,0,0,0,0,90.4,1,0,-0.001,0,0,3,0,0,0,11.5,-9.244,0,0,1,1,35.529,21.662,DEGRADED,26660.7,26645.7,4.897,22593,0,1.1629,9770.82,7925.13,-1.195,0,0,1.0002,876.59,876.4,2,0,876.36,219.07,2,0,873.87,873.8,2,0,0.28,0.28,1069,3.56,0.34,0.24,183.1,FLYING
243.62,ASCENT,AB_CORRIDOR,280.7,80,-200.7,22637.93,21.62,4.63,3.79,90.4,-0.003,1,0,0,0,0,0,0,0,0,0,90.4,-0.241,0,0,0,0,0,0,0,0,90.4,1,0,-0.001,0,0,3,0,0,0,11.5,-9.244,0,0,1,1,36.123,22.051,DEGRADED,26671.9,26687,4.97,22672,0,1.1635,9284.26,7490.26,-1.085,0,0,1.0003,823.68,823.41,2,0,823.5,205.83,2,0,821.62,821.44,2,0,0.28,0.28,1087,3.52,0.36,0.28,188.22,FLYING
248.74,ASCENT,AB_CORRIDOR,282.55,80,-202.55,22715.08,9.56,5.67,5.38,90.4,-0.002,1,0,0,0,0,0,0,0,0,0,90.4,-0.527,0,0,0,0,0,0,0,0,90.4,1,0,-0.001,0,0,3,0,0,0,11.5,-9.244,0,0,1,1,36.621,22.366,DEGRADED,26975.8,27021.2,5.039,22715,0,1.164,8922.05,7025.23,-0.889,0,0,1.0002,784.75,784.57,2,0,784.63,196.13,2,0,783.46,783.34,2,0,0.28,0.28,1105,3.52,0.36,0.28,193.34,FLYING
253.88,ASCENT,AB_CORRIDOR,285.18,80,-205.18,22745.93,4.16,6.56,6.45,90.4,-0.038,1,0,0,0,0,0,0,0,0,0,90.4,-0.538,0,0,0,0,0,0,0,0,90.4,1,0,-0.001,0,0,3,0,0,0,11.5,-9.244,0,0,1,1,37.03,22.626,DEGRADED,27461.9,27513.4,5.1,22741,0,1.1645,8648.35,6049.59,-0.697,0,0,1.0002,756.74,756.61,2,0,756.65,189.14,2,0,755.71,755.62,2,0,0.28,0.28,1123,3.5,0.38,0.28,198.48,FLYING
259,ASCENT,AB_CORRIDOR,287.72,80,-207.72,22764.22,3.69,8.31,8.11,90.41,-0.078,1,0,0,0,0,0,0,0,0,0,90.4,-0.411,0,0,0,0,0,0,0,0,90.4,1,0,-0.001,0,0,3,0,0,0,11.5,-9.244,0,0,1,1,37.372,22.813,DEGRADED,27952.4,27996.9,5.153,22759,0,1.165,8427.24,5313.51,-0.546,0,0,1.0002,732.31,732.16,2,0,732.21,183.03,2,0,731.14,731.04,2,0,0.28,0.28,1141,3.52,0.36,0.28,203.6,FLYING
264.14,ASCENT,AB_CORRIDOR,289.26,80,-209.26,22796.45,9.02,9.17,8.84,90.41,-0.082,1,0,0,0,0,0,0,0,0,0,90.4,-0.168,0,0,0,0,0,0,0,0,90.4,1,0,-0.001,0,0,3,0,0,0,11.5,-9.244,0,0,1,1,37.491,22.909,DEGRADED,28285.2,28307.1,5.197,22791,0,1.1654,8192.12,4359.8,-0.498,0,0,1.0002,707.34,707.21,2,0,707.25,176.79,2,0,706.24,706.13,2,0,0.28,0.28,1159,3.5,0.38,0.28,208.74,FLYING
269.26,ASCENT,AB_CORRIDOR,289.66,80,-209.66,22859.1,15.27,9.24,8.7,90.41,-0.091,1,0,0,0,0,0,0,0,0,0,90.4,0.027,0,0,0,0,0,0,0,0,90.4,1,0,-0.001,0,0,3,0,0,0,11.5,-9.244,0,0,1,1,37.714,23.045,DEGRADED,28385.9,28388.3,5.235,22861,0,1.1659,7929.12,4120.55,-0.524,0,0,1.0003,677.73,677.54,2,0,677.6,169.37,2,0,676.32,676.2,2,0,0.28,0.28,1177,3.52,0.36,0.28,213.86,FLYING
274.38,ASCENT,AB_CORRIDOR,289.17,80,-209.17,22948.81,19.58,8.48,7.8,90.41,-0.115,1,0,0,0,0,0,0,0,0,0,90.4,0.124,0,0,0,0,0,0,0,0,90.4,1,0,-0.001,0,0,3,0,0,0,11.5,-9.244,0,0,1,1,37.947,23.228,DEGRADED,28307.4,28293.7,5.27,22964,0,1.1663,7609.32,3994.35,-0.583,0,0,1.0003,643.12,642.93,2,0,642.99,160.72,2,0,641.61,641.46,2,0,0.28,0.28,1195,3.52,0.36,0.28,218.98,FLYING
279.5,ASCENT,AB_CORRIDOR,288.28,80,-208.28,23053.32,21.1,8.06,7.34,90.42,-0.139,1,0,0,0,0,0,0,0,0,0,90.4,0.108,0,0,0,0,0,0,0,0,90.4,1,0,-0.001,0,0,3,0,0,0,11.5,-9.244,0,0,1,1,38.224,23.413,DEGRADED,28133.6,28115.4,5.306,23077,0,1.1667,7244.92,4125.43,-0.645,0,0,1.0004,605.54,605.32,2,0,605.39,151.31,2,0,603.94,603.8,2,0,0.28,0.28,1213,3.52,0.36,0.28,224.1,FLYING
284.62,ASCENT,AB_CORRIDOR,287.24,80,-207.24,23160.29,20.73,7.61,6.86,90.42,-0.156,1,0,0,0,0,0,0,0,0,0,90.4,0.039,0,0,0,0,0,0,0,0,90.4,1,0,-0.001,0,0,3,0,0,0,11.5,-9.244,0,0,1,1,38.501,23.62,DEGRADED,27925,27903.5,5.34,23186,0,1.1671,6858.39,3941.55,-0.702,0,0,1.0004,568.63,568.42,2,0,568.49,142.09,2,0,567,566.86,2,0,0.28,0.28,1231,3.52,0.36,0.28,229.22,FLYING
289.74,ASCENT,AB_CORRIDOR,286.16,80,-206.16,23263.43,19.35,7.04,6.34,90.42,-0.176,1,0,0,0,0,0,0,0,0,0,90.4,-0.063,0,0,0,0,0,0,0,0,90.4,1,0,-0.001,0,0,3,0,0,0,11.5,-9.244,0,0,1,1,38.779,23.829,DEGRADED,27710.9,27688.7,5.372,23286,0,1.1674,6483.83,3634.99,-0.754,0,0,1.0003,534.02,533.84,2,0,533.9,133.44,2,0,532.54,532.4,2,0,0.28,0.28,1249,3.52,0.36,0.28,234.34,FLYING
294.86,ASCENT,AB_CORRIDOR,285.23,80,-205.23,23357.43,17.2,6.69,6.09,90.42,-0.185,1,0,0,0,0,0,0,0,0,0,90.4,-0.18,0,0,0,0,0,0,0,0,90.4,1,0,-0.001,0,0,3,0,0,0,11.5,-9.244,0,0,1,1,39.029,24.01,DEGRADED,27520.3,27502.6,5.402,23373,0,1.1678,6135.94,3465.89,-0.791,0,0,1.0003,502.47,502.3,2,0,502.36,125.56,2,0,501.16,501.04,2,0,0.28,0.28,1267,3.52,0.36,0.28,239.46,FLYING
299.98,ASCENT,AB_CORRIDOR,284.54,80,-204.54,23437.64,14.35,6.71,6.21,90.42,-0.199,1,0,0,0,0,0,0,0,0,0,90.4,-0.303,0,0,0,0,0,0,0,0,90.4,1,0,-0.001,0,0,3,0,0,0,11.5,-9.244,0,0,1,1,39.286,24.181,DEGRADED,27375.1,27363,5.43,23446,0,1.1681,5822.39,3190.62,-0.808,0,0,1.0003,474.87,474.71,2,0,474.76,118.66,2,0,473.69,473.59,2,0,0.28,0.28,1285,3.52,0.36,0.28,244.58,FLYING
305.1,ASCENT,AB_CORRIDOR,284.07,80,-204.07,23502.96,11.52,6.61,6.23,90.42,-0.207,1,0,0,0,0,0,0,0,0,0,90.4,-0.41,0,0,0,0,0,0,0,0,90.4,1,0,-0.001,0,0,3,0,0,0,11.5,-9.244,0,0,1,1,39.496,24.343,DEGRADED,27277.4,27269.1,5.455,23505,0,1.1684,5549.67,2725.88,-0.815,0,0,1.0002,451.43,451.33,2,0,451.36,112.82,2,0,450.62,450.54,2,0,0.28,0.28,1303,3.52,0.36,0.28,249.7,FLYING
310.22,ASCENT,AB_CORRIDOR,283.87,80,-203.87,23555.31,9.1,6.77,6.43,90.42,-0.221,1,0,0,0,0,0,0,0,0,0,90.4,-0.491,0,0,0,0,0,0,0,0,90.4,1,0,-0.001,0,0,3,0,0,0,11.5,-9.244,0,0,1,1,39.715,24.476,DEGRADED,27225,27222.7,5.477,23553,0,1.1687,5317.31,2643.66,-0.81,0,0,1.0003,431.2,431.08,2,0,431.12,107.76,2,0,430.28,430.2,2,0,0.28,0.28,1321,3.52,0.36,0.28,254.82,FLYING
315.34,ASCENT,AB_CORRIDOR,283.78,80,-203.78,23597.23,7.48,6.7,6.44,90.42,-0.228,1,0,0,0,0,0,0,0,0,0,90.4,-0.54,0,0,0,0,0,0,0,0,90.4,1,0,-0.001,0,0,3,0,0,0,11.5,-9.244,0,0,1,1,39.878,24.604,DEGRADED,27204.1,27202.7,5.497,23593,0,1.1689,5112.66,2198.79,-0.803,0,0,1.0002,414,413.92,2,0,413.94,103.47,2,0,413.35,413.28,2,0,0.28,0.28,1339,3.52,0.36,0.28,259.94,FLYING
320.46,ASCENT,AB_CORRIDOR,283.79,80,-203.79,23632.82,6.37,7.12,6.88,90.43,-0.241,1,0,0,0,0,0,0,0,0,0,90.4,-0.573,0,0,0,0,0,0,0,0,90.4,1,0,-0.001,0,0,3,0,0,0,11.5,-9.244,0,0,1,1,40.029,24.691,DEGRADED,27198.7,27200,5.516,23628,0,1.1692,4936.72,2140.97,-0.795,0,0,1.0002,398.66,398.57,2,0,398.6,99.63,2,0,397.95,397.89,2,0,0.28,0.28,1357,3.52,0.36,0.28,265.06,FLYING
325.58,ASCENT,AB_CORRIDOR,283.73,80,-203.73,23663.25,6,6.8,6.65,90.43,-0.253,1,0,0,0,0,0,0,0,0,0,90.4,-0.582,0,0,0,0,0,0,0,0,90.4,1,0,-0.001,0,0,3,0,0,0,11.5,-9.244,0,0,1,1,40.144,24.802,DEGRADED,27196.2,27192.2,5.531,23658,0,1.1694,4778.49,1564.69,-0.792,0,0,1.0001,385.77,385.75,2,0,385.76,96.43,2,0,385.42,385.37,2,0,0.28,0.28,1375,3.52,0.36,0.28,270.18,FLYING
330.7,ASCENT,AB_CORRIDOR,283.73,80,-203.73,23690.47,5.3,6.94,6.77,90.43,-0.26,1,0,0,0,0,0,0,0,0,0,90.4,-0.603,0,0,0,0,0,0,0,0,90.4,1,0,-0.001,0,0,3,0,0,0,11.5,-9.244,0,0,1,1,40.283,24.883,DEGRADED,27189,27187.5,5.545,23685,0,1.1697,4644.15,1464.72,-0.788,0,0,1.0001,374.17,374.13,2,0,374.14,93.53,2,0,373.79,373.74,2,0,0.28,0.28,1393,3.52,0.36,0.28,275.3,FLYING
335.82,ASCENT,AB_CORRIDOR,283.61,80,-203.61,23717.73,5.58,7.32,7.14,90.43,-0.263,1,0,0,0,0,0,0,0,0,0,90.4,-0.604,0,0,0,0,0,0,0,0,90.4,1,0,-0.001,0,0,3,0,0,0,11.5,-9.244,0,0,1,1,40.366,24.938,DEGRADED,27169.8,27164.8,5.556,23713,0,1.1699,4521.37,1301.97,-0.796,0,0,1.0001,363.79,363.75,2,0,363.76,90.93,2,0,363.37,363.32,2,0,0.28,0.28,1411,3.52,0.36,0.28,280.42,FLYING
340.94,ASCENT,AB_CORRIDOR,283.42,80,-203.42,23746.31,5.61,6.93,6.72,90.43,-0.278,1,0,0,0,0,0,0,0,0,0,90.4,-0.613,0,0,0,0,0,0,0,0,90.4,1,0,-0.001,0,0,3,0,0,0,11.5,-9.244,0,0,1,1,40.51,25.027,DEGRADED,27130.7,27123.9,5.567,23741,0,1.1702,4407.62,1206.75,-0.809,0,0,1.0002,353.89,353.83,2,0,353.85,88.45,2,0,353.37,353.32,2,0,0.28,0.28,1429,3.52,0.36,0.28,285.54,FLYING
346.06,ASCENT,AB_CORRIDOR,283.19,80,-203.19,23775.8,5.6,7.67,7.44,90.44,-0.299,1,0,0,0,0,0,0,0,0,0,90.4,-0.632,0,0,0,0,0,0,0,0,90.4,1,0,-0.001,0,0,3,0,0,0,11.5,-9.244,0,0,1,1,40.552,25.039,DEGRADED,27084.1,27081,5.578,23771,0,1.1704,4297.15,1365.63,-0.822,0,0,1.0002,343.88,343.81,2,0,343.83,85.95,2,0,343.4,343.36,2,0,0.28,0.28,1447,3.52,0.36,0.28,290.66,FLYING
351.18,ASCENT,AB_CORRIDOR,282.91,80,-202.91,23805.2,5.5,8.05,7.83,90.44,-0.306,1,0,0,0,0,0,0,0,0,0,90.4,-0.655,0,0,0,0,0,0,0,0,90.4,1,0,-0.001,0,0,3,0,0,0,11.5,-9.244,0,0,1,1,40.618,25.08,DEGRADED,27029,27026.1,5.588,23800,0,1.1706,4190.42,1310.91,-0.837,0,0,1.0002,334.65,334.58,2,0,334.61,83.64,2,0,334.21,334.19,2,0,0.28,0.28,1465,3.52,0.36,0.28,295.78,FLYING
356.3,ASCENT,AB_CORRIDOR,282.5,80,-202.5,23833.86,6.08,7.91,7.73,90.43,-0.272,1,0,0,0,0,0,0,0,0,0,90.4,-0.655,0,0,0,0,0,0,0,0,90.4,1,0,-0.001,0,0,3,0,0,0,11.5,-9.244,0,0,1,1,40.685,25.164,DEGRADED,26962,26950,5.595,23829,0,1.1708,4088.3,772.94,-0.86,0,0,1.0001,327.16,327.14,2,0,327.14,81.78,2,0,326.87,326.84,2,0,0.28,0.28,1483,3.52,0.36,0.28,300.9,FLYING
361.44,ASCENT,AB_CORRIDOR,281.98,80,-201.98,23866.63,6.58,8.53,8.29,90.44,-0.301,1,0,0,0,0,0,0,0,0,0,90.4,-0.681,0,0,0,0,0,0,0,0,90.4,1,0,-0.001,0,0,3,0,0,0,11.5,-9.244,0,0,1,1,40.734,25.166,DEGRADED,26861.1,26852.6,5.602,23862,0,1.171,4004.13,930.64,-0.898,0,0,1.0002,319.49,319.43,2,0,319.45,79.85,2,0,319.18,319.16,2,0,0.28,0.28,1501,3.5,0.38,0.28,306.04,FLYING
366.56,ASCENT,AB_CORRIDOR,281.25,80,-201.25,23902.7,7.62,7.09,6.87,90.44,-0.332,1,0,0,0,0,0,0,0,0,0,90.4,-0.69,0,0,0,0,0,0,0,0,90.4,1,0,-0.001,0,0,3,0,0,0,11.5,-9.244,0,0,1,1,40.824,25.273,DEGRADED,26728.1,26714.2,5.607,23899,0,1.1712,3922.48,662.84,-0.95,0,0,1.0001,312.94,312.92,2,0,312.92,78.23,2,0,312.78,312.76,2,0,0.28,0.28,1519,3.52,0.36,0.28,311.16,FLYING
371.68,ASCENT,AB_CORRIDOR,280.48,80,-200.48,23941.26,7.68,7.59,7.3,90.44,-0.327,1,0,0,0,0,0,0,0,0,0,90.4,-0.738,0,0,0,0,0,0,0,0,90.4,1,0,-0.001,0,0,3,0,0,0,11.5,-9.244,0,0,1,1,40.936,25.319,DEGRADED,26579.8,26563.9,5.611,23938,0,1.1714,3843.43,598.95,-0.997,0,0,1.0002,306.41,306.36,2,0,306.38,76.58,2,0,306,305.97,2,0,0.28,0.28,1537,3.52,0.36,0.28,316.28,FLYING
376.8,ASCENT,AB_CORRIDOR,279.77,80,-199.77,23979.08,7.06,6.83,6.55,90.44,-0.347,1,0,0,0,0,0,0,0,0,0,90.4,-0.795,0,0,0,0,0,0,0,0,90.4,1,0,-0.001,0,0,3,0,0,0,11.5,-9.244,0,0,1,1,41.011,25.386,DEGRADED,26440.7,26426.2,5.617,23975,0,1.1716,3763.13,720.58,-1.037,0,0,1.0002,299.3,299.24,2,0,299.26,74.81,2,0,298.86,298.82,2,0,0.28,0.28,1555,3.52,0.36,0.28,321.4,FLYING
381.92,ASCENT,AB_CORRIDOR,278.96,80,-198.96,24016.4,7.3,8.09,7.86,90.45,-0.369,1,0,0,0,0,0,0,0,0,0,90.4,-0.843,0,0,0,0,0,0,0,0,90.4,1,0,-0.001,0,0,3,0,0,0,11.5,-9.244,0,0,1,1,40.944,25.35,DEGRADED,26292.6,26280,5.621,24012,0,1.1718,3689.92,616.04,-1.084,0,0,1.0001,293.37,293.33,2,0,293.34,73.33,2,0,293.22,293.22,2,0,0.28,0.28,1573,3.52,0.36,0.28,326.52,FLYING
387.04,ASCENT,AB_CORRIDOR,278.16,80,-198.16,24052.08,7.07,6.57,6.34,90.44,-0.397,1,0,0,0,0,0,0,0,0,0,90.4,-0.89,0,0,0,0,0,0,0,0,90.4,1,0,-0.001,0,0,3,0,0,0,11.5,-9.244,0,0,1,1,41.117,25.489,DEGRADED,26142.8,26123.9,5.623,24048,0,1.172,3624.45,323.36,-1.134,0,0,1.0001,288.58,288.54,2,0,288.56,72.13,2,0,288.22,288.18,2,0,0.28,0.28,1591,3.52,0.36,0.28,331.64,FLYING
392.16,ASCENT,AB_CORRIDOR,277.49,80,-197.49,24086.57,6.05,7.16,6.88,90.44,-0.387,1,0,0,0,0,0,0,0,0,0,90.4,-0.963,0,0,0,0,0,0,0,0,90.4,1,0,-0.001,0,0,3,0,0,0,11.5,-9.244,0,0,1,1,41.135,25.485,DEGRADED,26006.8,25995.8,5.627,24082,0,1.1722,3563.57,644.36,-1.17,0,0,1.0002,282.75,282.7,2,0,282.71,70.67,2,0,282.38,282.35,2,0,0.28,0.28,1609,3.52,0.36,0.28,336.76,FLYING
397.28,ASCENT,AB_CORRIDOR,276.79,80,-196.79,24118.64,6.54,7.28,7.13,90.44,-0.395,1,0,0,0,0,0,0,0,0,0,90.4,-0.995,0,0,0,0,0,0,0,0,90.4,1,0,-0.001,0,0,3,0,0,0,11.5,-9.244,0,0,1,1,41.077,25.488,DEGRADED,25884.6,25872.2,5.631,24114,0,1.1723,3498.02,473.72,-1.212,0,0,1,277.75,277.74,2,0,277.74,69.43,2,0,277.76,277.77,2,0,0.28,0.28,1627,3.52,0.36,0.28,341.88,FLYING
402.4,ASCENT,AB_CORRIDOR,276.19,80,-196.19,24147.91,5.51,6.81,6.62,90.44,-0.413,1,0,0,0,0,0,0,0,0,0,90.4,-1.056,0,0,0,0,0,0,0,0,90.4,1,0,-0.001,0,0,3,0,0,0,11.5,-9.244,0,0,1,1,41.206,25.574,DEGRADED,25765.7,25752.8,5.633,24143,0,1.1725,3445.1,329.98,-1.246,0,0,1,273.57,273.56,2,0,273.56,68.39,2,0,273.36,273.34,2,0,0.28,0.28,1645,3.52,0.36,0.28,347,FLYING
407.52,ASCENT,AB_CORRIDOR,275.65,80,-195.65,24174.38,4.65,7.08,6.9,90.45,-0.451,1,0,0,0,0,0,0,0,0,0,90.4,-1.118,0,0,0,0,0,0,0,0,90.4,1,0,-0.001,0,0,3,0,0,0,11.5,-9.244,0,0,1,1,41.259,25.589,DEGRADED,25659.3,25650.4,5.636,24169,0,1.1727,3398.92,444.18,-1.274,0,0,1.0001,269.57,269.53,2,0,269.55,67.38,2,0,269.28,269.26,2,0,0.28,0.28,1663,3.52,0.36,0.28,352.12,FLYING
412.64,ASCENT,AB_CORRIDOR,275.3,80,-195.3,24194.33,3.38,7.05,6.98,90.45,-0.483,1,0,0,0,0,0,0,0,0,0,90.4,-1.171,0,0,0,0,0,0,0,0,90.4,1,0,-0.001,0,0,3,0,0,0,11.5,-9.244,0,0,1,1,41.215,25.603,DEGRADED,25593.5,25588.2,5.64,24190,0,1.1729,3350.68,428.18,-1.286,0,0,0.9999,265.5,265.51,2,0,265.51,66.38,2,0,265.6,265.6,2,0,0.28,0.28,1681,3.52,0.36,0.28,357.24,FLYING
417.76,ASCENT,AB_CORRIDOR,275.1,80,-195.1,24207.55,2.52,6.06,6.02,90.44,-0.477,1,0,0,0,0,0,0,0,0,0,90.4,-1.203,0,0,0,0,0,0,0,0,90.4,1,0,-0.001,0,0,3,0,0,0,11.5,-9.244,0,0,1,1,41.379,25.711,DEGRADED,25552.9,25545.1,5.642,24203,0,1.173,3309.88,138.17,-1.293,0,0,1,262.88,262.88,2,0,262.88,65.72,2,0,262.78,262.76,2,0,0.28,0.28,1699,3.52,0.36,0.28,362.36,FLYING
422.88,ASCENT,AB_CORRIDOR,275.04,80,-195.04,24215.26,1.21,6.92,6.93,90.45,-0.489,1,0,0,0,0,0,0,0,0,0,90.4,-1.242,0,0,0,0,0,0,0,0,90.4,1,0,-0.001,0,0,3,0,0,0,11.5,-9.244,0,0,1,1,41.326,25.684,DEGRADED,25539.4,25537.5,5.646,24212,0,1.1732,3280.94,219.62,-1.286,0,0,0.9999,260.26,260.3,2,0,260.29,65.08,2,0,260.41,260.4,2,0,0.28,0.28,1717,3.52,0.36,0.28,367.48,FLYING
428,ASCENT,AB_CORRIDOR,274.98,80,-194.98,24219.33,1.07,6.75,6.76,90.45,-0.491,1,0,0,0,0,0,0,0,0,0,90.4,-1.251,0,0,0,0,0,0,0,0,90.4,1,0,-0.001,0,0,3,0,0,0,11.5,-9.244,0,0,1,1,41.401,25.719,DEGRADED,25526.7,25525.3,5.647,24216,0,1.1734,3264.81,37.32,-1.289,0,0,0.9999,259.43,259.44,2,0,259.44,64.86,2,0,259.55,259.55,2,0,0.28,0.28,1735,3.52,0.36,0.28,372.6,FLYING
433.12,ASCENT,AB_CORRIDOR,275.05,80,-195.05,24220.5,0.06,7.17,7.19,90.45,-0.455,1,0,0,0,0,0,0,0,0,0,90.4,-1.271,0,0,0,0,0,0,0,0,90.4,1,0,-0.001,0,0,3,0,0,0,11.5,-9.244,0,0,1,1,41.425,25.734,DEGRADED,25538.6,25535.9,5.648,24218,0,1.1735,3249.64,-24.24,-1.276,0,0,0.9999,258.22,258.25,2,0,258.24,64.56,2,0,258.25,258.24,2,0,0.28,0.28,1753,3.52,0.36,0.28,377.72,FLYING
438.24,ASCENT,AB_CORRIDOR,275.12,80,-195.12,24220.22,0.53,8.11,8.1,90.45,-0.423,1,0,0,0,0,0,0,0,0,0,90.4,-1.258,0,0,0,0,0,0,0,0,90.4,1,0,-0.001,0,0,3,0,0,0,11.5,-9.244,0,0,1,1,31.054,25.698,DEGRADED,25552.8,25550.2,5.65,24218,0,1.1737,3236.43,-54.75,-1.274,0,0,1,257.57,257.57,2,0,257.57,64.39,2,0,257.57,257.57,2,0,0.28,0.28,1771,3.52,0.36,0.28,382.84,FLYING
443.36,ASCENT,AB_CORRIDOR,275.09,80,-195.09,24224.34,0.76,7.82,7.77,90.46,-0.495,1,0,0,0,0,0,0,0,0,0,90.4,-1.257,0,0,0,0,0,0,0,0,90.4,1,0,-0.001,0,0,3,0,0,0,11.5,-9.244,0,0,1,1,41.44,25.692,DEGRADED,25541.9,25542.7,5.651,24221,0,1.1739,3234.86,261.88,-1.279,0,0,1.0001,256.44,256.42,2,0,256.43,64.1,2,0,256.34,256.34,2,0,0.28,0.28,1789,3.52,0.36,0.28,387.96,FLYING
448.48,ASCENT,AB_CORRIDOR,274.93,80,-194.93,24229.56,1.36,7.06,7.01,90.46,-0.507,1,0,0,0,0,0,0,0,0,0,90.4,-1.246,0,0,0,0,0,0,0,0,90.4,1,0,-0.001,0,0,3,0,0,0,11.5,-9.244,0,0,1,1,41.484,25.74,DEGRADED,25516.2,25513.7,5.651,24226,0,1.174,3227.99,54.22,-1.295,0,0,1,256.25,256.24,2,0,256.25,64.06,2,0,256.16,256.15,2,0,0.28,0.28,1807,3.52,0.36,0.28,393.08,FLYING
453.6,ASCENT,AB_CORRIDOR,274.79,80,-194.79,24236.89,1.16,7.03,6.94,90.46,-0.546,1,0,0,0,0,0,0,0,0,0,90.4,-1.262,0,0,0,0,0,0,0,0,90.4,1,0,-0.001,0,0,3,0,0,0,11.5,-9.244,0,0,1,1,41.547,25.761,DEGRADED,25487.6,25485.1,5.651,24233,0,1.1742,3219.89,147,-1.302,0,0,1.0001,255.22,255.19,2,0,255.2,63.8,2,0,255.03,255.02,2,0,0.28,0.28,1825,3.52,0.36,0.28,398.2,FLYING
458.74,ASCENT,AB_CORRIDOR,274.71,80,-194.71,24242.48,1.02,7.69,7.67,90.47,-0.556,1,0,0,0,0,0,0,0,0,0,90.4,-1.275,0,0,0,0,0,0,0,0,90.4,1,0,-0.001,0,0,3,0,0,0,11.5,-9.244,0,0,1,1,41.438,25.699,DEGRADED,25473.3,25474.4,5.653,24239,0,1.1744,3205.49,277.87,-1.305,0,0,1,253.75,253.74,2,0,253.74,63.43,2,0,253.76,253.78,2,0,0.28,0.28,1843,3.5,0.38,0.28,403.34,FLYING
463.86,ASCENT,AB_CORRIDOR,274.68,80,-194.68,24245.52,0.49,7.51,7.47,90.46,-0.544,1,0,0,0,0,0,0,0,0,0,90.4,-1.287,0,0,0,0,0,0,0,0,90.4,1,0,-0.001,0,0,3,0,0,0,11.5,-9.244,0,0,1,1,41.506,25.741,DEGRADED,25465.1,25465.5,5.654,24243,0,1.1745,3194.33,163.42,-1.305,0,0,1.0001,253.07,253.06,2,0,253.06,63.26,2,0,253,253,2,0,0.28,0.28,1861,3.52,0.36,0.28,408.46,FLYING
468.98,ASCENT,AB_CORRIDOR,274.68,80,-194.68,24248.11,0.35,7.36,7.31,90.47,-0.567,1,0,0,0,0,0,0,0,0,0,90.4,-1.291,0,0,0,0,0,0,0,0,90.4,1,0,-0.001,0,0,3,0,0,0,11.5,-9.244,0,0,1,1,41.535,25.752,DEGRADED,25463.5,25464.9,5.655,24245,0,1.1747,3184.4,228.91,-1.304,0,0,1.0001,252.08,252.06,2,0,252.07,63.01,2,0,251.95,251.94,2,0,0.28,0.28,1879,3.52,0.36,0.28,413.58,FLYING
474.1,ASCENT,AB_CORRIDOR,274.62,80,-194.62,24251.12,0.43,7.16,7.11,90.46,-0.572,1,0,0,0,0,0,0,0,0,0,90.4,-1.292,0,0,0,0,0,0,0,0,90.4,1,0,-0.001,0,0,3,0,0,0,11.5,-9.244,0,0,1,1,41.578,25.783,DEGRADED,25452.8,25452.2,5.655,24248,0,1.1748,3178.36,98.43,-1.309,0,0,1,251.7,251.69,2,0,251.69,62.92,2,0,251.55,251.54,2,0,0.28,0.28,1897,3.52,0.36,0.28,418.7,FLYING
479.22,ASCENT,AB_CORRIDOR,274.5,80,-194.5,24254.74,0.7,7.17,7.11,90.46,-0.562,1,0,0,0,0,0,0,0,0,0,90.4,-1.292,0,0,0,0,0,0,0,0,90.4,1,0,-0.001,0,0,3,0,0,0,11.5,-9.244,0,0,1,1,41.626,25.805,DEGRADED,25434.1,25430.8,5.655,24252,0,1.175,3174.03,-60.1,-1.318,0,0,1.0001,251.71,251.69,2,0,251.7,62.92,2,0,251.56,251.55,2,0,0.28,0.28,1915,3.52,0.36,0.28,423.82,FLYING
484.34,ASCENT,AB_CORRIDOR,274.46,80,-194.46,24258.17,0.5,7.99,7.96,90.47,-0.56,1,0,0,0,0,0,0,0,0,0,90.4,-1.304,0,0,0,0,0,0,0,0,90.4,1,0,-0.001,0,0,3,0,0,0,11.5,-9.244,0,0,1,1,41.525,25.738,DEGRADED,25425.1,25425.5,5.656,24255,0,1.1752,3168.8,143.54,-1.318,0,0,1,250.77,250.76,2,0,250.76,62.69,2,0,250.7,250.71,2,0,0.28,0.28,1933,3.52,0.36,0.28,428.94,FLYING
489.46,ASCENT,AB_CORRIDOR,274.45,80,-194.45,24260.09,0.02,6.87,6.82,90.47,-0.61,1,0,0,0,0,0,0,0,0,0,90.4,-1.313,0,0,0,0,0,0,0,0,90.4,1,0,-0.001,0,0,3,0,0,0,11.5,-9.244,0,0,1,1,41.667,25.826,DEGRADED,25421.2,25420.2,5.657,24258,0,1.1753,3161.42,75.56,-1.316,0,0,1.0001,250.22,250.19,2,0,250.2,62.55,2,0,250.06,250.05,2,0,0.28,0.28,1951,3.52,0.36,0.28,434.06,FLYING
494.58,ASCENT,AB_CORRIDOR,274.28,80,-194.28,24263.86,1.44,7.88,7.88,90.47,-0.565,1,0,0,0,0,0,0,0,0,0,90.4,-1.29,0,0,0,0,0,0,0,0,90.4,1,0,-0.001,0,0,3,0,0,0,11.5,-9.244,0,0,1,1,41.494,25.74,DEGRADED,25399,25397.3,5.656,24260,0,1.1755,3160.21,-38.55,-1.334,0,0,0.9999,250.43,250.45,2,0,250.44,62.61,2,0,250.66,250.68,2,0,0.28,0.28,1969,3.52,0.36,0.28,439.18,FLYING
499.7,ASCENT,AB_CORRIDOR,274.13,80,-194.13,24269.48,1.48,7.06,7.05,90.47,-0.601,1,0,0,0,0,0,0,0,0,0,90.4,-1.293,0,0,0,0,0,0,0,0,90.4,1,0,-0.001,0,0,3,0,0,0,11.5,-9.244,0,0,1,1,41.579,25.806,DEGRADED,25371.9,25365.6,5.655,24266,0,1.1757,3156.94,-150.87,-1.346,0,0,0.9999,250.22,250.24,2,0,250.23,62.56,2,0,250.28,250.27,2,0,0.28,0.28,1987,3.52,0.36,0.28,444.3,FLYING
504.82,ASCENT,AB_CORRIDOR,273.88,80,-193.88,24278.08,1.48,8.42,8.28,90.48,-0.572,1,0,0,0,0,0,0,0,0,0,90.4,-1.314,0,0,0,0,0,0,0,0,90.4,1,0,-0.001,0,0,3,0,0,0,11.5,-9.244,0,0,1,1,41.566,25.748,DEGRADED,25322.5,25319.6,5.654,24274,0,1.1758,3159.61,50.12,-1.362,0,0,1.0001,250.05,250.03,2,0,250.04,62.51,2,0,249.93,249.92,2,0,0.28,0.28,2005,3.52,0.36,0.28,449.42,FLYING
509.94,ASCENT,AB_CORRIDOR,273.43,80,-193.43,24291.38,2.72,7.27,7.16,90.47,-0.609,1,0,0,0,0,0,0,0,0,0,90.4,-1.307,0,0,0,0,0,0,0,0,90.4,1,0,-0.001,0,0,3,0,0,0,11.5,-9.244,0,0,1,1,41.618,25.798,DEGRADED,25244.9,25236.1,5.652,24287,0,1.176,3160.34,-96.22,-1.401,0,0,1.0001,250.31,250.29,2,0,250.29,62.57,2,0,250.14,250.12,2,0,0.28,0.28,2023,3.52,0.36,0.28,454.54,FLYING
515.06,ASCENT,AB_CORRIDOR,273.15,80,-193.15,24304.23,2.06,8.02,7.91,90.48,-0.642,1,0,0,0,0,0,0,0,0,0,90.4,-1.349,0,0,0,0,0,0,0,0,90.4,1,0,-0.001,0,0,3,0,0,0,11.5,-9.244,0,0,1,1,41.551,25.739,DEGRADED,25187.4,25184.8,5.653,24300,0,1.1761,3149.38,224.3,-1.414,0,0,1.0001,248.68,248.65,2,0,248.66,62.16,2,0,248.56,248.56,2,0,0.28,0.28,2041,3.52,0.36,0.28,459.66,FLYING
520.18,ASCENT,AB_CORRIDOR,272.68,80,-192.68,24317.3,3.4,7.79,7.75,90.48,-0.629,1,0,0,0,0,0,0,0,0,0,90.4,-1.339,0,0,0,0,0,0,0,0,90.4,1,0,-0.001,0,0,3,0,0,0,11.5,-9.244,0,0,1,1,41.494,25.761,DEGRADED,25116.1,25107,5.651,24313,0,1.1763,3138.19,-223.3,-1.451,0,0,0.9998,248.72,248.76,2,0,248.75,62.19,2,0,249.03,249.05,2,0,0.28,0.28,2059,3.52,0.36,0.28,464.78,FLYING
525.3,ASCENT,AB_CORRIDOR,272.33,80,-192.33,24331.04,2.61,7.31,7.25,90.47,-0.638,1,0,0,0,0,0,0,0,0,0,90.4,-1.381,0,0,0,0,0,0,0,0,90.4,1,0,-0.001,0,0,3,0,0,0,11.5,-9.244,0,0,1,1,41.571,25.8,DEGRADED,25045.4,25036.6,5.651,24327,0,1.1765,3132.69,-112.7,-1.471,0,0,0.9999,247.89,247.91,2,0,247.91,61.98,2,0,247.92,247.91,2,0,0.28,0.28,2077,3.52,0.36,0.28,469.9,FLYING
530.42,ASCENT,AB_CORRIDOR,271.98,80,-191.98,24344.04,2.81,7.12,7.06,90.47,-0.666,1,0,0,0,0,0,0,0,0,0,90.4,-1.398,0,0,0,0,0,0,0,0,90.4,1,0,-0.001,0,0,3,0,0,0,11.5,-9.244,0,0,1,1,41.575,25.81,DEGRADED,24981.7,24973.8,5.65,24340,0,1.1766,3120.72,-114.96,-1.495,0,0,0.9999,246.98,247,2,0,246.99,61.75,2,0,247.06,247.05,2,0,0.28,0.28,2095,3.52,0.36,0.28,475.02,FLYING
535.54,ASCENT,AB_CORRIDOR,271.68,80,-191.68,24356.04,2.08,6.55,6.52,90.47,-0.72,1,0,0,0,0,0,0,0,0,0,90.4,-1.437,0,0,0,0,0,0,0,0,90.4,1,0,-0.001,0,0,3,0,0,0,11.5,-9.244,0,0,1,1,41.634,25.843,DEGRADED,24922.3,24915,5.65,24352,0,1.1768,3112.22,-57.85,-1.511,0,0,1,246.08,246.09,2,0,246.09,61.52,2,0,246.03,246.02,2,0,0.28,0.28,2113,3.52,0.36,0.28,480.14,FLYING
540.66,ASCENT,AB_CORRIDOR,271.53,80,-191.53,24363.17,1.32,6.75,6.71,90.47,-0.714,1,0,0,0,0,0,0,0,0,0,90.4,-1.469,0,0,0,0,0,0,0,0,90.4,1,0,-0.001,0,0,3,0,0,0,11.5,-9.244,0,0,1,1,41.695,25.857,DEGRADED,24890.3,24885.8,5.651,24360,0,1.1769,3098.9,-55.42,-1.516,0,0,1.0001,245.23,245.21,2,0,245.22,61.3,2,0,245.11,245.1,2,0,0.28,0.28,2131,3.52,0.36,0.28,485.26,FLYING
545.78,ASCENT,AB_CORRIDOR,271.46,80,-191.46,24367.35,0.33,7.61,7.6,90.48,-0.71,1,0,0,0,0,0,0,0,0,0,90.4,-1.505,0,0,0,0,0,0,0,0,90.4,1,0,-0.001,0,0,3,0,0,0,11.5,-9.244,0,0,1,1,41.626,25.801,DEGRADED,24872,24873.2,5.652,24365,0,1.1771,3095.48,149.01,-1.512,0,0,1.0001,244.44,244.43,2,0,244.43,61.11,2,0,244.41,244.42,2,0,0.28,0.28,2149,3.52,0.36,0.28,490.38,FLYING
550.9,ASCENT,AB_CORRIDOR,271.55,80,-191.55,24366.41,-0.55,8,7.98,90.49,-0.693,1,0,0,0,0,0,0,0,0,0,90.4,-1.527,0,0,0,0,0,0,0,0,90.4,1,0,-0.001,0,0,3,0,0,0,11.5,-9.244,0,0,1,1,41.664,25.811,DEGRADED,24885.7,24888.5,5.653,24365,0,1.1772,3086.15,154.86,-1.505,0,0,1.0001,243.78,243.76,2,0,243.77,60.94,2,0,243.71,243.72,2,0,0.28,0.28,2167,3.52,0.36,0.28,495.5,FLYING
556.02,ASCENT,AB_CORRIDOR,271.63,80,-191.63,24362.71,-1,6.9,6.9,90.48,-0.729,1,0,0,0,0,0,0,0,0,0,90.4,-1.529,0,0,0,0,0,0,0,0,90.4,1,0,-0.001,0,0,3,0,0,0,11.5,-9.244,0,0,1,1,31.321,25.89,DEGRADED,24900.8,24900.7,5.653,24362,0,1.1774,3086.36,-83.09,-1.499,0,0,1.0001,244.24,244.22,2,0,244.23,61.05,2,0,244.12,244.12,2,0,0.28,0.28,2185,3.52,0.36,0.28,500.62,FLYING
561.14,ASCENT,AB_CORRIDOR,271.85,80,-191.85,24356.25,-1.76,6.69,6.7,90.48,-0.772,1,0,0,0,0,0,0,0,0,0,90.4,-1.542,0,0,0,0,0,0,0,0,90.4,1,0,-0.001,0,0,3,0,0,0,11.5,-9.244,0,0,1,1,31.347,25.899,DEGRADED,24936.7,24939.8,5.654,24356,0,1.1776,3088.19,32.41,-1.486,0,0,1.0001,244.08,244.07,2,0,244.07,61.01,2,0,243.96,243.95,2,0,0.28,0.28,2203,3.52,0.36,0.28,505.74,FLYING
566.26,ASCENT,AB_CORRIDOR,272.04,80,-192.04,24349,-1.59,7.5,7.52,90.49,-0.766,1,0,0,0,0,0,0,0,0,0,90.4,-1.526,0,0,0,0,0,0,0,0,90.4,1,0,-0.001,0,0,3,0,0,0,11.5,-9.244,0,0,1,1,31.287,25.839,DEGRADED,24970.7,24976.1,5.654,24349,0,1.1777,3094.9,84.86,-1.474,0,0,1.0001,244.6,244.58,2,0,244.59,61.14,2,0,244.54,244.53,2,0,0.28,0.28,2221,3.52,0.36,0.28,510.86,FLYING
571.38,ASCENT,AB_CORRIDOR,272.27,80,-192.27,24339.94,-1.82,6.83,6.93,90.48,-0.77,1,0,0,0,0,0,0,0,0,0,90.4,-1.515,0,0,0,0,0,0,0,0,90.4,1,0,-0.001,0,0,3,0,0,0,11.5,-9.244,0,0,1,1,31.285,25.876,DEGRADED,25016.3,25019.5,5.654,24341,0,1.1779,3099.75,-107.12,-1.457,0,0,0.9998,245.1,245.14,2,0,245.12,61.29,2,0,245.27,245.27,2,0,0.28,0.28,2239,3.52,0.36,0.28,515.98,FLYING
576.5,ASCENT,AB_CORRIDOR,272.54,80,-192.54,24330.37,-1.91,8.33,8.36,90.5,-0.72,1,0,0,0,0,0,0,0,0,0,90.4,-1.509,0,0,0,0,0,0,0,0,90.4,1,0,-0.001,0,0,3,0,0,0,11.5,-9.244,0,0,1,1,31.263,25.796,DEGRADED,25063.4,25070.3,5.655,24331,0,1.178,3109.12,101.96,-1.44,0,0,1,245.67,245.66,2,0,245.66,61.41,2,0,245.66,245.67,2,0,0.28,0.28,2257,3.52,0.36,0.28,521.1,FLYING
581.62,ASCENT,AB_CORRIDOR,272.63,80,-192.63,24323.48,-1.06,6.85,6.87,90.48,-0.75,1,0,0,0,0,0,0,0,0,0,90.4,-1.465,0,0,0,0,0,0,0,0,90.4,1,0,-0.001,0,0,3,0,0,0,11.5,-9.244,0,0,1,1,31.359,25.891,DEGRADED,25084.9,25084.6,5.653,24323,0,1.1782,3123.33,-184.23,-1.433,0,0,1.0001,247.32,247.31,2,0,247.31,61.83,2,0,247.21,247.2,2,0,0.28,0.28,2275,3.52,0.36,0.28,526.22,FLYING
586.74,ASCENT,AB_CORRIDOR,272.63,80,-192.63,24321,-0.2,7.3,7.31,90.48,-0.736,1,0,0,0,0,0,0,0,0,0,90.4,-1.437,0,0,0,0,0,0,0,0,90.4,1,0,-0.001,0,0,3,0,0,0,11.5,-9.244,0,0,1,1,31.281,25.83,DEGRADED,25086.2,25087.5,5.651,24319,0,1.1783,3138.19,-88.28,-1.433,0,0,1,248.19,248.2,2,0,248.19,62.05,2,0,248.25,248.25,2,0,0.28,0.28,2293,3.52,0.36,0.28,531.34,FLYING
