t_s,phase,subphase,ias_ms,vapp_ms,spd_err_ms,agl_m,gear_h_m,vs_ms,pitch_deg,aoa_deg,hdg_deg,bank_deg,thr_cmd,thr_cur,thr_intg,at_gain,at_tau_s,at_a_up,at_a_dn,at_kp_thr,at_ki_spd,at_thr_slew,as_cmd_deg,as_cap_deg,as_raw_deg,as_spd_err_ms,as_active,aa_hdg_cmd_deg,aa_fpa_cmd_deg,aa_fbw,aa_dir,actual_fpa_deg,ftf_hdg_err_deg,ftf_fix_idx,kos_steer_pit_deg,kos_steer_hdg_deg,aa_dir_vx,aa_dir_vy,aa_dir_vz,aa_dir_pitch_deg,aa_dir_hdg_deg,ils_loc_m,ils_gs_m,ils_dist_km,loc_corr_deg,gs_corr_deg,gs_latched,active_gs_ang_deg,ils_intercept_alt_m,d_gs_ms,fpa_preclamped_deg,gs_nom_alt_m,flare_fpa_cmd,flare_tgt_vs,flare_frac,flare_vs_err,flare_fpa_err,flare_pitch_err,flare_req_up_a,flare_thr_floor,steer_hdg_deg,steer_blend,ro_loc_corr_deg,ro_hdg_err_deg,ro_yaw_tgt,ro_yaw_scale,ro_yaw_gate,yaw_cmd,roll_cmd,pitch_cmd,ro_pitch_tgt_deg,ro_pitch_err_deg,ro_pitch_ff,ro_roll_assist,flaps_cur,flaps_tgt,asc_j_ab,asc_j_rk,asc_validity,asc_q_pa,asc_q_raw_pa,asc_mach,asc_apo_m,asc_drag_n,asc_w_prop,asc_edot_aero,asc_edot_orb,asc_pitch_bias,asc_blend,asc_spooling,asc_ab_thr_ratio,asc_ab_t_now,asc_ab_t_avail,asc_ab_ign_on,asc_ab_flameouts,asc_rk_t_now,asc_rk_t_avail,asc_rk_ign_on,asc_rk_flameouts,ship_thrust,ship_avail_thrust,ship_ign_on,ship_flameouts,ifc_raw_dt_s,ifc_dt_s,ifc_loop_n,ifc_hz_est,ifc_raw_dt_max_s,ifc_raw_dt_min_s,phase_el_s,status,craft_name,cfg_file
0.16,APPROACH,ILS_TRACK,157.84,152,-5.84,1304.24,1223.65,-4.49,14.08,15.75,267.66,-8.824,0,0,0,0,0,0,0,0,0,0,0,0,0,0,0,0,0,1,0,-1.66,0,0,0,90,0,0,0,0,0,-92.34,-274.28,28.703,0,0,0,3,1304.24,0,0,1578.52,0,0,0,0,0,0,0,0,267.71,0,0,0,0,0,0,0,0,0,0,0,0,0,0,0,0,0,VALID,0,0,0,0,0,1,0,0,0,0,0,0,0,0,0,0,0,0,0,0,427.79,1059.93,2,0,0.14,0.14,1,3.7,0.14,0.02,0.16,FLYING,X10-F,0:/Integrated Flight Computer/aircraft/x10_f_cfg.ks (inferred preloaded)
0.42,APPROACH,ILS_TRACK,157.78,152,-5.78,1303.17,1222.65,-3.37,13.99,15.25,267.5,-8.589,0,0,0,1,0.6,1.432,0.75,0.35,0.0168,0.4,4.701,20.258,4.701,5.793,1,273.89,0,0,1,-1.28,0,0,0,295,0.2037,0.0678,0.9767,0,273.89,-92.49,-273.21,28.665,3.886,0,0,3,1304.24,4.917,0,1576.54,0,0,0,0,0,0,0,0,267.71,0,0,0,0,0,0,0,0,0,0,0,0,0,1,3,0,0,VALID,0,0,0,0,0,1,0,0,0,0,0,0,0,0,0,0,0,0,0,0,390.41,1059.74,2,0,0.12,0.12,3,7.69,0.14,0.12,0.42,FLYING,X10-F,0:/Integrated Flight Computer/aircraft/x10_f_cfg.ks (inferred preloaded)
0.68,APPROACH,ILS_TRACK,157.61,152,-5.61,1302.11,1222.05,-2.55,13,13.94,267.24,-7.098,0,0,0,1,0.6,2.643,0.75,0.35,0.0168,0.4,4.518,20.308,4.518,5.615,1,274.01,0,0,1,-0.96,0,0,0,273.94,0.2038,0.0699,0.9765,0,274.01,-92.76,-271.93,28.62,4.009,0,0,3,1304.24,4.957,0,1574.2,0,0,0,0,0,0,0,0,267.71,0,0,0,0,0,0,0,0,0,0,0,0,0,1,3,0,0,VALID,0,0,0,0,0,1,0,0,0,0,0,0,0,0,0,0,0,0,0,0,356.08,1059,2,0,0.12,0.12,5,7.69,0.14,0.12,0.68,FLYING,X10-F,0:/Integrated Flight Computer/aircraft/x10_f_cfg.ks (inferred preloaded)
1.04,APPROACH,ILS_TRACK,157.46,152,-5.46,1300.75,1221.8,-1.92,11.02,11.53,267.46,-0.489,0,0,0,1,0.6,4.118,0.75,0.35,0.0168,0.4,4.362,20.351,4.362,5.465,1,274.23,0,0,1,-0.71,0,0,0,274.16,0.2038,0.0738,0.9762,0,274.23,-93.39,-270.06,28.558,4.232,0,0,3,1304.24,5.216,0,1570.96,0,0,0,0,0,0,0,0,267.71,0,0,0,0,0,0,0,0,0,0,0,0,0,2,3,0,0,VALID,0,0,0,0,0,1,0,0,0,0,0,0,0,0,0,0,0,0,0,0,313.6,1058.38,2,0,0.12,0.12,8,8.33,0.12,0.12,1.04,FLYING,X10-F,0:/Integrated Flight Computer/aircraft/x10_f_cfg.ks (inferred preloaded)
1.4,APPROACH,ILS_TRACK,157.46,152,-5.46,1299.48,1220.25,-2.1,8.97,9.32,268.47,8.976,0,0,0,1,0.6,4.5,0.75,0.35,0.0168,0.4,4.353,20.353,4.353,5.457,1,274.33,0,0,1,-0.75,0,0,0,274.31,0.2039,0.0754,0.9761,0,274.33,-94.19,-268.1,28.496,4.325,0,0,3,1304.24,5.549,0,1567.72,0,0,0,0,0,0,0,0,267.71,0,0,0,0,0,0,0,0,0,0,0,0,0,3,3,0,0,VALID,0,0,0,0,0,1,0,0,0,0,0,0,0,0,0,0,0,0,0,0,276.35,1058.4,2,0,0.12,0.12,11,8.33,0.12,0.12,1.4,FLYING,X10-F,0:/Integrated Flight Computer/aircraft/x10_f_cfg.ks (inferred preloaded)
1.76,APPROACH,ILS_TRACK,157.54,152,-5.54,1298.31,1219,-2.74,7.84,8.52,269.73,14.22,0,0,0,1,0.6,4.5,0.75,0.35,0.0168,0.4,4.44,20.33,4.44,5.54,1,274.23,0,0,1,-0.97,0,0,0,274.27,0.204,0.0738,0.9762,0,274.23,-94.88,-266.04,28.434,4.232,0,0,3,1304.24,5.811,0,1564.48,0,0,0,0,0,0,0,0,267.71,0,0,0,0,0,0,0,0,0,0,0,0,0,3,3,0,0,VALID,0,0,0,0,0,1,0,0,0,0,0,0,0,0,0,0,0,0,0,0,243.62,1058.79,2,0,0.12,0.12,14,8.33,0.12,0.12,1.76,FLYING,X10-F,0:/Integrated Flight Computer/aircraft/x10_f_cfg.ks (inferred preloaded)
2.12,APPROACH,ILS_TRACK,157.51,152,-5.51,1297.21,1218.03,-3.4,7.77,8.98,270.94,12.792,0,0,0,1,0.6,4.5,0.75,0.35,0.0168,0.4,4.414,20.337,4.414,5.516,1,274.06,0,0,1,-1.21,0,0,0,274.12,0.2042,0.0707,0.9764,0,274.06,-95.33,-263.91,28.373,4.057,0,0,3,1304.24,5.975,0,1561.23,0,0,0,0,0,0,0,0,267.71,0,0,0,0,0,0,0,0,0,0,0,0,0,3,3,0,0,VALID,0,0,0,0,0,1,0,0,0,0,0,0,0,0,0,0,0,0,0,0,214.67,1058.72,2,0,0.12,0.12,17,8.33,0.12,0.12,2.12,FLYING,X10-F,0:/Integrated Flight Computer/aircraft/x10_f_cfg.ks (inferred preloaded)
2.48,APPROACH,ILS_TRACK,157.31,152,-5.31,1296.19,1216.72,-3.78,8.69,10.23,272,12.77,0,0,0,1,0.6,4.5,0.75,0.35,0.0168,0.4,4.216,20.39,4.216,5.325,1,273.87,0,0,1,-1.37,0,0,0,273.94,0.2043,0.0674,0.9766,0,273.87,-95.5,-261.7,28.311,3.866,0,0,3,1304.24,6.247,0,1558,0,0,0,0,0,0,0,0,267.71,0,0,0,0,0,0,0,0,0,0,0,0,0,3,3,0,0,VALID,0,0,0,0,0,1,0,0,0,0,0,0,0,0,0,0,0,0,0,0,189.04,1057.93,2,0,0.12,0.12,20,8.33,0.12,0.12,2.48,FLYING,X10-F,0:/Integrated Flight Computer/aircraft/x10_f_cfg.ks (inferred preloaded)
2.84,APPROACH,ILS_TRACK,156.85,152,-4.85,1295.28,1215.61,-3.71,10.19,11.78,272.73,10.456,0,0,-0.586,1,0.6,4.5,0.75,0.35,0.0168,0.4,3.751,20.515,3.751,4.883,1,273.63,0,0,1,-1.37,0,0,0,273.72,0.2045,0.0632,0.9768,0,273.63,-95.35,-259.39,28.249,3.625,0,0,3,1304.24,6.503,0,1554.77,0,0,0,0,0,0,0,0,267.71,0,0,0,0,0,0,0,0,0,0,0,0,0,3,3,0,0,VALID,0,0,0,0,0,1,0,0,0,0,0,0,0,0,0,0,0,0,0,0,166.3,1056.03,2,0,0.12,0.12,23,8.33,0.12,0.12,2.84,FLYING,X10-F,0:/Integrated Flight Computer/aircraft/x10_f_cfg.ks (inferred preloaded)
3.16,APPROACH,ILS_TRACK,156.17,152,-4.17,1294.47,1214.78,-3.06,11.27,12.52,272.73,7.18,0.128,0,-2.013,1,0.6,4.5,0.75,0.35,0.0168,0.4,0,20.702,0,4.219,0,273.39,0,0,1,-1.15,0,0,0,273.46,0.2046,0.0592,0.9771,0,273.39,-94.92,-257.33,28.195,3.391,0,0,3,1304.24,6.326,0,1551.91,0,0,0,0,0,0,0,0,267.71,0,0,0,0,0,0,0,0,0,0,0,0,0,3,3,0,0,VALID,0,0,0,0,0,1,0,0,0,0,0,0,0,0,0,0,0,0,0,0,152.49,1053.15,2,0,0.1,0.1,26,9.38,0.12,0.1,3.16,FLYING,X10-F,0:/Integrated Flight Computer/aircraft/x10_f_cfg.ks (inferred preloaded)
3.5,APPROACH,ILS_TRACK,155.36,152,-3.36,1293.58,1213.84,-2.38,11.45,12.36,272.35,7.228,0.264,0,-3.264,1,0.6,4.5,0.75,0.35,0.0168,0.4,0,20.931,0,3.408,0,273.26,0,0,1,-0.9,0,0,0,273.29,0.2047,0.0568,0.9772,0,273.26,-94.26,-255.2,28.137,3.258,0,0,3,1304.24,6.225,0,1548.88,0,0,0,0,0,0,0,0,267.71,0,0,0,0,0,0,0,0,0,0,0,0,0,3,3,0,0,VALID,0,0,0,0,0,1,0,0,0,0,0,0,0,0,0,0,0,0,0,0,152.99,1049.67,2,0,0.1,0.1,29,8.82,0.12,0.1,3.5,FLYING,X10-F,0:/Integrated Flight Computer/aircraft/x10_f_cfg.ks (inferred preloaded)
3.84,APPROACH,ILS_TRACK,154.56,152,-2.56,1292.74,1212.84,-2.03,11.11,11.87,272.37,9.94,0.4,0,-4.24,1,0.6,4.5,0.75,0.35,0.0168,0.4,0,21.156,0,2.609,0,273.16,0,0,1,-0.76,0,0,0,273.18,0.2048,0.0552,0.9772,0,273.16,-93.5,-253.03,28.079,3.165,0,0,3,1304.24,6.424,0,1545.87,0,0,0,0,0,0,0,0,267.71,0,0,0,0,0,0,0,0,0,0,0,0,0,3,3,0,0,VALID,0,0,0,0,0,1,0,0,0,0,0,0,0,0,0,0,0,0,0,0,163.29,1046.26,2,0,0.12,0.12,32,8.82,0.12,0.1,3.84,FLYING,X10-F,0:/Integrated Flight Computer/aircraft/x10_f_cfg.ks (inferred preloaded)
4.18,APPROACH,ILS_TRACK,153.85,152,-1.85,1291.95,1212.01,-1.91,10.68,11.47,272.96,12.424,0.5204,0,-4.961,1,0.6,4.5,0.75,0.35,0.0168,0.4,0,21.358,0,1.891,0,273.01,0,0,1,-0.72,0,0,0,273.07,0.2049,0.0525,0.9774,0,273.01,-92.62,-250.83,28.022,3.012,0,0,3,1304.24,6.483,0,1542.88,0,0,0,0,0,0,0,0,267.71,0,0,0,0,0,0,0,0,0,0,0,0,0,3,3,0,0,VALID,0,0,0,0,0,1,0,0,0,0,0,0,0,0,0,0,0,0,0,0,182.15,1043.22,2,0,0.1,0.1,35,8.82,0.12,0.1,4.18,FLYING,X10-F,0:/Integrated Flight Computer/aircraft/x10_f_cfg.ks (inferred preloaded)
4.46,APPROACH,ILS_TRACK,153.37,152,-1.37,1291.28,1211.67,-1.92,10.22,11.06,273.45,10.552,0.4845,0,-5.396,1,0.6,4.5,0.75,0.35,0.0168,0.4,0,21.497,0,1.399,0,272.8,0,0,1,-0.71,0,0,0,272.87,0.2051,0.0488,0.9775,0,272.8,-91.71,-249.04,27.975,2.796,0,0,3,1304.24,6.371,0,1540.42,0,0,0,0,0,0,0,0,267.71,0,0,0,0,0,0,0,0,0,0,0,0,0,3,3,0,0,VALID,0,0,0,0,0,1,0,0,0,0,0,0,0,0,0,0,0,0,0,0,200.95,1041.15,2,0,0.08,0.08,38,10.71,0.1,0.08,4.46,FLYING,X10-F,0:/Integrated Flight Computer/aircraft/x10_f_cfg.ks (inferred preloaded)
4.76,APPROACH,ILS_TRACK,152.93,152,-0.93,1290.55,1211.5,-1.85,9.6,10.34,273.54,5.923,0.4258,0,-5.725,1,0.6,4.5,0.75,0.35,0.0168,0.4,0,21.621,0,0.958,0,272.57,0,0,1,-0.69,0,0,0,272.64,0.2052,0.0449,0.9777,0,272.57,-90.54,-247.15,27.925,2.572,0,0,3,1304.24,6.303,0,1537.79,0,0,0,0,0,0,0,0,267.71,0,0,0,0,0,0,0,0,0,0,0,0,0,3,3,0,0,VALID,0,0,0,0,0,1,0,0,0,0,0,0,0,0,0,0,0,0,0,0,217.66,1039.31,2,0,0.08,0.08,41,10,0.12,0.08,4.76,FLYING,X10-F,0:/Integrated Flight Computer/aircraft/x10_f_cfg.ks (inferred preloaded)
5.06,APPROACH,ILS_TRACK,152.62,152,-0.62,1289.87,1211.06,-2.03,9.18,9.93,273.09,3.874,0.3351,0,-5.945,1,0.6,4.5,0.75,0.35,0.0168,0.4,0,21.711,0,0.639,0,272.39,0,0,1,-0.75,0,0,0,272.44,0.2053,0.0417,0.9778,0,272.39,-89.18,-245.22,27.875,2.39,0,0,3,1304.24,6.528,0,1535.17,0,0,0,0,0,0,0,0,267.71,0,0,0,0,0,0,0,0,0,0,0,0,0,3,3,0,0,VALID,0,0,0,0,0,1,0,0,0,0,0,0,0,0,0,0,0,0,0,0,229.3,1038,2,0,0.08,0.08,44,10,0.12,0.08,5.06,FLYING,X10-F,0:/Integrated Flight Computer/aircraft/x10_f_cfg.ks (inferred preloaded)
5.38,APPROACH,ILS_TRACK,152.37,152,-0.37,1289.26,1210.36,-2.34,9.41,10.29,272.56,3.846,0.2518,0,-6.094,1,0.6,4.5,0.75,0.35,0.0168,0.4,0,21.783,0,0.382,0,272.31,0,0,1,-0.87,0,0,0,272.33,0.2054,0.0403,0.9779,0,272.31,-87.65,-243.05,27.822,2.309,0,0,3,1304.24,6.9,0,1532.38,0,0,0,0,0,0,0,0,267.71,0,0,0,0,0,0,0,0,0,0,0,0,0,3,3,0,0,VALID,0,0,0,0,0,1,0,0,0,0,0,0,0,0,0,0,0,0,0,0,234.83,1036.95,2,0,0.1,0.1,47,9.38,0.12,0.08,5.38,FLYING,X10-F,0:/Integrated Flight Computer/aircraft/x10_f_cfg.ks (inferred preloaded)
5.72,APPROACH,ILS_TRACK,152.07,152,-0.07,1288.64,1209.63,-2.15,10.01,10.79,272.45,3.656,0.2317,0,-6.159,1,0.6,4.5,0.75,0.35,0.0168,0.4,0,21.865,0,0.092,0,272.22,0,0,1,-0.82,0,0,0,272.26,0.2055,0.0387,0.9779,0,272.22,-86.02,-240.7,27.766,2.216,0,0,3,1304.24,6.807,0,1529.42,0,0,0,0,0,0,0,0,267.71,0,0,0,0,0,0,0,0,0,0,0,0,0,3,3,0,0,VALID,0,0,0,0,0,1,0,0,0,0,0,0,0,0,0,0,0,0,0,0,235.8,1035.75,2,0,0.1,0.1,50,8.82,0.12,0.1,5.72,FLYING,X10-F,0:/Integrated Flight Computer/aircraft/x10_f_cfg.ks (inferred preloaded)
6.06,APPROACH,ILS_TRACK,151.77,152,0.23,1287.98,1209.04,-2.05,10.15,10.88,272.28,2.107,0.2399,0,-6.121,1,0.6,4.5,0.75,0.35,0.0168,0.4,0,21.951,0,-0.213,0,272.1,0,0,1,-0.77,0,0,0,272.14,0.2056,0.0366,0.978,0,272.1,-84.31,-238.41,27.709,2.099,0,0,3,1304.24,6.741,0,1526.46,0,0,0,0,0,0,0,0,267.71,0,0,0,0,0,0,0,0,0,0,0,0,0,3,3,0,0,VALID,0,0,0,0,0,1,0,0,0,0,0,0,0,0,0,0,0,0,0,0,235.94,1034.5,2,0,0.12,0.12,53,8.82,0.12,0.1,6.06,FLYING,X10-F,0:/Integrated Flight Computer/aircraft/x10_f_cfg.ks (inferred preloaded)
6.42,APPROACH,ILS_TRACK,151.44,152,0.56,1287.37,1208.3,-2.17,10.62,11.42,272.2,2.045,0.2641,0,-5.965,1,0.6,4.5,0.75,0.35,0.0168,0.4,0,22.044,0,-0.545,0,272.01,0,0,1,-0.81,0,0,0,272.05,0.2057,0.0351,0.978,0,272.01,-82.47,-235.91,27.65,2.011,0,0,3,1304.24,7.072,0,1523.34,0,0,0,0,0,0,0,0,267.71,0,0,0,0,0,0,0,0,0,0,0,0,0,3,3,0,0,VALID,0,0,0,0,0,1,0,0,0,0,0,0,0,0,0,0,0,0,0,0,236.85,1033.12,2,0,0.12,0.12,56,8.33,0.12,0.12,6.42,FLYING,X10-F,0:/Integrated Flight Computer/aircraft/x10_f_cfg.ks (inferred preloaded)
6.68,APPROACH,ILS_TRACK,151.15,152,0.85,1287.02,1207.75,-2.22,11.35,12.19,272.22,1.868,0.3066,0,-5.77,1,0.6,4.5,0.75,0.35,0.0168,0.4,0,22.123,0,-0.825,0,271.95,0,0,1,-0.84,0,0,0,271.98,0.2058,0.034,0.978,0,271.95,-81.12,-234.02,27.607,1.947,0,0,3,1304.24,7.331,0,1521.09,0,0,0,0,0,0,0,0,267.71,0,0,0,0,0,0,0,0,0,0,0,0,0,3,3,0,0,VALID,0,0,0,0,0,1,0,0,0,0,0,0,0,0,0,0,0,0,0,0,238.75,1031.96,2,0,0.12,0.12,58,7.69,0.14,0.12,6.68,FLYING,X10-F,0:/Integrated Flight Computer/aircraft/x10_f_cfg.ks (inferred preloaded)
7.04,APPROACH,ILS_TRACK,150.65,152,1.35,1286.63,1207.04,-1.97,12.71,13.47,272.22,1.399,0.4153,0,-5.359,1,0.6,4.5,0.75,0.35,0.0168,0.4,0,22.262,0,-1.316,0,271.84,0,0,1,-0.78,0,0,0,271.87,0.2059,0.0321,0.9781,0,271.84,-79.22,-231.31,27.547,1.839,0,0,3,1304.24,7.579,0,1517.99,0,0,0,0,0,0,0,0,267.71,0,0,0,0,0,0,0,0,0,0,0,0,0,3,3,0,0,VALID,0,0,0,0,0,1,0,0,0,0,0,0,0,0,0,0,0,0,0,0,245.65,1029.9,2,0,0.12,0.12,61,8.33,0.12,0.12,7.04,FLYING,X10-F,0:/Integrated Flight Computer/aircraft/x10_f_cfg.ks (inferred preloaded)
7.4,APPROACH,ILS_TRACK,149.99,152,2.01,1286.17,1206.59,-0.86,13.09,13.36,272.13,0.748,0.5581,0,-4.735,1,0.6,4.5,0.75,0.35,0.0168,0.4,0,22.445,0,-1.967,0,271.73,0,0,1,-0.37,0,0,0,271.77,0.206,0.0302,0.9781,0,271.73,-77.27,-228.66,27.488,1.728,0,0,3,1304.24,7.169,0,1514.89,0,0,0,0,0,0,0,0,267.71,0,0,0,0,0,0,0,0,0,0,0,0,0,3,3,0,0,VALID,0,0,0,0,0,1,0,0,0,0,0,0,0,0,0,0,0,0,0,0,260.53,1027.13,2,0,0.12,0.12,64,8.33,0.12,0.12,7.4,FLYING,X10-F,0:/Integrated Flight Computer/aircraft/x10_f_cfg.ks (inferred preloaded)
7.76,APPROACH,ILS_TRACK,149.47,152,2.53,1285.59,1206.42,-0.32,11.81,11.84,271.99,0.225,0.6276,0,-3.884,1,0.6,4.5,0.75,0.35,0.0168,0.4,0,22.599,0,-2.511,0,271.64,0,0,1,-0.13,0,0,0,271.68,0.2061,0.0287,0.9781,0,271.64,-75.31,-226.15,27.429,1.645,0,0,3,1304.24,6.934,0,1511.81,0,0,0,0,0,0,0,0,267.71,0,0,0,0,0,0,0,0,0,0,0,0,0,3,3,0,0,VALID,0,0,0,0,0,1,0,0,0,0,0,0,0,0,0,0,0,0,0,0,284.38,1024.91,2,0,0.12,0.12,67,8.33,0.12,0.12,7.76,FLYING,X10-F,0:/Integrated Flight Computer/aircraft/x10_f_cfg.ks (inferred preloaded)
8.12,APPROACH,ILS_TRACK,149.28,152,2.72,1285.07,1206.3,-0.42,10.36,10.44,271.92,-0.056,0.5024,0,-2.923,1,0.6,4.5,0.75,0.35,0.0168,0.4,0,22.657,0,-2.719,0,271.57,0,0,1,-0.15,0,0,0,271.6,0.2062,0.0275,0.9781,0,271.57,-73.36,-223.6,27.371,1.574,0,0,3,1304.24,7.197,0,1508.73,0,0,0,0,0,0,0,0,267.71,0,0,0,0,0,0,0,0,0,0,0,0,0,3,3,0,0,VALID,0,0,0,0,0,1,0,0,0,0,0,0,0,0,0,0,0,0,0,0,306.83,1024.08,2,0,0.12,0.12,70,8.33,0.12,0.12,8.12,FLYING,X10-F,0:/Integrated Flight Computer/aircraft/x10_f_cfg.ks (inferred preloaded)
8.48,APPROACH,ILS_TRACK,149.27,152,2.73,1284.68,1206.08,-0.83,9.7,9.97,271.85,-0.069,0.3584,0,-1.938,1,0.6,4.5,0.75,0.35,0.0168,0.4,0,22.661,0,-2.732,0,271.51,0,0,1,-0.3,0,0,0,271.52,0.2063,0.0263,0.9781,0,271.51,-71.41,-220.93,27.312,1.508,0,0,3,1304.24,7.528,0,1505.65,0,0,0,0,0,0,0,0,267.71,0,0,0,0,0,0,0,0,0,0,0,0,0,3,3,0,0,VALID,0,0,0,0,0,1,0,0,0,0,0,0,0,0,0,0,0,0,0,0,318.36,1024.06,2,0,0.12,0.12,73,8.33,0.12,0.12,8.48,FLYING,X10-F,0:/Integrated Flight Computer/aircraft/x10_f_cfg.ks (inferred preloaded)
8.84,APPROACH,ILS_TRACK,149.31,152,2.69,1284.39,1205.64,-1.25,9.89,10.35,271.86,-0.508,0.246,0,-0.965,1,0.6,4.5,0.75,0.35,0.0168,0.4,0,22.648,0,-2.687,0,271.42,0,0,1,-0.46,0,0,0,271.46,0.2064,0.0247,0.9782,0,271.42,-69.46,-218.16,27.253,1.417,0,0,3,1304.24,7.802,0,1502.58,0,0,0,0,0,0,0,0,267.71,0,0,0,0,0,0,0,0,0,0,0,0,0,3,3,0,0,VALID,0,0,0,0,0,1,0,0,0,0,0,0,0,0,0,0,0,0,0,0,318.42,1024.28,2,0,0.12,0.12,76,8.33,0.12,0.12,8.84,FLYING,X10-F,0:/Integrated Flight Computer/aircraft/x10_f_cfg.ks (inferred preloaded)
9.1,APPROACH,ILS_TRACK,149.32,152,2.68,1284.26,1205.22,-1.46,10.6,11.19,271.72,-1.29,0.2276,0,-0.269,1,0.6,4.5,0.75,0.35,0.0168,0.4,0,22.646,0,-2.679,0,271.36,0,0,1,-0.56,0,0,0,271.39,0.2065,0.0238,0.9782,0,271.36,-68.05,-216.08,27.211,1.362,0,0,3,1304.24,8.062,0,1500.35,0,0,0,0,0,0,0,0,267.71,0,0,0,0,0,0,0,0,0,0,0,0,0,3,3,0,0,VALID,0,0,0,0,0,1,0,0,0,0,0,0,0,0,0,0,0,0,0,0,312.28,1024.33,2,0,0.12,0.12,78,7.69,0.14,0.12,9.1,FLYING,X10-F,0:/Integrated Flight Computer/aircraft/x10_f_cfg.ks (inferred preloaded)
9.46,APPROACH,ILS_TRACK,149.21,152,2.79,1284.08,1204.71,-1.07,11.66,12.09,271.5,-2.007,0.2799,0,0.716,1,0.6,4.5,0.75,0.35,0.0168,0.4,0,22.674,0,-2.779,0,271.31,0,0,1,-0.43,0,0,0,271.32,0.2066,0.0229,0.9782,0,271.31,-66.11,-213.17,27.152,1.314,0,0,3,1304.24,8.012,0,1497.28,0,0,0,0,0,0,0,0,267.71,0,0,0,0,0,0,0,0,0,0,0,0,0,3,3,0,0,VALID,0,0,0,0,0,1,0,0,0,0,0,0,0,0,0,0,0,0,0,0,303.99,1023.92,2,0,0.12,0.12,81,8.33,0.12,0.12,9.46,FLYING,X10-F,0:/Integrated Flight Computer/aircraft/x10_f_cfg.ks (inferred preloaded)
9.82,APPROACH,ILS_TRACK,148.98,152,3.02,1283.81,1204.38,-0.52,11.81,11.99,271.28,-2.741,0.3896,0,1.768,1,0.6,4.5,0.75,0.35,0.0168,0.4,0,22.739,0,-3.008,0,271.27,0,0,1,-0.21,0,0,0,271.28,0.2067,0.0222,0.9782,0,271.27,-64.22,-210.35,27.094,1.274,0,0,3,1304.24,7.684,0,1494.2,0,0,0,0,0,0,0,0,267.71,0,0,0,0,0,0,0,0,0,0,0,0,0,3,3,0,0,VALID,0,0,0,0,0,1,0,0,0,0,0,0,0,0,0,0,0,0,0,0,304.15,1022.95,2,0,0.12,0.12,84,8.33,0.12,0.12,9.82,FLYING,X10-F,0:/Integrated Flight Computer/aircraft/x10_f_cfg.ks (inferred preloaded)
10.18,APPROACH,ILS_TRACK,148.81,152,3.19,1283.5,1204.22,-0.27,11.22,11.3,271.14,-3.031,0.4278,0,2.896,1,0.6,4.5,0.75,0.35,0.0168,0.4,0,22.788,0,-3.182,0,271.25,0,0,1,-0.11,0,0,0,271.26,0.2068,0.0219,0.9781,0,271.25,-62.4,-207.6,27.035,1.254,0,0,3,1304.24,7.665,0,1491.13,0,0,0,0,0,0,0,0,267.71,0,0,0,0,0,0,0,0,0,0,0,0,0,3,3,0,0,VALID,0,0,0,0,0,1,0,0,0,0,0,0,0,0,0,0,0,0,0,0,311.59,1022.25,2,0,0.12,0.12,87,8.33,0.12,0.12,10.18,FLYING,X10-F,0:/Integrated Flight Computer/aircraft/x10_f_cfg.ks (inferred preloaded)
10.54,APPROACH,ILS_TRACK,148.76,152,3.24,1283.23,1204.12,-0.37,10.56,10.68,271.11,-2.897,0.4006,0,4.058,1,0.6,4.5,0.75,0.35,0.0168,0.4,0,22.804,0,-3.241,0,271.23,0,0,1,-0.13,0,0,0,271.25,0.2069,0.0215,0.9781,0,271.23,-60.66,-204.82,26.976,1.234,0,0,3,1304.24,7.811,0,1488.07,0,0,0,0,0,0,0,0,267.71,0,0,0,0,0,0,0,0,0,0,0,0,0,3,3,0,0,VALID,0,0,0,0,0,1,0,0,0,0,0,0,0,0,0,0,0,0,0,0,319.87,1022.02,2,0,0.12,0.12,90,8.33,0.12,0.12,10.54,FLYING,X10-F,0:/Integrated Flight Computer/aircraft/x10_f_cfg.ks (inferred preloaded)
10.9,APPROACH,ILS_TRACK,148.75,152,3.25,1283.07,1204.11,-0.51,10.57,10.76,271.16,-1.503,0.3709,0,5.226,1,0.6,4.5,0.75,0.35,0.0168,0.4,0,22.805,0,-3.245,0,271.23,0,0,1,-0.2,0,0,0,271.23,0.207,0.0214,0.9781,0,271.23,-59,-201.92,26.918,1.225,0,0,3,1304.24,8.131,0,1485,0,0,0,0,0,0,0,0,267.71,0,0,0,0,0,0,0,0,0,0,0,0,0,3,3,0,0,VALID,0,0,0,0,0,1,0,0,0,0,0,0,0,0,0,0,0,0,0,0,325.32,1022.02,2,0,0.12,0.12,93,8.33,0.12,0.12,10.9,FLYING,X10-F,0:/Integrated Flight Computer/aircraft/x10_f_cfg.ks (inferred preloaded)
11.26,APPROACH,ILS_TRACK,148.76,152,3.24,1282.92,1204,-0.43,10.68,10.84,271.5,0.482,0.3625,0,6.394,1,0.6,4.5,0.75,0.35,0.0168,0.4,0,22.805,0,-3.244,0,271.2,0,0,1,-0.17,0,0,0,271.23,0.2071,0.0209,0.9781,0,271.2,-57.41,-198.99,26.859,1.199,0,0,3,1304.24,8.139,0,1481.93,0,0,0,0,0,0,0,0,267.71,0,0,0,0,0,0,0,0,0,0,0,0,0,3,3,0,0,VALID,0,0,0,0,0,1,0,0,0,0,0,0,0,0,0,0,0,0,0,0,328.9,1022.04,2,0,0.12,0.12,96,8.33,0.12,0.12,11.26,FLYING,X10-F,0:/Integrated Flight Computer/aircraft/x10_f_cfg.ks (inferred preloaded)
11.52,APPROACH,ILS_TRACK,148.77,152,3.23,1282.83,1203.89,-0.49,10.75,10.94,271.63,-0.101,0.3603,0,7.236,1,0.6,4.5,0.75,0.35,0.0168,0.4,0,22.802,0,-3.234,0,271.11,0,0,1,-0.19,0,0,0,271.16,0.2071,0.0194,0.9781,0,271.11,-56.25,-196.88,26.817,1.114,0,0,3,1304.24,8.189,0,1479.72,0,0,0,0,0,0,0,0,267.71,0,0,0,0,0,0,0,0,0,0,0,0,0,3,3,0,0,VALID,0,0,0,0,0,1,0,0,0,0,0,0,0,0,0,0,0,0,0,0,331.05,1022.09,2,0,0.12,0.12,98,7.69,0.14,0.12,11.52,FLYING,X10-F,0:/Integrated Flight Computer/aircraft/x10_f_cfg.ks (inferred preloaded)
11.88,APPROACH,ILS_TRACK,148.78,152,3.22,1282.72,1203.62,-0.42,10.9,11.06,271.45,-1.422,0.3659,0,8.397,1,0.6,4.5,0.75,0.35,0.0168,0.4,0,22.798,0,-3.22,0,271.03,0,0,1,-0.16,0,0,0,271.05,0.2072,0.0179,0.9781,0,271.03,-54.59,-193.92,26.759,1.026,0,0,3,1304.24,8.223,0,1476.65,0,0,0,0,0,0,0,0,267.71,0,0,0,0,0,0,0,0,0,0,0,0,0,3,3,0,0,VALID,0,0,0,0,0,1,0,0,0,0,0,0,0,0,0,0,0,0,0,0,333.78,1022.17,2,0,0.12,0.12,101,8.33,0.12,0.12,11.88,FLYING,X10-F,0:/Integrated Flight Computer/aircraft/x10_f_cfg.ks (inferred preloaded)
12.24,APPROACH,ILS_TRACK,148.79,152,3.21,1282.6,1203.44,-0.23,10.88,10.96,271.18,-2.432,0.384,0,9.554,1,0.6,4.5,0.75,0.35,0.0168,0.4,0,22.797,0,-3.215,0,270.99,0,0,1,-0.08,0,0,0,271,0.2073,0.0173,0.9781,0,270.99,-52.94,-190.97,26.7,0.993,0,0,3,1304.24,8.106,0,1473.58,0,0,0,0,0,0,0,0,267.71,0,0,0,0,0,0,0,0,0,0,0,0,0,3,3,0,0,VALID,0,0,0,0,0,1,0,0,0,0,0,0,0,0,0,0,0,0,0,0,336.83,1022.19,2,0,0.12,0.12,104,8.33,0.12,0.12,12.24,FLYING,X10-F,0:/Integrated Flight Computer/aircraft/x10_f_cfg.ks (inferred preloaded)
12.6,APPROACH,ILS_TRACK,148.83,152,3.17,1282.52,1203.29,-0.16,10.94,11.01,270.96,-2.99,0.3824,0,10.702,1,0.6,4.5,0.75,0.35,0.0168,0.4,0,22.786,0,-3.175,0,270.97,0,0,1,-0.08,0,0,0,270.97,0.2074,0.017,0.9781,0,270.97,-51.36,-187.98,26.642,0.972,0,0,3,1304.24,8.342,0,1470.51,0,0,0,0,0,0,0,0,267.71,0,0,0,0,0,0,0,0,0,0,0,0,0,3,3,0,0,VALID,0,0,0,0,0,1,0,0,0,0,0,0,0,0,0,0,0,0,0,0,340.59,1022.37,2,0,0.12,0.12,107,8.33,0.12,0.12,12.6,FLYING,X10-F,0:/Integrated Flight Computer/aircraft/x10_f_cfg.ks (inferred preloaded)
12.96,APPROACH,ILS_TRACK,148.88,152,3.12,1282.43,1203.23,-0.21,10.81,10.91,270.84,-3.081,0.3834,0,11.836,1,0.6,4.5,0.75,0.35,0.0168,0.4,0,22.772,0,-3.128,0,270.97,0,0,1,-0.09,0,0,0,270.97,0.2075,0.0168,0.9781,0,270.97,-49.85,-185.01,26.583,0.965,0,0,3,1304.24,8.347,0,1467.44,0,0,0,0,0,0,0,0,267.71,0,0,0,0,0,0,0,0,0,0,0,0,0,3,3,0,0,VALID,0,0,0,0,0,1,0,0,0,0,0,0,0,0,0,0,0,0,0,0,344.44,1022.58,2,0,0.12,0.12,110,8.33,0.12,0.12,12.96,FLYING,X10-F,0:/Integrated Flight Computer/aircraft/x10_f_cfg.ks (inferred preloaded)
13.32,APPROACH,ILS_TRACK,148.95,152,3.05,1282.35,1203.2,-0.2,10.73,10.82,270.81,-2.826,0.3796,0,12.946,1,0.6,4.5,0.75,0.35,0.0168,0.4,0,22.753,0,-3.057,0,270.96,0,0,1,-0.07,0,0,0,270.97,0.2076,0.0167,0.9781,0,270.96,-48.42,-182.01,26.524,0.956,0,0,3,1304.24,8.344,0,1464.37,0,0,0,0,0,0,0,0,267.71,0,0,0,0,0,0,0,0,0,0,0,0,0,3,3,0,0,VALID,0,0,0,0,0,1,0,0,0,0,0,0,0,0,0,0,0,0,0,0,347.86,1022.89,2,0,0.12,0.12,113,8.33,0.12,0.12,13.32,FLYING,X10-F,0:/Integrated Flight Computer/aircraft/x10_f_cfg.ks (inferred preloaded)
13.68,APPROACH,ILS_TRACK,149.04,152,2.96,1282.34,1203.18,-0.08,10.89,10.94,270.81,-2.443,0.3748,0,14.025,1,0.6,4.5,0.75,0.35,0.0168,0.4,0,22.727,0,-2.968,0,270.96,0,0,1,-0.04,0,0,0,270.95,0.2077,0.0167,0.978,0,270.96,-47.07,-178.96,26.466,0.958,0,0,3,1304.24,8.481,0,1461.3,0,0,0,0,0,0,0,0,267.71,0,0,0,0,0,0,0,0,0,0,0,0,0,3,3,0,0,VALID,0,0,0,0,0,1,0,0,0,0,0,0,0,0,0,0,0,0,0,0,350.61,1023.27,2,0,0.12,0.12,116,8.33,0.12,0.12,13.68,FLYING,X10-F,0:/Integrated Flight Computer/aircraft/x10_f_cfg.ks (inferred preloaded)
13.94,APPROACH,ILS_TRACK,149.09,152,2.91,1282.28,1203.2,-0.01,10.72,10.72,270.83,-2.16,0.3811,0,14.786,1,0.6,4.5,0.75,0.35,0.0168,0.4,0,22.712,0,-2.912,0,270.94,0,0,1,0,0,0,0,270.95,0.2078,0.0164,0.978,0,270.94,-46.12,-176.79,26.423,0.938,0,0,3,1304.24,8.301,0,1459.08,0,0,0,0,0,0,0,0,267.71,0,0,0,0,0,0,0,0,0,0,0,0,0,3,3,0,0,VALID,0,0,0,0,0,1,0,0,0,0,0,0,0,0,0,0,0,0,0,0,352.44,1023.5,2,0,0.12,0.12,118,7.69,0.14,0.12,13.94,FLYING,X10-F,0:/Integrated Flight Computer/aircraft/x10_f_cfg.ks (inferred preloaded)
14.3,APPROACH,ILS_TRACK,149.22,152,2.78,1282.25,1203.21,-0.11,10.61,10.66,270.87,-1.81,0.3657,0,15.805,1,0.6,4.5,0.75,0.35,0.0168,0.4,0,22.677,0,-2.79,0,270.92,0,0,1,-0.03,0,0,0,270.93,0.2079,0.0161,0.978,0,270.92,-44.85,-173.76,26.365,0.922,0,0,3,1304.24,8.489,0,1456,0,0,0,0,0,0,0,0,267.71,0,0,0,0,0,0,0,0,0,0,0,0,0,3,3,0,0,VALID,0,0,0,0,0,1,0,0,0,0,0,0,0,0,0,0,0,0,0,0,354.91,1024.03,2,0,0.12,0.12,121,8.33,0.12,0.12,14.3,FLYING,X10-F,0:/Integrated Flight Computer/aircraft/x10_f_cfg.ks (inferred preloaded)
14.66,APPROACH,ILS_TRACK,149.34,152,2.66,1282.23,1203.22,0.03,10.66,10.64,270.88,-1.545,0.364,0,16.78,1,0.6,4.5,0.75,0.35,0.0168,0.4,0,22.643,0,-2.67,0,270.9,0,0,1,0.01,0,0,0,270.91,0.208,0.0157,0.978,0,270.9,-43.63,-170.69,26.306,0.901,0,0,3,1304.24,8.443,0,1452.92,0,0,0,0,0,0,0,0,267.71,0,0,0,0,0,0,0,0,0,0,0,0,0,3,3,0,0,VALID,0,0,0,0,0,1,0,0,0,0,0,0,0,0,0,0,0,0,0,0,356.27,1024.53,2,0,0.12,0.12,124,8.33,0.12,0.12,14.66,FLYING,X10-F,0:/Integrated Flight Computer/aircraft/x10_f_cfg.ks (inferred preloaded)
15.02,APPROACH,ILS_TRACK,149.47,152,2.53,1282.21,1203.24,0.03,10.57,10.55,270.9,-1.353,0.3578,0,17.71,1,0.6,4.5,0.75,0.35,0.0168,0.4,0,22.606,0,-2.537,0,270.87,0,0,1,0.01,0,0,0,270.88,0.2081,0.0151,0.978,0,270.87,-42.43,-167.63,26.247,0.868,0,0,3,1304.24,8.496,0,1449.84,0,0,0,0,0,0,0,0,267.71,0,0,0,0,0,0,0,0,0,0,0,0,0,3,3,0,0,VALID,0,0,0,0,0,1,0,0,0,0,0,0,0,0,0,0,0,0,0,0,357.51,1025.1,2,0,0.12,0.12,127,8.33,0.12,0.12,15.02,FLYING,X10-F,0:/Integrated Flight Computer/aircraft/x10_f_cfg.ks (inferred preloaded)
15.38,APPROACH,ILS_TRACK,149.62,152,2.38,1282.2,1203.25,0.03,10.52,10.51,270.89,-1.235,0.3512,0,18.588,1,0.6,4.5,0.75,0.35,0.0168,0.4,0,22.565,0,-2.392,0,270.85,0,0,1,0.01,0,0,0,270.85,0.2082,0.0148,0.978,0,270.85,-41.26,-164.56,26.188,0.85,0,0,3,1304.24,8.544,0,1446.76,0,0,0,0,0,0,0,0,267.71,0,0,0,0,0,0,0,0,0,0,0,0,0,3,3,0,0,VALID,0,0,0,0,0,1,0,0,0,0,0,0,0,0,0,0,0,0,0,0,358.24,1025.71,2,0,0.12,0.12,130,8.33,0.12,0.12,15.38,FLYING,X10-F,0:/Integrated Flight Computer/aircraft/x10_f_cfg.ks (inferred preloaded)
15.74,APPROACH,ILS_TRACK,149.76,152,2.24,1282.19,1203.26,0.06,10.5,10.47,270.88,-1.164,0.3491,0,19.415,1,0.6,4.5,0.75,0.35,0.0168,0.4,0,22.524,0,-2.247,0,270.82,0,0,1,0.02,0,0,0,270.82,0.2083,0.0143,0.978,0,270.82,-40.12,-161.48,26.129,0.819,0,0,3,1304.24,8.538,0,1443.67,0,0,0,0,0,0,0,0,267.71,0,0,0,0,0,0,0,0,0,0,0,0,0,3,3,0,0,VALID,0,0,0,0,0,1,0,0,0,0,0,0,0,0,0,0,0,0,0,0,358.47,1026.32,2,0,0.12,0.12,133,8.33,0.12,0.12,15.74,FLYING,X10-F,0:/Integrated Flight Computer/aircraft/x10_f_cfg.ks (inferred preloaded)
16.1,APPROACH,ILS_TRACK,149.91,152,2.09,1282.19,1203.26,0,10.47,10.47,270.87,-1.125,0.3425,0,20,1,0.6,4.5,0.75,0.35,0.0168,0.4,0,22.482,0,-2.098,0,270.79,0,0,1,0,0,0,0,270.8,0.2084,0.0137,0.978,0,270.79,-39,-158.39,26.07,0.785,0,0,3,1304.24,8.625,0,1440.58,0,0,0,0,0,0,0,0,267.71,0,0,0,0,0,0,0,0,0,0,0,0,0,3,3,0,0,VALID,0,0,0,0,0,1,0,0,0,0,0,0,0,0,0,0,0,0,0,0,358.62,1026.96,2,0,0.12,0.12,136,8.33,0.12,0.12,16.1,FLYING,X10-F,0:/Integrated Flight Computer/aircraft/x10_f_cfg.ks (inferred preloaded)
16.36,APPROACH,ILS_TRACK,150.02,152,1.98,1282.2,1203.26,0.04,10.5,10.48,270.85,-1.121,0.3333,0,20,1,0.6,4.5,0.75,0.35,0.0168,0.4,0,22.452,0,-1.99,0,270.77,0,0,1,0.02,0,0,0,270.77,0.2084,0.0135,0.9779,0,270.77,-38.2,-156.15,26.028,0.772,0,0,3,1304.24,8.614,0,1438.35,0,0,0,0,0,0,0,0,267.71,0,0,0,0,0,0,0,0,0,0,0,0,0,3,3,0,0,VALID,0,0,0,0,0,1,0,0,0,0,0,0,0,0,0,0,0,0,0,0,358.03,1027.42,2,0,0.12,0.12,138,7.69,0.14,0.12,16.36,FLYING,X10-F,0:/Integrated Flight Computer/aircraft/x10_f_cfg.ks (inferred preloaded)
16.72,APPROACH,ILS_TRACK,150.16,152,1.84,1282.2,1203.28,0.07,10.47,10.44,270.83,-1.127,0.3266,0,20,1,0.6,4.5,0.75,0.35,0.0168,0.4,0,22.412,0,-1.849,0,270.74,0,0,1,0.03,0,0,0,270.74,0.2085,0.0129,0.9779,0,270.74,-37.12,-153.05,25.969,0.741,0,0,3,1304.24,8.565,0,1435.25,0,0,0,0,0,0,0,0,267.71,0,0,0,0,0,0,0,0,0,0,0,0,0,3,3,0,0,VALID,0,0,0,0,0,1,0,0,0,0,0,0,0,0,0,0,0,0,0,0,356.05,1028.01,2,0,0.12,0.12,141,8.33,0.12,0.12,16.72,FLYING,X10-F,0:/Integrated Flight Computer/aircraft/x10_f_cfg.ks (inferred preloaded)
17.08,APPROACH,ILS_TRACK,150.29,152,1.71,1282.2,1203.29,0.11,10.41,10.36,270.8,-1.131,0.3217,0,20,1,0.6,4.5,0.75,0.35,0.0168,0.4,0,22.374,0,-1.715,0,270.72,0,0,1,0.04,0,0,0,270.72,0.2086,0.0125,0.9779,0,270.72,-36.07,-149.95,25.91,0.719,0,0,3,1304.24,8.573,0,1432.16,0,0,0,0,0,0,0,0,267.71,0,0,0,0,0,0,0,0,0,0,0,0,0,3,3,0,0,VALID,0,0,0,0,0,1,0,0,0,0,0,0,0,0,0,0,0,0,0,0,353.55,1028.58,2,0,0.12,0.12,144,8.33,0.12,0.12,17.08,FLYING,X10-F,0:/Integrated Flight Computer/aircraft/x10_f_cfg.ks (inferred preloaded)
17.44,APPROACH,ILS_TRACK,150.43,152,1.57,1282.22,1203.3,0.02,10.4,10.41,270.78,-1.136,0.3143,0,20,1,0.6,4.5,0.75,0.35,0.0168,0.4,0,22.337,0,-1.581,0,270.69,0,0,1,0,0,0,0,270.7,0.2087,0.0121,0.9779,0,270.69,-35.04,-146.84,25.85,0.691,0,0,3,1304.24,8.753,0,1429.06,0,0,0,0,0,0,0,0,267.71,0,0,0,0,0,0,0,0,0,0,0,0,0,3,3,0,0,VALID,0,0,0,0,0,1,0,0,0,0,0,0,0,0,0,0,0,0,0,0,350.85,1029.14,2,0,0.12,0.12,147,8.33,0.12,0.12,17.44,FLYING,X10-F,0:/Integrated Flight Computer/aircraft/x10_f_cfg.ks (inferred preloaded)
17.8,APPROACH,ILS_TRACK,150.54,152,1.46,1282.23,1203.32,0.07,10.41,10.39,270.75,-1.148,0.3149,0,20,1,0.6,4.5,0.75,0.35,0.0168,0.4,0,22.304,0,-1.464,0,270.67,0,0,1,0.01,0,0,0,270.68,0.2088,0.0116,0.9779,0,270.67,-34.03,-143.72,25.791,0.667,0,0,3,1304.24,8.692,0,1425.95,0,0,0,0,0,0,0,0,267.71,0,0,0,0,0,0,0,0,0,0,0,0,0,3,3,0,0,VALID,0,0,0,0,0,1,0,0,0,0,0,0,0,0,0,0,0,0,0,0,347.9,1029.64,2,0,0.12,0.12,150,8.33,0.12,0.12,17.8,FLYING,X10-F,0:/Integrated Flight Computer/aircraft/x10_f_cfg.ks (inferred preloaded)
18.16,APPROACH,ILS_TRACK,150.65,152,1.35,1282.25,1203.34,0.08,10.38,10.35,270.73,-1.156,0.315,0,20,1,0.6,4.5,0.75,0.35,0.0168,0.4,0,22.272,0,-1.354,0,270.65,0,0,1,0.03,0,0,0,270.65,0.2089,0.0113,0.9779,0,270.65,-33.05,-140.6,25.732,0.65,0,0,3,1304.24,8.689,0,1422.85,0,0,0,0,0,0,0,0,267.71,0,0,0,0,0,0,0,0,0,0,0,0,0,3,3,0,0,VALID,0,0,0,0,0,1,0,0,0,0,0,0,0,0,0,0,0,0,0,0,345.32,1030.11,2,0,0.12,0.12,153,8.33,0.12,0.12,18.16,FLYING,X10-F,0:/Integrated Flight Computer/aircraft/x10_f_cfg.ks (inferred preloaded)
18.52,APPROACH,ILS_TRACK,150.75,152,1.25,1282.26,1203.36,0.11,10.35,10.31,270.7,-1.151,0.3177,0,20,1,0.6,4.5,0.75,0.35,0.0168,0.4,0,22.244,0,-1.254,0,270.62,0,0,1,0.04,0,0,0,270.63,0.209,0.0109,0.9779,0,270.62,-32.09,-137.48,25.673,0.623,0,0,3,1304.24,8.644,0,1419.74,0,0,0,0,0,0,0,0,267.71,0,0,0,0,0,0,0,0,0,0,0,0,0,3,3,0,0,VALID,0,0,0,0,0,1,0,0,0,0,0,0,0,0,0,0,0,0,0,0,343.02,1030.52,2,0,0.12,0.12,156,8.33,0.12,0.12,18.52,FLYING,X10-F,0:/Integrated Flight Computer/aircraft/x10_f_cfg.ks (inferred preloaded)
18.78,APPROACH,ILS_TRACK,150.82,152,1.18,1282.27,1203.38,0.04,10.32,10.32,270.69,-1.138,0.3163,0,20,1,0.6,4.5,0.75,0.35,0.0168,0.4,0,22.224,0,-1.183,0,270.61,0,0,1,0.01,0,0,0,270.62,0.2091,0.0106,0.9778,0,270.61,-31.42,-135.23,25.63,0.608,0,0,3,1304.24,8.711,0,1417.5,0,0,0,0,0,0,0,0,267.71,0,0,0,0,0,0,0,0,0,0,0,0,0,3,3,0,0,VALID,0,0,0,0,0,1,0,0,0,0,0,0,0,0,0,0,0,0,0,0,341.76,1030.83,2,0,0.12,0.12,158,7.69,0.14,0.12,18.78,FLYING,X10-F,0:/Integrated Flight Computer/aircraft/x10_f_cfg.ks (inferred preloaded)
19.14,APPROACH,ILS_TRACK,150.91,152,1.09,1282.31,1203.4,0.05,10.37,10.37,270.66,-1.117,0.316,0,20,1,0.6,4.5,0.75,0.35,0.0168,0.4,0,22.198,0,-1.091,0,270.59,0,0,1,0.01,0,0,0,270.6,0.2092,0.0104,0.9778,0,270.59,-30.5,-132.09,25.571,0.593,0,0,3,1304.24,8.781,0,1414.39,0,0,0,0,0,0,0,0,267.71,0,0,0,0,0,0,0,0,0,0,0,0,0,3,3,0,0,VALID,0,0,0,0,0,1,0,0,0,0,0,0,0,0,0,0,0,0,0,0,340.05,1031.22,2,0,0.12,0.12,161,8.33,0.12,0.12,19.14,FLYING,X10-F,0:/Integrated Flight Computer/aircraft/x10_f_cfg.ks (inferred preloaded)
19.5,APPROACH,ILS_TRACK,150.99,152,1.01,1282.32,1203.43,0.04,10.31,10.31,270.65,-1.092,0.3213,0,20,1,0.6,4.5,0.75,0.35,0.0168,0.4,0,22.177,0,-1.015,0,270.58,0,0,1,0.02,0,0,0,270.57,0.2093,0.0101,0.9778,0,270.58,-29.61,-128.96,25.511,0.576,0,0,3,1304.24,8.716,0,1411.28,0,0,0,0,0,0,0,0,267.71,0,0,0,0,0,0,0,0,0,0,0,0,0,3,3,0,0,VALID,0,0,0,0,0,1,0,0,0,0,0,0,0,0,0,0,0,0,0,0,338.9,1031.54,2,0,0.12,0.12,164,8.33,0.12,0.12,19.5,FLYING,X10-F,0:/Integrated Flight Computer/aircraft/x10_f_cfg.ks (inferred preloaded)
19.86,APPROACH,ILS_TRACK,151.07,152,0.93,1282.35,1203.46,0.08,10.33,10.3,270.63,-1.06,0.3197,0,20,1,0.6,4.5,0.75,0.35,0.0168,0.4,0,22.154,0,-0.935,0,270.55,0,0,1,0.04,0,0,0,270.56,0.2094,0.0097,0.9778,0,270.55,-28.75,-125.82,25.452,0.554,0,0,3,1304.24,8.711,0,1408.16,0,0,0,0,0,0,0,0,267.71,0,0,0,0,0,0,0,0,0,0,0,0,0,3,3,0,0,VALID,0,0,0,0,0,1,0,0,0,0,0,0,0,0,0,0,0,0,0,0,338.05,1031.87,2,0,0.12,0.12,167,8.33,0.12,0.12,19.86,FLYING,X10-F,0:/Integrated Flight Computer/aircraft/x10_f_cfg.ks (inferred preloaded)
20.22,APPROACH,ILS_TRACK,151.14,152,0.86,1282.37,1203.5,0.08,10.29,10.27,270.61,-1.033,0.319,0,20,1,0.6,4.5,0.75,0.35,0.0168,0.4,0,22.133,0,-0.86,0,270.54,0,0,1,0.03,0,0,0,270.54,0.2095,0.0095,0.9778,0,270.54,-27.91,-122.68,25.392,0.543,0,0,3,1304.24,8.691,0,1405.05,0,0,0,0,0,0,0,0,267.71,0,0,0,0,0,0,0,0,0,0,0,0,0,3,3,0,0,VALID,0,0,0,0,0,1,0,0,0,0,0,0,0,0,0,0,0,0,0,0,337.13,1032.19,2,0,0.12,0.12,170,8.33,0.12,0.12,20.22,FLYING,X10-F,0:/Integrated Flight Computer/aircraft/x10_f_cfg.ks (inferred preloaded)
20.58,APPROACH,ILS_TRACK,151.22,152,0.78,1282.4,1203.54,0.07,10.25,10.23,270.6,-1.004,0.3155,0,20,1,0.6,4.5,0.75,0.35,0.0168,0.4,0,22.112,0,-0.784,0,270.52,0,0,1,0.03,0,0,0,270.52,0.2096,0.0091,0.9777,0,270.52,-27.09,-119.54,25.333,0.523,0,0,3,1304.24,8.718,0,1401.93,0,0,0,0,0,0,0,0,267.71,0,0,0,0,0,0,0,0,0,0,0,0,0,3,3,0,0,VALID,0,0,0,0,0,1,0,0,0,0,0,0,0,0,0,0,0,0,0,0,336.13,1032.51,2,0,0.12,0.12,173,8.33,0.12,0.12,20.58,FLYING,X10-F,0:/Integrated Flight Computer/aircraft/x10_f_cfg.ks (inferred preloaded)
20.94,APPROACH,ILS_TRACK,151.29,152,0.71,1282.42,1203.57,0.09,10.21,10.17,270.58,-0.975,0.3158,0,20,1,0.6,4.5,0.75,0.35,0.0168,0.4,0,22.093,0,-0.716,0,270.5,0,0,1,0.04,0,0,0,270.51,0.2097,0.0087,0.9777,0,270.5,-26.29,-116.4,25.273,0.5,0,0,3,1304.24,8.662,0,1398.81,0,0,0,0,0,0,0,0,267.71,0,0,0,0,0,0,0,0,0,0,0,0,0,3,3,0,0,VALID,0,0,0,0,0,1,0,0,0,0,0,0,0,0,0,0,0,0,0,0,334.84,1032.8,2,0,0.12,0.12,176,8.33,0.12,0.12,20.94,FLYING,X10-F,0:/Integrated Flight Computer/aircraft/x10_f_cfg.ks (inferred preloaded)
21.2,APPROACH,ILS_TRACK,151.34,152,0.66,1282.47,1203.58,0.05,10.34,10.35,270.57,-0.951,0.3124,0,20,1,0.6,4.5,0.75,0.35,0.0168,0.4,0,22.078,0,-0.663,0,270.49,0,0,1,0,0,0,0,270.5,0.2097,0.0086,0.9777,0,270.49,-25.73,-114.1,25.23,0.493,0,0,3,1304.24,8.914,0,1396.56,0,0,0,0,0,0,0,0,267.71,0,0,0,0,0,0,0,0,0,0,0,0,0,3,3,0,0,VALID,0,0,0,0,0,1,0,0,0,0,0,0,0,0,0,0,0,0,0,0,334.04,1033.02,2,0,0.12,0.12,178,7.69,0.14,0.12,21.2,FLYING,X10-F,0:/Integrated Flight Computer/aircraft/x10_f_cfg.ks (inferred preloaded)
21.56,APPROACH,ILS_TRACK,151.38,152,0.62,1282.49,1203.63,0.05,10.27,10.25,270.55,-0.92,0.3233,0,20,1,0.6,4.5,0.75,0.35,0.0168,0.4,0,22.066,0,-0.623,0,270.48,0,0,1,0.03,0,0,0,270.48,0.2098,0.0083,0.9777,0,270.48,-24.97,-110.96,25.171,0.478,0,0,3,1304.24,8.721,0,1393.44,0,0,0,0,0,0,0,0,267.71,0,0,0,0,0,0,0,0,0,0,0,0,0,3,3,0,0,VALID,0,0,0,0,0,1,0,0,0,0,0,0,0,0,0,0,0,0,0,0,333.46,1033.2,2,0,0.12,0.12,181,8.33,0.12,0.12,21.56,FLYING,X10-F,0:/Integrated Flight Computer/aircraft/x10_f_cfg.ks (inferred preloaded)
21.92,APPROACH,ILS_TRACK,151.43,152,0.57,1282.52,1203.66,0.08,10.27,10.25,270.54,-0.901,0.3222,0,20,1,0.6,4.5,0.75,0.35,0.0168,0.4,0,22.051,0,-0.57,0,270.46,0,0,1,0.04,0,0,0,270.46,0.2099,0.0081,0.9777,0,270.46,-24.23,-107.81,25.111,0.461,0,0,3,1304.24,8.73,0,1390.32,0,0,0,0,0,0,0,0,267.71,0,0,0,0,0,0,0,0,0,0,0,0,0,3,3,0,0,VALID,0,0,0,0,0,1,0,0,0,0,0,0,0,0,0,0,0,0,0,0,333.39,1033.42,2,0,0.12,0.12,184,8.33,0.12,0.12,21.92,FLYING,X10-F,0:/Integrated Flight Computer/aircraft/x10_f_cfg.ks (inferred preloaded)
22.28,APPROACH,ILS_TRACK,151.49,152,0.51,1282.54,1203.71,0.1,10.2,10.16,270.52,-0.882,0.3178,0,20,1,0.6,4.5,0.75,0.35,0.0168,0.4,0,22.035,0,-0.513,0,270.44,0,0,1,0.05,0,0,0,270.45,0.21,0.0077,0.9777,0,270.44,-23.5,-104.66,25.052,0.441,0,0,3,1304.24,8.689,0,1387.2,0,0,0,0,0,0,0,0,267.71,0,0,0,0,0,0,0,0,0,0,0,0,0,3,3,0,0,VALID,0,0,0,0,0,1,0,0,0,0,0,0,0,0,0,0,0,0,0,0,333.17,1033.66,2,0,0.12,0.12,187,8.33,0.12,0.12,22.28,FLYING,X10-F,0:/Integrated Flight Computer/aircraft/x10_f_cfg.ks (inferred preloaded)
22.64,APPROACH,ILS_TRACK,151.55,152,0.45,1282.59,1203.74,0.1,10.27,10.23,270.51,-0.86,0.3095,0,20,1,0.6,4.5,0.75,0.35,0.0168,0.4,0,22.017,0,-0.449,0,270.43,0,0,1,0.04,0,0,0,270.43,0.2101,0.0075,0.9776,0,270.43,-22.8,-101.49,24.992,0.43,0,0,3,1304.24,8.823,0,1384.08,0,0,0,0,0,0,0,0,267.71,0,0,0,0,0,0,0,0,0,0,0,0,0,3,3,0,0,VALID,0,0,0,0,0,1,0,0,0,0,0,0,0,0,0,0,0,0,0,0,332.28,1033.93,2,0,0.12,0.12,190,8.33,0.12,0.12,22.64,FLYING,X10-F,0:/Integrated Flight Computer/aircraft/x10_f_cfg.ks (inferred preloaded)
23,APPROACH,ILS_TRACK,151.61,152,0.39,1282.63,1203.79,0.12,10.25,10.2,270.49,-0.843,0.3059,0,20,1,0.6,4.5,0.75,0.35,0.0168,0.4,0,22.001,0,-0.39,0,270.41,0,0,1,0.05,0,0,0,270.42,0.2102,0.0072,0.9776,0,270.41,-22.12,-98.33,24.933,0.413,0,0,3,1304.24,8.77,0,1380.95,0,0,0,0,0,0,0,0,267.71,0,0,0,0,0,0,0,0,0,0,0,0,0,3,3,0,0,VALID,0,0,0,0,0,1,0,0,0,0,0,0,0,0,0,0,0,0,0,0,330.75,1034.18,2,0,0.12,0.12,193,8.33,0.12,0.12,23,FLYING,X10-F,0:/Integrated Flight Computer/aircraft/x10_f_cfg.ks (inferred preloaded)
23.36,APPROACH,ILS_TRACK,151.67,152,0.33,1282.68,1203.83,0.11,10.25,10.23,270.48,-0.814,0.3049,0,20,1,0.6,4.5,0.75,0.35,0.0168,0.4,0,21.986,0,-0.336,0,270.4,0,0,1,0.03,0,0,0,270.41,0.2103,0.007,0.9776,0,270.4,-21.46,-95.16,24.873,0.4,0,0,3,1304.24,8.83,0,1377.83,0,0,0,0,0,0,0,0,267.71,0,0,0,0,0,0,0,0,0,0,0,0,0,3,3,0,0,VALID,0,0,0,0,0,1,0,0,0,0,0,0,0,0,0,0,0,0,0,0,329.05,1034.4,2,0,0.12,0.12,196,8.33,0.12,0.12,23.36,FLYING,X10-F,0:/Integrated Flight Computer/aircraft/x10_f_cfg.ks (inferred preloaded)
23.62,APPROACH,ILS_TRACK,151.7,152,0.3,1282.7,1203.87,0.11,10.22,10.18,270.47,-0.798,0.3077,0,20,1,0.6,4.5,0.75,0.35,0.0168,0.4,0,21.977,0,-0.306,0,270.39,0,0,1,0.05,0,0,0,270.39,0.2104,0.0069,0.9776,0,270.39,-20.99,-92.88,24.83,0.395,0,0,3,1304.24,8.78,0,1375.57,0,0,0,0,0,0,0,0,267.71,0,0,0,0,0,0,0,0,0,0,0,0,0,3,3,0,0,VALID,0,0,0,0,0,1,0,0,0,0,0,0,0,0,0,0,0,0,0,0,327.96,1034.53,2,0,0.12,0.12,198,7.69,0.14,0.12,23.62,FLYING,X10-F,0:/Integrated Flight Computer/aircraft/x10_f_cfg.ks (inferred preloaded)
23.98,APPROACH,ILS_TRACK,151.74,152,0.26,1282.75,1203.91,0.09,10.23,10.21,270.46,-0.773,0.3082,0,20,1,0.6,4.5,0.75,0.35,0.0168,0.4,0,21.965,0,-0.262,0,270.37,0,0,1,0.03,0,0,0,270.38,0.2105,0.0065,0.9776,0,270.37,-20.35,-89.7,24.77,0.372,0,0,3,1304.24,8.831,0,1372.44,0,0,0,0,0,0,0,0,267.71,0,0,0,0,0,0,0,0,0,0,0,0,0,3,3,0,0,VALID,0,0,0,0,0,1,0,0,0,0,0,0,0,0,0,0,0,0,0,0,326.84,1034.72,2,0,0.12,0.12,201,8.33,0.12,0.12,23.98,FLYING,X10-F,0:/Integrated Flight Computer/aircraft/x10_f_cfg.ks (inferred preloaded)
24.34,APPROACH,ILS_TRACK,151.78,152,0.22,1282.8,1203.96,0.04,10.24,10.23,270.45,-0.756,0.3107,0,20,1,0.6,4.5,0.75,0.35,0.0168,0.4,0,21.954,0,-0.225,0,270.37,0,0,1,0.03,0,0,0,270.37,0.2106,0.0065,0.9776,0,270.37,-19.74,-86.53,24.711,0.371,0,0,3,1304.24,8.85,0,1369.32,0,0,0,0,0,0,0,0,267.71,0,0,0,0,0,0,0,0,0,0,0,0,0,3,3,0,0,VALID,0,0,0,0,0,1,0,0,0,0,0,0,0,0,0,0,0,0,0,0,326.1,1034.87,2,0,0.12,0.12,204,8.33,0.12,0.12,24.34,FLYING,X10-F,0:/Integrated Flight Computer/aircraft/x10_f_cfg.ks (inferred preloaded)
24.7,APPROACH,ILS_TRACK,151.79,152,0.21,1282.84,1204.02,0.2,10.25,10.17,270.43,-0.736,0.3267,0,20,1,0.6,4.5,0.75,0.35,0.0168,0.4,0,21.952,0,-0.215,0,270.36,0,0,1,0.08,0,0,0,270.36,0.2107,0.0062,0.9775,0,270.36,-19.14,-83.34,24.651,0.357,0,0,3,1304.24,8.704,0,1366.19,0,0,0,0,0,0,0,0,267.71,0,0,0,0,0,0,0,0,0,0,0,0,0,3,3,0,0,VALID,0,0,0,0,0,1,0,0,0,0,0,0,0,0,0,0,0,0,0,0,325.85,1034.9,2,0,0.12,0.12,207,8.33,0.12,0.12,24.7,FLYING,X10-F,0:/Integrated Flight Computer/aircraft/x10_f_cfg.ks (inferred preloaded)
25.06,APPROACH,ILS_TRACK,151.82,152,0.18,1282.89,1204.07,0.21,10.24,10.16,270.42,-0.718,0.3216,0,20,1,0.6,4.5,0.75,0.35,0.0168,0.4,0,21.943,0,-0.184,0,270.34,0,0,1,0.07,0,0,0,270.35,0.2108,0.0059,0.9775,0,270.34,-18.55,-80.17,24.591,0.341,0,0,3,1304.24,8.834,0,1363.06,0,0,0,0,0,0,0,0,267.71,0,0,0,0,0,0,0,0,0,0,0,0,0,3,3,0,0,VALID,0,0,0,0,0,1,0,0,0,0,0,0,0,0,0,0,0,0,0,0,326.55,1035.03,2,0,0.12,0.12,210,8.33,0.12,0.12,25.06,FLYING,X10-F,0:/Integrated Flight Computer/aircraft/x10_f_cfg.ks (inferred preloaded)
25.42,APPROACH,ILS_TRACK,151.86,152,0.14,1282.95,1204.12,0.12,10.22,10.2,270.41,-0.699,0.314,0,20,1,0.6,4.5,0.75,0.35,0.0168,0.4,0,21.932,0,-0.146,0,270.33,0,0,1,0.03,0,0,0,270.33,0.2109,0.0058,0.9775,0,270.33,-17.99,-76.99,24.531,0.334,15.945,1,3,1304.24,8.94,0,1359.93,0,0,0,0,0,0,0,0,267.71,0,0,0,0,0,0,0,0,0,0,0,0,0,3,3,0,0,VALID,0,0,0,0,0,1,0,0,0,0,0,0,0,0,0,0,0,0,0,0,326.96,1035.19,2,0,0.12,0.12,213,8.33,0.12,0.12,25.42,FLYING,X10-F,0:/Integrated Flight Computer/aircraft/x10_f_cfg.ks (inferred preloaded)
25.78,APPROACH,ILS_TRACK,151.89,152,0.11,1283,1204.16,0.17,10.22,10.16,270.4,-0.682,0.3118,0,20,1,0.6,4.5,0.75,0.35,0.0168,0.4,0,21.923,0,-0.115,0,270.32,0,0,1,0.06,0,0,0,270.32,0.211,0.0055,0.9775,0,270.32,-17.43,-73.8,24.472,0.318,15.056,1,3,1304.24,8.857,0,1356.8,0,0,0,0,0,0,0,0,267.71,0,0,0,0,0,0,0,0,0,0,0,0,0,3,3,0,0,VALID,0,0,0,0,0,1,0,0,0,0,0,0,0,0,0,0,0,0,0,0,326.88,1035.33,2,0,0.12,0.12,216,8.33,0.12,0.12,25.78,FLYING,X10-F,0:/Integrated Flight Computer/aircraft/x10_f_cfg.ks (inferred preloaded)
26.04,APPROACH,ILS_TRACK,151.92,152,0.08,1283.05,1204.15,0.05,10.26,10.26,270.39,-0.667,0.3062,0,20,1,0.6,4.5,0.75,0.35,0.0168,0.4,0,21.915,0,-0.084,0,270.31,0,0,1,0.02,0,0,0,270.31,0.2111,0.0054,0.9775,0,270.31,-17.04,-71.5,24.429,0.308,14.317,1,3,1304.24,8.917,0,1354.54,0,0,0,0,0,0,0,0,267.71,0,0,0,0,0,0,0,0,0,0,0,0,0,3,3,0,0,VALID,0,0,0,0,0,1,0,0,0,0,0,0,0,0,0,0,0,0,0,0,326.49,1035.46,2,0,0.12,0.12,218,7.69,0.14,0.12,26.04,FLYING,X10-F,0:/Integrated Flight Computer/aircraft/x10_f_cfg.ks (inferred preloaded)
26.4,APPROACH,ILS_TRACK,151.94,152,0.06,1283.09,1204.11,0.14,10.24,10.19,270.38,-0.654,0.314,0,20,1,0.6,4.5,0.75,0.35,0.0168,0.4,0,21.91,0,-0.066,0,270.3,0,0,1,0.06,0,0,0,270.31,0.2112,0.0052,0.9774,0,270.3,-16.52,-68.32,24.369,0.295,13.477,1,3,1304.24,8.774,0,1351.41,0,0,0,0,0,0,0,0,267.71,0,0,0,0,0,0,0,0,0,0,0,0,0,3,3,0,0,VALID,0,0,0,0,0,1,0,0,0,0,0,0,0,0,0,0,0,0,0,0,325.71,1035.53,2,0,0.12,0.12,221,8.33,0.12,0.12,26.4,FLYING,X10-F,0:/Integrated Flight Computer/aircraft/x10_f_cfg.ks (inferred preloaded)
26.76,APPROACH,ILS_TRACK,151.97,152,0.03,1283.15,1204.03,0.13,10.24,10.2,270.37,-0.639,0.3097,0,20,1,0.6,4.5,0.75,0.35,0.0168,0.4,0,21.9,0,-0.034,0,270.29,0,0,1,0.05,0,0,0,270.29,0.2113,0.0051,0.9774,0,270.29,-16,-65.14,24.309,0.289,12.477,1,3,1304.24,8.83,0,1348.28,0,0,0,0,0,0,0,0,267.71,0,0,0,0,0,0,0,0,0,0,0,0,0,3,3,0,0,VALID,0,0,0,0,0,1,0,0,0,0,0,0,0,0,0,0,0,0,0,0,325.42,1035.66,2,0,0.12,0.12,224,8.33,0.12,0.12,26.76,FLYING,X10-F,0:/Integrated Flight Computer/aircraft/x10_f_cfg.ks (inferred preloaded)
27.12,APPROACH,ILS_TRACK,152,152,0,1283.2,1203.93,0.18,10.25,10.18,270.36,-0.622,0.3066,0,20,1,0.6,4.5,0.75,0.35,0.0168,0.4,0,21.891,0,-0.002,0,270.27,0,0,1,0.07,0,0,0,270.28,0.2114,0.0048,0.9774,0,270.27,-15.5,-61.95,24.249,0.273,11.495,1,3,1304.24,8.862,0,1345.14,0,0,0,0,0,0,0,0,267.71,0,0,0,0,0,0,0,0,0,0,0,0,0,3,3,0,0,VALID,0,0,0,0,0,1,0,0,0,0,0,0,0,0,0,0,0,0,0,0,324.76,1035.79,2,0,0.12,0.12,227,8.33,0.12,0.12,27.12,FLYING,X10-F,0:/Integrated Flight Computer/aircraft/x10_f_cfg.ks (inferred preloaded)
27.48,APPROACH,ILS_TRACK,152.03,152,-0.03,1283.25,1203.81,0.16,10.22,10.16,270.35,-0.608,0.3052,0,19.994,1,0.6,4.5,0.75,0.35,0.0168,0.4,0,21.883,0,0.027,0,270.27,0,0,1,0.07,0,0,0,270.27,0.2114,0.0046,0.9774,0,270.27,-15.02,-58.76,24.19,0.266,10.577,1,3,1304.24,8.816,0,1342.01,0,0,0,0,0,0,0,0,267.71,0,0,0,0,0,0,0,0,0,0,0,0,0,3,3,0,0,VALID,0,0,0,0,0,1,0,0,0,0,0,0,0,0,0,0,0,0,0,0,323.89,1035.91,2,0,0.12,0.12,230,8.33,0.12,0.12,27.48,FLYING,X10-F,0:/Integrated Flight Computer/aircraft/x10_f_cfg.ks (inferred preloaded)
27.84,APPROACH,ILS_TRACK,152.04,152,-0.04,1283.32,1203.68,0.24,10.31,10.21,270.34,-0.595,0.3119,0,19.979,1,0.6,4.5,0.75,0.35,0.0168,0.4,0,21.879,0,0.042,0,270.26,0,0,1,0.09,0,0,0,270.26,0.2115,0.0046,0.9774,0,270.26,-14.55,-55.56,24.13,0.262,9.577,1,3,1304.24,8.863,0,1338.88,0,0,0,0,0,0,0,0,267.71,0,0,0,0,0,0,0,0,0,0,0,0,0,3,3,0,0,VALID,0,0,0,0,0,1,0,0,0,0,0,0,0,0,0,0,0,0,0,0,322.93,1035.97,2,0,0.12,0.12,233,8.33,0.12,0.12,27.84,FLYING,X10-F,0:/Integrated Flight Computer/aircraft/x10_f_cfg.ks (inferred preloaded)
28.2,APPROACH,ILS_TRACK,152.06,152,-0.06,1283.37,1203.56,0.19,10.2,10.14,270.33,-0.584,0.3141,0,19.962,1,0.6,4.5,0.75,0.35,0.0168,0.4,0,21.876,0,0.054,0,270.25,0,0,1,0.06,0,0,0,270.25,0.2116,0.0044,0.9773,0,270.25,-14.09,-52.38,24.07,0.251,8.596,1,3,1304.24,8.899,0,1335.74,0,0,0,0,0,0,0,0,267.71,0,0,0,0,0,0,0,0,0,0,0,0,0,3,3,0,0,VALID,0,0,0,0,0,1,0,0,0,0,0,0,0,0,0,0,0,0,0,0,323.18,1036.02,2,0,0.12,0.12,236,8.33,0.12,0.12,28.2,FLYING,X10-F,0:/Integrated Flight Computer/aircraft/x10_f_cfg.ks (inferred preloaded)
28.56,APPROACH,ILS_TRACK,152.08,152,-0.08,1283.43,1203.45,0.19,10.19,10.12,270.32,-0.575,0.3099,0,19.937,1,0.6,4.5,0.75,0.35,0.0168,0.4,0,21.869,0,0.077,0,270.25,0,0,1,0.08,0,0,0,270.24,0.2117,0.0043,0.9773,0,270.25,-13.65,-49.19,24.01,0.246,7.681,1,3,1304.24,8.845,0,1332.61,0,0,0,0,0,0,0,0,267.71,0,0,0,0,0,0,0,0,0,0,0,0,0,3,3,0,0,VALID,0,0,0,0,0,1,0,0,0,0,0,0,0,0,0,0,0,0,0,0,323.27,1036.11,2,0,0.12,0.12,239,8.33,0.12,0.12,28.56,FLYING,X10-F,0:/Integrated Flight Computer/aircraft/x10_f_cfg.ks (inferred preloaded)
28.92,APPROACH,ILS_TRACK,152.1,152,-0.1,1283.49,1203.36,0.15,10.19,10.14,270.31,-0.551,0.3057,0,19.904,1,0.6,4.5,0.75,0.35,0.0168,0.4,0,21.862,0,0.101,0,270.23,0,0,1,0.07,0,0,0,270.23,0.2118,0.004,0.9773,0,270.23,-13.21,-45.99,23.95,0.23,6.706,1,3,1304.24,8.865,0,1329.48,0,0,0,0,0,0,0,0,267.71,0,0,0,0,0,0,0,0,0,0,0,0,0,3,3,0,0,VALID,0,0,0,0,0,1,0,0,0,0,0,0,0,0,0,0,0,0,0,0,322.85,1036.22,2,0,0.12,0.12,242,8.33,0.12,0.12,28.92,FLYING,X10-F,0:/Integrated Flight Computer/aircraft/x10_f_cfg.ks (inferred preloaded)
29.28,APPROACH,ILS_TRACK,152.13,152,-0.13,1283.55,1203.29,0.12,10.19,10.15,270.3,-0.534,0.3032,0,19.862,1,0.6,4.5,0.75,0.35,0.0168,0.4,0,21.856,0,0.124,0,270.22,0,0,1,0.05,0,0,0,270.23,0.2119,0.0038,0.9773,0,270.22,-12.79,-42.8,23.891,0.218,5.739,1,3,1304.24,8.875,0,1326.34,0,0,0,0,0,0,0,0,267.71,0,0,0,0,0,0,0,0,0,0,0,0,0,3,3,0,0,VALID,0,0,0,0,0,1,0,0,0,0,0,0,0,0,0,0,0,0,0,0,322.03,1036.31,2,0,0.12,0.12,245,8.33,0.12,0.12,29.28,FLYING,X10-F,0:/Integrated Flight Computer/aircraft/x10_f_cfg.ks (inferred preloaded)
29.64,APPROACH,ILS_TRACK,152.13,152,-0.13,1283.6,1203.27,0.22,10.12,10.03,270.29,-0.524,0.3102,0,19.815,1,0.6,4.5,0.75,0.35,0.0168,0.4,0,21.854,0,0.13,0,270.21,0,0,1,0.09,0,0,0,270.22,0.212,0.0037,0.9773,0,270.21,-12.38,-39.61,23.831,0.213,4.858,1,3,1304.24,8.78,0,1323.21,0,0,0,0,0,0,0,0,267.71,0,0,0,0,0,0,0,0,0,0,0,0,0,3,3,0,0,VALID,0,0,0,0,0,1,0,0,0,0,0,0,0,0,0,0,0,0,0,0,321.27,1036.33,2,0,0.12,0.12,248,8.33,0.12,0.12,29.64,FLYING,X10-F,0:/Integrated Flight Computer/aircraft/x10_f_cfg.ks (inferred preloaded)
30,APPROACH,ILS_TRACK,152.16,152,-0.16,1283.67,1203.19,0.17,10.09,10.03,270.28,-0.515,0.3022,0,19.762,1,0.6,4.5,0.75,0.35,0.0168,0.4,0,21.847,0,0.156,0,270.21,0,0,1,0.07,0,0,0,270.2,0.2121,0.0036,0.9772,0,270.21,-11.98,-36.41,23.771,0.208,3.816,1,3,1304.24,8.883,0,1320.07,0,0,0,0,0,0,0,0,267.71,0,0,0,0,0,0,0,0,0,0,0,0,0,3,3,0,0,VALID,0,0,0,0,0,1,0,0,0,0,0,0,0,0,0,0,0,0,0,0,320.95,1036.43,2,0,0.12,0.12,251,8.33,0.12,0.12,30,FLYING,X10-F,0:/Integrated Flight Computer/aircraft/x10_f_cfg.ks (inferred preloaded)
30.36,APPROACH,ILS_TRACK,152.18,152,-0.18,1283.75,1203.13,0.18,10.11,10.06,270.27,-0.499,0.2976,0,19.7,1,0.6,4.5,0.75,0.35,0.0168,0.4,0,21.84,0,0.179,0,270.19,-0.185,0,1,0.06,0,0,0,270.2,0.2154,0.0034,0.9765,-0.19,270.2,-11.6,-33.2,23.711,0.195,2.815,1,3,1304.24,8.93,-0.185,1316.93,0,0,0,0,0,0,0,0,267.71,0,0,0,0,0,0,0,0,0,0,0,0,0,3,3,0,0,VALID,0,0,0,0,0,1,0,0,0,0,0,0,0,0,0,0,0,0,0,0,319.86,1036.53,2,0,0.12,0.12,254,8.33,0.12,0.12,30.36,FLYING,X10-F,0:/Integrated Flight Computer/aircraft/x10_f_cfg.ks (inferred preloaded)
30.72,APPROACH,ILS_TRACK,152.16,152,-0.16,1283.67,1203.19,0.52,9.53,9.27,270.25,-0.693,0.3192,0,19.637,1,0.6,4.5,0.75,0.35,0.0168,0.4,0,21.846,0,0.16,0,270.18,-0.574,0,1,0.2,0,0,-0.57,270.19,0.2221,0.0032,0.975,-0.57,270.18,-11.22,-30.1,23.651,0.182,2.426,1,3,1304.24,8.256,-0.574,1313.8,0,0,0,0,0,0,0,0,267.71,0,0,0,0,0,0,0,0,0,0,0,0,0,3,3,0,0,VALID,0,0,0,0,0,1,0,0,0,0,0,0,0,0,0,0,0,0,0,0,318.85,1036.42,2,0,0.12,0.12,257,8.33,0.12,0.12,30.72,FLYING,X10-F,0:/Integrated Flight Computer/aircraft/x10_f_cfg.ks (inferred preloaded)
31.08,APPROACH,ILS_TRACK,152.27,152,-0.27,1283.4,1203.25,-0.02,8.16,8.1,270.21,-0.938,0.2591,0,19.562,1,0.6,4.5,0.75,0.35,0.0168,0.4,0,21.818,0,0.259,0,270.18,-1.212,0,1,0.03,0,0,-0.89,270.18,0.2331,0.0031,0.9725,-1.21,270.18,-10.85,-27.24,23.591,0.18,1.788,1,3,1304.24,7.979,-1.212,1310.66,0,0,0,0,0,0,0,0,267.71,0,0,0,0,0,0,0,0,0,0,0,0,0,3,3,0,0,VALID,0,0,0,0,0,1,0,0,0,0,0,0,0,0,0,0,0,0,0,0,318.78,1036.86,2,0,0.12,0.12,260,8.33,0.12,0.12,31.08,FLYING,X10-F,0:/Integrated Flight Computer/aircraft/x10_f_cfg.ks (inferred preloaded)
31.44,APPROACH,ILS_TRACK,152.47,152,-0.47,1283.06,1203.14,-0.37,7.34,7.38,270.18,-1.093,0.174,0,19.423,1,0.6,4.5,0.75,0.35,0.0168,0.4,0,21.763,0,0.455,0,270.18,-1.758,0,1,-0.12,0,0,-1.76,270.18,0.2424,0.0031,0.9702,-1.76,270.18,-10.5,-24.41,23.531,0.18,1.242,1,3,1304.24,7.6,-1.758,1307.52,0,0,0,0,0,0,0,0,267.71,0,0,0,0,0,0,0,0,0,0,0,0,0,3,3,0,0,VALID,0,0,0,0,0,1,0,0,0,0,0,0,0,0,0,0,0,0,0,0,309.92,1037.7,2,0,0.12,0.12,263,8.33,0.12,0.12,31.44,FLYING,X10-F,0:/Integrated Flight Computer/aircraft/x10_f_cfg.ks (inferred preloaded)
31.8,APPROACH,ILS_TRACK,152.71,152,-0.71,1282.47,1202.85,-1.28,6.23,6.62,270.17,-1.142,0.0948,0,19.202,1,0.6,4.5,0.75,0.35,0.0168,0.4,0,21.694,0,0.699,0,270.19,-2.088,0,1,-0.43,0,0,-1.88,270.18,0.2481,0.0032,0.9687,-2.09,270.19,-10.17,-21.84,23.471,0.187,0.912,1,3,1304.24,7.049,-2.088,1304.38,0,0,0,0,0,0,0,0,267.71,0,0,0,0,0,0,0,0,0,0,0,0,0,3,3,0,0,VALID,0,0,0,0,0,1,0,0,0,0,0,0,0,0,0,0,0,0,0,0,292.1,1038.76,2,0,0.12,0.12,266,8.33,0.12,0.12,31.8,FLYING,X10-F,0:/Integrated Flight Computer/aircraft/x10_f_cfg.ks (inferred preloaded)
32.06,APPROACH,ILS_TRACK,152.86,152,-0.86,1282.04,1202.39,-2.1,6.16,6.89,270.16,-1.116,0.0741,0,18.99,1,0.6,4.5,0.75,0.35,0.0168,0.4,0,21.652,0,0.849,0,270.18,-2.672,0,1,-0.74,0,0,-2.38,270.18,0.258,0.0031,0.9661,-2.67,270.18,-9.95,-20,23.428,0.18,0.328,1,3,1304.24,7.089,-2.672,1302.1,0,0,0,0,0,0,0,0,267.71,0,0,0,0,0,0,0,0,0,0,0,0,0,3,3,0,0,VALID,0,0,0,0,0,1,0,0,0,0,0,0,0,0,0,0,0,0,0,0,274.96,1039.41,2,0,0.12,0.12,268,7.69,0.14,0.12,32.06,FLYING,X10-F,0:/Integrated Flight Computer/aircraft/x10_f_cfg.ks (inferred preloaded)
32.42,APPROACH,ILS_TRACK,152.97,152,-0.97,1281.25,1201.56,-2.33,6.44,7.2,270.13,-1.08,0.0982,0,18.653,1,0.6,4.5,0.75,0.35,0.0168,0.4,0,21.619,0,0.965,0,270.19,-2.705,0,1,-0.87,0,0,-2.93,270.18,0.2587,0.0032,0.966,-2.71,270.19,-9.65,-17.59,23.368,0.186,0.295,1,3,1304.24,6.226,-2.705,1298.95,0,0,0,0,0,0,0,0,267.71,0,0,0,0,0,0,0,0,0,0,0,0,0,3,3,0,0,VALID,0,0,0,0,0,1,0,0,0,0,0,0,0,0,0,0,0,0,0,0,252.05,1039.93,2,0,0.12,0.12,271,8.33,0.12,0.12,32.42,FLYING,X10-F,0:/Integrated Flight Computer/aircraft/x10_f_cfg.ks (inferred preloaded)
32.78,APPROACH,ILS_TRACK,153.02,152,-1.02,1279.94,1200.65,-3.03,5.21,6.16,270.15,-0.94,0.1347,0,18.299,1,0.6,4.5,0.75,0.35,0.0168,0.4,0,21.606,0,1.012,0,270.19,-2.242,0,1,-1.09,0,0,-2.24,270.19,0.251,0.0033,0.968,-2.24,270.19,-9.38,-15.7,23.308,0.191,0.758,1,3,1304.24,4.942,-2.242,1295.8,0,0,0,0,0,0,0,0,267.71,0,0,0,0,0,0,0,0,0,0,0,0,0,3,3,0,0,VALID,0,0,0,0,0,1,0,0,0,0,0,0,0,0,0,0,0,0,0,0,236.94,1040.2,2,0,0.12,0.12,274,8.33,0.12,0.12,32.78,FLYING,X10-F,0:/Integrated Flight Computer/aircraft/x10_f_cfg.ks (inferred preloaded)
33.14,APPROACH,ILS_TRACK,153.11,152,-1.11,1278.52,1199.45,-4.27,4.7,6.15,270.16,-0.778,0.126,0,17.91,1,0.6,4.5,0.75,0.35,0.0168,0.4,0,21.578,0,1.11,0,270.19,-2.639,0,1,-1.54,0,0,-2.47,270.19,0.2577,0.0033,0.9662,-2.64,270.19,-9.12,-13.97,23.248,0.191,0.361,1,3,1304.24,4.788,-2.639,1292.65,0,0,0,0,0,0,0,0,267.71,0,0,0,0,0,0,0,0,0,0,0,0,0,3,3,0,0,VALID,0,0,0,0,0,1,0,0,0,0,0,0,0,0,0,0,0,0,0,0,224.87,1040.68,2,0,0.12,0.12,277,8.33,0.12,0.12,33.14,FLYING,X10-F,0:/Integrated Flight Computer/aircraft/x10_f_cfg.ks (inferred preloaded)
33.5,APPROACH,ILS_TRACK,153.14,152,-1.14,1277.04,1197.72,-4.97,5.49,7.22,270.15,-0.644,0.152,0,17.502,1,0.6,4.5,0.75,0.35,0.0168,0.4,0,21.57,0,1.138,0,270.19,-2.949,0,1,-1.85,0,0,-3.01,270.19,0.2631,0.0032,0.9648,-2.95,270.19,-8.87,-12.27,23.188,0.186,0.051,1,3,1304.24,4.539,-2.949,1289.5,0,0,0,0,0,0,0,0,267.71,0,0,0,0,0,0,0,0,0,0,0,0,0,3,3,0,0,VALID,0,0,0,0,0,1,0,0,0,0,0,0,0,0,0,0,0,0,0,0,214.75,1040.91,2,0,0.12,0.12,280,8.33,0.12,0.12,33.5,FLYING,X10-F,0:/Integrated Flight Computer/aircraft/x10_f_cfg.ks (inferred preloaded)
33.86,APPROACH,ILS_TRACK,153.13,152,-1.13,1275.24,1195.84,-5.55,5.8,7.71,270.15,-0.52,0.1796,0,17.094,1,0.6,4.5,0.75,0.35,0.0168,0.4,0,21.572,0,1.131,0,270.19,-2.651,0,1,-2.04,0,0,-2.61,270.19,0.2581,0.0032,0.9661,-2.65,270.19,-8.64,-10.89,23.127,0.186,0.349,1,3,1304.24,3.649,-2.651,1286.34,0,0,0,0,0,0,0,0,267.71,0,0,0,0,0,0,0,0,0,0,0,0,0,3,3,0,0,VALID,0,0,0,0,0,1,0,0,0,0,0,0,0,0,0,0,0,0,0,0,209.17,1041,2,0,0.12,0.12,283,8.33,0.12,0.12,33.86,FLYING,X10-F,0:/Integrated Flight Computer/aircraft/x10_f_cfg.ks (inferred preloaded)
34.22,APPROACH,ILS_TRACK,153.05,152,-1.05,1273.33,1193.74,-5.81,6.45,8.45,270.15,-0.417,0.2276,0,16.701,1,0.6,4.5,0.75,0.35,0.0168,0.4,0,21.592,0,1.06,0,270.18,-2.744,0,1,-2.18,0,0,-2.87,270.18,0.2598,0.0032,0.9657,-2.74,270.18,-8.41,-9.63,23.067,0.185,0.256,1,3,1304.24,3.291,-2.744,1283.19,0,0,0,0,0,0,0,0,267.71,0,0,0,0,0,0,0,0,0,0,0,0,0,3,3,0,0,VALID,0,0,0,0,0,1,0,0,0,0,0,0,0,0,0,0,0,0,0,0,207.87,1040.81,2,0,0.12,0.12,286,8.33,0.12,0.12,34.22,FLYING,X10-F,0:/Integrated Flight Computer/aircraft/x10_f_cfg.ks (inferred preloaded)
34.48,APPROACH,ILS_TRACK,152.96,152,-0.96,1271.75,1192.22,-6.02,6.3,8.34,270.15,-0.348,0.268,0,16.445,1,0.6,4.5,0.75,0.35,0.0168,0.4,0,21.619,0,0.964,0,270.18,-2.399,0,1,-2.23,0,0,-2.49,270.18,0.254,0.0032,0.9672,-2.4,270.18,-8.26,-8.92,23.024,0.184,0.601,1,3,1304.24,2.594,-2.399,1280.92,0,0,0,0,0,0,0,0,267.71,0,0,0,0,0,0,0,0,0,0,0,0,0,3,3,0,0,VALID,0,0,0,0,0,1,0,0,0,0,0,0,0,0,0,0,0,0,0,0,209.75,1040.5,2,0,0.12,0.12,288,7.69,0.14,0.12,34.48,FLYING,X10-F,0:/Integrated Flight Computer/aircraft/x10_f_cfg.ks (inferred preloaded)
34.84,APPROACH,ILS_TRACK,152.87,152,-0.87,1269.56,1189.93,-6.63,6.5,8.81,270.16,-0.255,0.2836,0,16.119,1,0.6,4.5,0.75,0.35,0.0168,0.4,0,21.645,0,0.874,0,270.17,-2.786,0,1,-2.46,0,0,-2.6,270.18,0.2607,0.003,0.9654,-2.79,270.17,-8.05,-7.98,22.964,0.175,0.214,1,3,1304.24,2.723,-2.786,1277.77,0,0,0,0,0,0,0,0,267.71,0,0,0,0,0,0,0,0,0,0,0,0,0,3,3,0,0,VALID,0,0,0,0,0,1,0,0,0,0,0,0,0,0,0,0,0,0,0,0,214.71,1040.25,2,0,0.12,0.12,291,8.33,0.12,0.12,34.84,FLYING,X10-F,0:/Integrated Flight Computer/aircraft/x10_f_cfg.ks (inferred preloaded)
35.2,APPROACH,ILS_TRACK,152.71,152,-0.71,1267.3,1187.55,-6.43,7.06,9.24,270.16,-0.217,0.3269,0,15.838,1,0.6,4.5,0.75,0.35,0.0168,0.4,0,21.687,0,0.724,0,270.17,-2.657,0,1,-2.42,0,0,-2.91,270.17,0.2586,0.003,0.966,-2.66,270.17,-7.84,-7.05,22.904,0.175,0.343,1,3,1304.24,2.217,-2.657,1274.63,0,0,0,0,0,0,0,0,267.71,0,0,0,0,0,0,0,0,0,0,0,0,0,3,3,0,0,VALID,0,0,0,0,0,1,0,0,0,0,0,0,0,0,0,0,0,0,0,0,220.87,1039.74,2,0,0.12,0.12,294,8.33,0.12,0.12,35.2,FLYING,X10-F,0:/Integrated Flight Computer/aircraft/x10_f_cfg.ks (inferred preloaded)
35.56,APPROACH,ILS_TRACK,152.59,152,-0.59,1264.75,1185.22,-6.72,6.33,8.6,270.16,-0.166,0.3366,0,15.617,1,0.6,4.5,0.75,0.35,0.0168,0.4,0,21.725,0,0.588,0,270.17,-2.316,0,1,-2.5,0,0,-2.28,270.17,0.253,0.0029,0.9675,-2.32,270.17,-7.64,-6.46,22.844,0.169,0.684,1,3,1304.24,1.568,-2.316,1271.49,0,0,0,0,0,0,0,0,267.71,0,0,0,0,0,0,0,0,0,0,0,0,0,3,3,0,0,VALID,0,0,0,0,0,1,0,0,0,0,0,0,0,0,0,0,0,0,0,0,230.12,1039.34,2,0,0.12,0.12,297,8.33,0.12,0.12,35.56,FLYING,X10-F,0:/Integrated Flight Computer/aircraft/x10_f_cfg.ks (inferred preloaded)
35.92,APPROACH,ILS_TRACK,152.56,152,-0.56,1262.25,1182.69,-7.33,6.33,8.88,270.17,-0.117,0.2901,0,15.411,1,0.6,4.5,0.75,0.35,0.0168,0.4,0,21.732,0,0.564,0,270.16,-2.749,0,1,-2.73,0,0,-2.57,270.16,0.2604,0.0028,0.9655,-2.75,270.16,-7.44,-5.83,22.784,0.162,0.251,1,3,1304.24,1.874,-2.749,1268.36,0,0,0,0,0,0,0,0,267.71,0,0,0,0,0,0,0,0,0,0,0,0,0,3,3,0,0,VALID,0,0,0,0,0,1,0,0,0,0,0,0,0,0,0,0,0,0,0,0,237.38,1039.4,2,0,0.12,0.12,300,8.33,0.12,0.12,35.92,FLYING,X10-F,0:/Integrated Flight Computer/aircraft/x10_f_cfg.ks (inferred preloaded)
36.28,APPROACH,ILS_TRACK,152.5,152,-0.5,1259.8,1180.01,-7.23,7.13,9.63,270.17,-0.121,0.2853,0,15.22,1,0.6,4.5,0.75,0.35,0.0168,0.4,0,21.748,0,0.506,0,270.15,-2.866,0,1,-2.74,0,0,-3.04,270.16,0.2624,0.0026,0.965,-2.87,270.15,-7.25,-5.13,22.724,0.151,0.134,1,3,1304.24,1.757,-2.866,1265.22,0,0,0,0,0,0,0,0,267.71,0,0,0,0,0,0,0,0,0,0,0,0,0,3,3,0,0,VALID,0,0,0,0,0,1,0,0,0,0,0,0,0,0,0,0,0,0,0,0,241.52,1039.31,2,0,0.12,0.12,303,8.33,0.12,0.12,36.28,FLYING,X10-F,0:/Integrated Flight Computer/aircraft/x10_f_cfg.ks (inferred preloaded)
36.64,APPROACH,ILS_TRACK,152.41,152,-0.41,1257.08,1177.42,-7.35,6.76,9.26,270.16,-0.115,0.2969,0,15.066,1,0.6,4.5,0.75,0.35,0.0168,0.4,0,21.774,0,0.413,0,270.15,-2.486,0,1,-2.74,0,0,-2.45,270.15,0.2561,0.0026,0.9666,-2.49,270.15,-7.05,-4.7,22.664,0.149,0.514,1,3,1304.24,1.119,-2.486,1262.09,0,0,0,0,0,0,0,0,267.71,0,0,0,0,0,0,0,0,0,0,0,0,0,3,3,0,0,VALID,0,0,0,0,0,1,0,0,0,0,0,0,0,0,0,0,0,0,0,0,246.24,1039.11,2,0,0.12,0.12,306,8.33,0.12,0.12,36.64,FLYING,X10-F,0:/Integrated Flight Computer/aircraft/x10_f_cfg.ks (inferred preloaded)
36.9,APPROACH,ILS_TRACK,152.4,152,-0.4,1255.18,1175.46,-7.68,6.83,9.49,270.16,-0.097,0.2733,0,14.959,1,0.6,4.5,0.75,0.35,0.0168,0.4,0,21.777,0,0.406,0,270.14,-2.811,0,1,-2.87,0,0,-2.62,270.15,0.2617,0.0025,0.9652,-2.81,270.14,-6.92,-4.36,22.621,0.143,0.189,1,3,1304.24,1.399,-2.811,1259.82,0,0,0,0,0,0,0,0,267.71,0,0,0,0,0,0,0,0,0,0,0,0,0,3,3,0,0,VALID,0,0,0,0,0,1,0,0,0,0,0,0,0,0,0,0,0,0,0,0,249.19,1039.2,2,0,0.12,0.12,308,7.69,0.14,0.12,36.9,FLYING,X10-F,0:/Integrated Flight Computer/aircraft/x10_f_cfg.ks (inferred preloaded)
37.26,APPROACH,ILS_TRACK,152.35,152,-0.35,1252.51,1172.72,-7.46,7.18,9.72,270.16,-0.116,0.277,0,14.824,1,0.6,4.5,0.75,0.35,0.0168,0.4,0,21.791,0,0.353,0,270.14,-2.72,0,1,-2.81,0,0,-2.93,270.15,0.2602,0.0023,0.9655,-2.72,270.14,-6.73,-3.87,22.562,0.136,0.28,1,3,1304.24,1.102,-2.72,1256.69,0,0,0,0,0,0,0,0,267.71,0,0,0,0,0,0,0,0,0,0,0,0,0,3,3,0,0,VALID,0,0,0,0,0,1,0,0,0,0,0,0,0,0,0,0,0,0,0,0,251.43,1039.14,2,0,0.12,0.12,311,8.33,0.12,0.12,37.26,FLYING,X10-F,0:/Integrated Flight Computer/aircraft/x10_f_cfg.ks (inferred preloaded)
37.62,APPROACH,ILS_TRACK,152.33,152,-0.33,1249.73,1170,-7.73,6.91,9.57,270.16,-0.103,0.2609,0,14.706,1,0.6,4.5,0.75,0.35,0.0168,0.4,0,21.799,0,0.327,0,270.13,-2.751,0,1,-2.89,0,0,-2.63,270.13,0.2608,0.0022,0.9654,-2.75,270.13,-6.54,-3.53,22.502,0.13,0.249,1,3,1304.24,1.013,-2.751,1253.56,0,0,0,0,0,0,0,0,267.71,0,0,0,0,0,0,0,0,0,0,0,0,0,3,3,0,0,VALID,0,0,0,0,0,1,0,0,0,0,0,0,0,0,0,0,0,0,0,0,253.94,1039.22,2,0,0.12,0.12,314,8.33,0.12,0.12,37.62,FLYING,X10-F,0:/Integrated Flight Computer/aircraft/x10_f_cfg.ks (inferred preloaded)
37.98,APPROACH,ILS_TRACK,152.3,152,-0.3,1247.02,1167.19,-7.62,7.28,9.9,270.16,-0.121,0.2568,0,14.592,1,0.6,4.5,0.75,0.35,0.0168,0.4,0,21.806,0,0.301,0,270.13,-2.952,0,1,-2.89,0,0,-3.07,270.13,0.2643,0.0022,0.9644,-2.95,270.13,-6.35,-3.1,22.442,0.126,0.048,1,3,1304.24,1.103,-2.952,1250.43,0,0,0,0,0,0,0,0,267.71,0,0,0,0,0,0,0,0,0,0,0,0,0,3,3,0,0,VALID,0,0,0,0,0,1,0,0,0,0,0,0,0,0,0,0,0,0,0,0,254.86,1039.27,2,0,0.12,0.12,317,8.33,0.12,0.12,37.98,FLYING,X10-F,0:/Integrated Flight Computer/aircraft/x10_f_cfg.ks (inferred preloaded)
38.34,APPROACH,ILS_TRACK,152.26,152,-0.26,1244.12,1164.46,-7.73,6.74,9.37,270.15,-0.136,0.2612,0,14.5,1,0.6,4.5,0.75,0.35,0.0168,0.4,0,21.819,0,0.253,0,270.12,-2.629,0,1,-2.89,0,0,-2.59,270.12,0.259,0.0021,0.9659,-2.63,270.12,-6.17,-2.87,22.382,0.122,0.371,1,3,1304.24,0.611,-2.629,1247.3,0,0,0,0,0,0,0,0,267.71,0,0,0,0,0,0,0,0,0,0,0,0,0,3,3,0,0,VALID,0,0,0,0,0,1,0,0,0,0,0,0,0,0,0,0,0,0,0,0,256.39,1039.27,2,0,0.12,0.12,320,8.33,0.12,0.12,38.34,FLYING,X10-F,0:/Integrated Flight Computer/aircraft/x10_f_cfg.ks (inferred preloaded)
38.7,APPROACH,ILS_TRACK,152.27,152,-0.27,1241.33,1161.59,-8.11,6.9,9.73,270.15,-0.118,0.232,0,14.403,1,0.6,4.5,0.75,0.35,0.0168,0.4,0,21.814,0,0.274,0,270.11,-3.103,0,1,-3.05,0,0,-2.91,270.11,0.267,0.002,0.9637,-3.1,270.11,-5.99,-2.54,22.323,0.115,-0.103,1,3,1304.24,1.082,-3.103,1244.18,0,0,0,0,0,0,0,0,267.71,0,0,0,0,0,0,0,0,0,0,0,0,0,3,3,0,0,VALID,0,0,0,0,0,1,0,0,0,0,0,0,0,0,0,0,0,0,0,0,256.55,1039.53,2,0,0.12,0.12,323,8.33,0.12,0.12,38.7,FLYING,X10-F,0:/Integrated Flight Computer/aircraft/x10_f_cfg.ks (inferred preloaded)
