t_s,phase,subphase,ias_ms,vapp_ms,spd_err_ms,agl_m,vs_ms,pitch_deg,aoa_deg,hdg_deg,bank_deg,thr_cmd,thr_intg,aa_hdg_cmd_deg,aa_fpa_cmd_deg,ils_loc_m,ils_gs_m,ils_dist_km,loc_corr_deg,gs_corr_deg,flare_fpa_cmd,flare_tgt_vs,flare_frac,steer_hdg_deg,steer_blend,ro_loc_corr_deg,ro_hdg_err_deg,ro_yaw_tgt,ro_yaw_scale,ro_yaw_gate,yaw_cmd,roll_cmd,pitch_cmd,ro_pitch_tgt_deg,ro_pitch_err_deg,ro_pitch_ff,ro_roll_assist,flaps_cur,flaps_tgt,phase_el_s,status
1,APPROACH,FLY_TO_FIX,140.5,75.4,-65.1,1999.35,0.01,0.92,0.91,269.97,-0.041,0,-20,280.66,-2.497,0,0,0,0,0,0,0,0,269.97,0,0,0,0,0,0,0,0,0,0,0,0,0,0,0,1.04,FLYING
1.74,APPROACH,FLY_TO_FIX,140.29,75.8,-64.49,1999.37,0.04,0.9,0.91,270.35,-6.687,0,-20,280.72,-2.497,0,0,0,0,0,0,0,0,269.97,0,0,0,0,0,0,0,0,0,0,0,0,0,0,0,1.78,FLYING
2.44,APPROACH,FLY_TO_FIX,139.87,76.2,-63.67,1999.27,-0.3,0.68,1.01,271.33,-20.3,0,-20,280.78,-2.496,0,0,0,0,0,0,0,0,269.97,0,0,0,0,0,0,0,0,0,0,0,0,0,0,0,2.48,FLYING
3.14,APPROACH,FLY_TO_FIX,139.45,76.6,-62.85,1998.88,-0.86,0.41,1.1,272.62,-31.667,0,-20,280.83,-2.495,0,0,0,0,0,0,0,0,269.97,0,0,0,0,0,0,0,0,0,0,0,0,0,0,0,3.18,FLYING
3.84,APPROACH,FLY_TO_FIX,139.09,77,-62.09,1997.91,-1.78,0.22,1.05,273.61,-30.98,0,-20,280.88,-2.49,0,0,0,0,0,0,0,0,269.97,0,0,0,0,0,0,0,0,0,0,0,0,0,0,0,3.88,FLYING
4.54,APPROACH,FLY_TO_FIX,138.69,77.4,-61.29,1996.31,-2.61,0,1.02,274.6,-26.918,0,-20,280.92,-2.483,0,0,0,0,0,0,0,0,269.97,0,0,0,0,0,0,0,0,0,0,0,0,0,0,0,4.58,FLYING
5.24,APPROACH,FLY_TO_FIX,138.28,77.8,-60.48,1994.17,-3.3,-0.23,1.01,275.56,-23.114,0,-20,280.96,-2.473,0,0,0,0,0,0,0,0,269.97,0,0,0,0,0,0,0,0,0,0,0,0,0,0,0,5.28,FLYING
5.94,APPROACH,FLY_TO_FIX,137.86,78.2,-59.66,1991.61,-3.87,-0.41,1.02,276.4,-19.586,0,-20,280.99,-2.46,0,0,0,0,0,0,0,0,269.97,0,0,0,0,0,0,0,0,0,0,0,0,0,0,0,5.98,FLYING
6.66,APPROACH,FLY_TO_FIX,137.42,78.6,-58.82,1988.61,-4.34,-0.56,1.04,277.17,-16.635,0,-20,281.01,-2.445,0,0,0,0,0,0,0,0,269.97,0,0,0,0,0,0,0,0,0,0,0,0,0,0,0,6.7,FLYING
7.38,APPROACH,FLY_TO_FIX,136.99,79,-57.99,1985.32,-4.72,-0.68,1.07,277.85,-14.574,0,-20,281.03,-2.429,0,0,0,0,0,0,0,0,269.97,0,0,0,0,0,0,0,0,0,0,0,0,0,0,0,7.42,FLYING
8.1,APPROACH,FLY_TO_FIX,136.55,79.4,-57.15,1981.79,-5.02,-0.76,1.1,278.42,-12.402,0,-20,281.05,-2.411,0,0,0,0,0,0,0,0,269.97,0,0,0,0,0,0,0,0,0,0,0,0,0,0,0,8.14,FLYING
8.82,APPROACH,FLY_TO_FIX,136.09,79.8,-56.29,1978.07,-5.26,-0.81,1.14,278.91,-10.366,0,-20,281.07,-2.393,0,0,0,0,0,0,0,0,269.97,0,0,0,0,0,0,0,0,0,0,0,0,0,0,0,8.86,FLYING
9.54,APPROACH,FLY_TO_FIX,135.63,80.2,-55.43,1974.21,-5.43,-0.84,1.18,279.31,-8.566,0,-20,281.08,-2.374,0,0,0,0,0,0,0,0,269.97,0,0,0,0,0,0,0,0,0,0,0,0,0,0,0,9.58,FLYING
10.24,APPROACH,FLY_TO_FIX,135.17,80.6,-54.57,1970.36,-5.56,-0.85,1.22,279.64,-7.063,0,-20,281.09,-2.355,0,0,0,0,0,0,0,0,269.97,0,0,0,0,0,0,0,0,0,0,0,0,0,0,0,10.28,FLYING
10.96,APPROACH,FLY_TO_FIX,134.68,81,-53.68,1966.32,-5.64,-0.85,1.26,279.92,-5.761,0,-20,281.1,-2.334,0,0,0,0,0,0,0,0,269.97,0,0,0,0,0,0,0,0,0,0,0,0,0,0,0,11,FLYING
11.68,APPROACH,FLY_TO_FIX,134.2,81,-53.2,1962.24,-5.7,-0.84,1.3,280.15,-4.684,0,-20,281.11,-2.314,0,0,0,0,0,0,0,0,269.97,0,0,0,0,0,0,0,0,0,0,0,0,0,0,0,11.72,FLYING
12.4,APPROACH,FLY_TO_FIX,133.7,81,-52.7,1958.12,-5.73,-0.82,1.34,280.33,-3.799,0,-20,281.11,-2.293,0,0,0,0,0,0,0,0,269.97,0,0,0,0,0,0,0,0,0,0,0,0,0,0,0,12.44,FLYING
13.12,APPROACH,FLY_TO_FIX,133.2,81,-52.2,1953.99,-5.75,-0.79,1.38,280.48,-3.076,0,-20,281.12,-2.273,0,0,0,0,0,0,0,0,269.97,0,0,0,0,0,0,0,0,0,0,0,0,0,0,0,13.16,FLYING
13.84,APPROACH,FLY_TO_FIX,132.69,81,-51.69,1949.86,-5.75,-0.76,1.42,280.61,-2.488,0,-20,281.12,-2.252,0,0,0,0,0,0,0,0,269.97,0,0,0,0,0,0,0,0,0,0,0,0,0,0,0,13.88,FLYING
14.56,APPROACH,FLY_TO_FIX,132.18,81,-51.18,1945.73,-5.73,-0.72,1.46,280.7,-1.924,0,-20,281.13,-2.232,0,0,0,0,0,0,0,0,269.97,0,0,0,0,0,0,0,0,0,0,0,0,0,0,0,14.6,FLYING
15.28,APPROACH,FLY_TO_FIX,131.67,81,-50.67,1941.62,-5.7,-0.68,1.5,280.77,-1.422,0,-20,281.13,-2.211,0,0,0,0,0,0,0,0,269.97,0,0,0,0,0,0,0,0,0,0,0,0,0,0,0,15.32,FLYING
16,APPROACH,FLY_TO_FIX,131.14,81,-50.14,1937.54,-5.67,-0.63,1.54,280.83,-1.04,0,-20,281.13,-2.191,0,0,0,0,0,0,0,0,269.97,0,0,0,0,0,0,0,0,0,0,0,0,0,0,0,16.04,FLYING
16.74,APPROACH,FLY_TO_FIX,130.61,81,-49.61,1933.36,-5.63,-0.59,1.58,280.87,-0.761,0,-20,281.13,-2.169,0,0,0,0,0,0,0,0,269.97,0,0,0,0,0,0,0,0,0,0,0,0,0,0,0,16.78,FLYING
17.52,APPROACH,FLY_TO_FIX,130.04,81,-49.04,1929,-5.59,-0.54,1.63,280.9,-0.561,0,-20,281.13,-2.148,0,0,0,0,0,0,0,0,269.97,0,0,0,0,0,0,0,0,0,0,0,0,0,0,0,17.56,FLYING
18.24,APPROACH,FLY_TO_FIX,129.51,81,-48.51,1925,-5.54,-0.49,1.67,280.93,-0.437,0,-20,281.14,-2.128,0,0,0,0,0,0,0,0,269.97,0,0,0,0,0,0,0,0,0,0,0,0,0,0,0,18.28,FLYING
18.96,APPROACH,FLY_TO_FIX,128.97,81,-47.97,1921.03,-5.5,-0.44,1.71,280.95,-0.351,0,-20,281.14,-2.108,0,0,0,0,0,0,0,0,269.97,0,0,0,0,0,0,0,0,0,0,0,0,0,0,0,19,FLYING
19.68,APPROACH,FLY_TO_FIX,128.44,81,-47.44,1917.1,-5.45,-0.39,1.75,280.96,-0.292,0,-20,281.14,-2.088,0,0,0,0,0,0,0,0,269.97,0,0,0,0,0,0,0,0,0,0,0,0,0,0,0,19.72,FLYING
20.42,APPROACH,FLY_TO_FIX,127.89,81,-46.89,1913.09,-5.4,-0.34,1.79,280.98,-0.247,0,-20,281.14,-2.068,0,0,0,0,0,0,0,0,269.97,0,0,0,0,0,0,0,0,0,0,0,0,0,0,0,20.46,FLYING
21.16,APPROACH,FLY_TO_FIX,127.33,81,-46.33,1909.12,-5.35,-0.28,1.83,280.99,-0.215,0,-20,281.14,-2.048,0,0,0,0,0,0,0,0,269.97,0,0,0,0,0,0,0,0,0,0,0,0,0,0,0,21.2,FLYING
21.92,APPROACH,FLY_TO_FIX,126.76,81,-45.76,1905.08,-5.3,-0.23,1.88,281,-0.191,0,-20,281.14,-2.028,0,0,0,0,0,0,0,0,269.97,0,0,0,0,0,0,0,0,0,0,0,0,0,0,0,21.96,FLYING
22.68,APPROACH,FLY_TO_FIX,126.19,81,-45.19,1901.08,-5.25,-0.17,1.93,281.01,-0.173,0,-20,281.14,-2.007,0,0,0,0,0,0,0,0,269.97,0,0,0,0,0,0,0,0,0,0,0,0,0,0,0,22.72,FLYING
23.46,APPROACH,FLY_TO_FIX,125.6,81,-44.6,1897.01,-5.2,-0.11,1.97,281.02,-0.157,0,-20,281.15,-1.988,0,0,0,0,0,0,0,0,269.97,0,0,0,0,0,0,0,0,0,0,0,0,0,0,0,23.5,FLYING
24.22,APPROACH,FLY_TO_FIX,125.03,81,-44.03,1893.09,-5.15,-0.05,2.02,281.03,-0.146,0,-20,281.15,-1.967,0,0,0,0,0,0,0,0,269.97,0,0,0,0,0,0,0,0,0,0,0,0,0,0,0,24.26,FLYING
24.96,APPROACH,FLY_TO_FIX,124.47,81,-43.47,1889.31,-5.09,0,2.07,281.04,-0.136,0,-20,281.15,-1.949,0,0,0,0,0,0,0,0,269.97,0,0,0,0,0,0,0,0,0,0,0,0,0,0,0,25,FLYING
25.68,APPROACH,FLY_TO_FIX,123.92,81,-42.92,1885.67,-5.04,0.06,2.11,281.05,-0.128,0,-20,281.15,-1.93,0,0,0,0,0,0,0,0,269.97,0,0,0,0,0,0,0,0,0,0,0,0,0,0,0,25.72,FLYING
26.46,APPROACH,FLY_TO_FIX,123.32,81,-42.32,1881.77,-4.99,0.13,2.16,281.06,-0.116,0,-20,281.15,-1.911,0,0,0,0,0,0,0,0,269.97,0,0,0,0,0,0,0,0,0,0,0,0,0,0,0,26.5,FLYING
27.2,APPROACH,FLY_TO_FIX,122.76,81,-41.76,1878.11,-4.94,0.19,2.21,281.07,-0.106,0,-20,281.15,-1.893,0,0,0,0,0,0,0,0,269.97,0,0,0,0,0,0,0,0,0,0,0,0,0,0,0,27.24,FLYING
27.92,APPROACH,FLY_TO_FIX,122.2,81,-41.2,1874.58,-4.88,0.25,2.26,281.07,-0.101,0,-20,281.15,-1.875,0,0,0,0,0,0,0,0,269.97,0,0,0,0,0,0,0,0,0,0,0,0,0,0,0,27.96,FLYING
28.64,APPROACH,FLY_TO_FIX,121.65,81,-40.65,1871.09,-4.83,0.31,2.31,281.08,-0.098,0,-20,281.15,-1.857,0,0,0,0,0,0,0,0,269.97,0,0,0,0,0,0,0,0,0,0,0,0,0,0,0,28.68,FLYING
29.38,APPROACH,FLY_TO_FIX,121.08,81,-40.08,1867.55,-4.78,0.37,2.36,281.09,-0.087,0,-20,281.15,-1.84,0,0,0,0,0,0,0,0,269.97,0,0,0,0,0,0,0,0,0,0,0,0,0,0,0,29.42,FLYING
30.12,APPROACH,FLY_TO_FIX,120.51,81,-39.51,1864.04,-4.73,0.44,2.41,281.09,-0.082,0,-20,281.15,-1.822,0,0,0,0,0,0,0,0,269.97,0,0,0,0,0,0,0,0,0,0,0,0,0,0,0,30.16,FLYING
30.86,APPROACH,FLY_TO_FIX,119.93,81,-38.93,1860.58,-4.67,0.5,2.47,281.1,-0.077,0,-20,281.15,-1.805,0,0,0,0,0,0,0,0,269.97,0,0,0,0,0,0,0,0,0,0,0,0,0,0,0,30.9,FLYING
31.64,APPROACH,FLY_TO_FIX,119.32,81,-38.32,1856.97,-4.61,0.58,2.52,281.11,-0.073,0,-20,281.16,-1.787,0,0,0,0,0,0,0,0,269.97,0,0,0,0,0,0,0,0,0,0,0,0,0,0,0,31.68,FLYING
32.38,APPROACH,FLY_TO_FIX,118.74,81,-37.74,1853.59,-4.56,0.64,2.58,281.11,-0.067,0,-20,281.16,-1.77,0,0,0,0,0,0,0,0,269.97,0,0,0,0,0,0,0,0,0,0,0,0,0,0,0,32.42,FLYING
33.12,APPROACH,FLY_TO_FIX,118.16,81,-37.16,1850.24,-4.51,0.71,2.64,281.12,-0.062,0,-20,281.16,-1.753,0,0,0,0,0,0,0,0,269.97,0,0,0,0,0,0,0,0,0,0,0,0,0,0,0,33.16,FLYING
33.86,APPROACH,FLY_TO_FIX,117.58,81,-36.58,1846.94,-4.45,0.78,2.69,281.12,-0.057,0,-20,281.16,-1.736,0,0,0,0,0,0,0,0,269.97,0,0,0,0,0,0,0,0,0,0,0,0,0,0,0,33.9,FLYING
34.6,APPROACH,FLY_TO_FIX,116.99,81,-35.99,1843.68,-4.4,0.85,2.75,281.13,-0.052,0,-20,281.16,-1.72,0,0,0,0,0,0,0,0,269.97,0,0,0,0,0,0,0,0,0,0,0,0,0,0,0,34.64,FLYING
35.34,APPROACH,FLY_TO_FIX,116.41,81,-35.41,1840.46,-4.34,0.93,2.81,281.13,-0.048,0,-20,281.16,-1.704,0,0,0,0,0,0,0,0,269.97,0,0,0,0,0,0,0,0,0,0,0,0,0,0,0,35.38,FLYING
36.08,APPROACH,FLY_TO_FIX,115.82,81,-34.82,1837.27,-4.29,1,2.87,281.14,-0.044,0,-20,281.16,-1.688,0,0,0,0,0,0,0,0,269.97,0,0,0,0,0,0,0,0,0,0,0,0,0,0,0,36.12,FLYING
36.82,APPROACH,FLY_TO_FIX,115.23,81,-34.23,1834.13,-4.24,1.07,2.93,281.14,-0.039,0,-20,281.16,-1.672,0,0,0,0,0,0,0,0,269.97,0,0,0,0,0,0,0,0,0,0,0,0,0,0,0,36.86,FLYING
37.56,APPROACH,FLY_TO_FIX,114.63,81,-33.63,1831.03,-4.18,1.15,2.99,281.15,-0.035,0,-20,281.16,-1.657,0,0,0,0,0,0,0,0,269.97,0,0,0,0,0,0,0,0,0,0,0,0,0,0,0,37.6,FLYING
38.32,APPROACH,FLY_TO_FIX,114.03,81,-33.03,1827.88,-4.13,1.23,3.05,281.15,-0.031,0,-20,281.16,-1.641,0,0,0,0,0,0,0,0,269.97,0,0,0,0,0,0,0,0,0,0,0,0,0,1,1,38.34,FLYING
39.1,APPROACH,FLY_TO_FIX,113.38,81,-32.38,1824.7,-4.03,1.21,3.01,281.15,-0.027,0,-20,281.16,-1.625,0,0,0,0,0,0,0,0,269.97,0,0,0,0,0,0,0,0,0,0,0,0,0,1,1,39.14,FLYING
39.84,APPROACH,FLY_TO_FIX,112.75,81,-31.75,1821.75,-3.94,1.19,2.95,281.16,-0.023,0,-20,281.16,-1.61,0,0,0,0,0,0,0,0,269.97,0,0,0,0,0,0,0,0,0,0,0,0,0,1,1,39.88,FLYING
40.56,APPROACH,FLY_TO_FIX,112.12,81,-31.12,1818.94,-3.86,1.17,2.91,281.16,-0.018,0,-20,281.16,-1.596,0,0,0,0,0,0,0,0,269.97,0,0,0,0,0,0,0,0,0,0,0,0,0,1,1,40.6,FLYING
41.3,APPROACH,FLY_TO_FIX,111.44,81,-30.44,1816.11,-3.78,1.16,2.87,281.16,-0.016,0,-20,281.16,-1.582,0,0,0,0,0,0,0,0,269.97,0,0,0,0,0,0,0,0,0,0,0,0,0,1,1,41.34,FLYING
42.02,APPROACH,FLY_TO_FIX,110.75,81,-29.75,1813.42,-3.73,1.17,2.86,281.17,-0.013,0,-20,281.16,-1.569,0,0,0,0,0,0,0,0,269.97,0,0,0,0,0,0,0,0,0,0,0,0,0,1,1,42.06,FLYING
42.74,APPROACH,FLY_TO_FIX,110.06,81,-29.06,1810.76,-3.7,1.25,2.94,281.17,-0.009,0,-20,281.16,-1.555,0,0,0,0,0,0,0,0,269.97,0,0,0,0,0,0,0,0,0,0,0,0,0,1,1,42.78,FLYING
43.46,APPROACH,FLY_TO_FIX,109.37,81,-28.37,1808.12,-3.67,1.34,3.03,281.17,-0.005,0,-20,281.16,-1.542,0,0,0,0,0,0,0,0,269.97,0,0,0,0,0,0,0,0,0,0,0,0,0,1,1,43.5,FLYING
44.22,APPROACH,FLY_TO_FIX,108.65,81,-27.65,1805.35,-3.65,1.44,3.13,281.17,-0.002,0,-20,281.16,-1.528,0,0,0,0,0,0,0,0,269.97,0,0,0,0,0,0,0,0,0,0,0,0,0,1,1,44.26,FLYING
44.96,APPROACH,FLY_TO_FIX,107.94,81,-26.94,1802.69,-3.6,1.54,3.22,281.18,0,0,-20,281.16,-1.515,0,0,0,0,0,0,0,0,269.97,0,0,0,0,0,0,0,0,0,0,0,0,0,1,1,45,FLYING
45.7,APPROACH,FLY_TO_FIX,107.22,81,-26.22,1800.06,-3.56,1.64,3.3,281.18,0.003,0,-20,281.16,-1.502,0,0,0,0,0,0,0,0,269.97,0,0,0,0,0,0,0,0,0,0,0,0,0,1,1,45.74,FLYING
46.44,APPROACH,FLY_TO_FIX,106.51,81,-25.51,1797.46,-3.52,1.74,3.4,281.18,0.006,0,-20,281.16,-1.489,0,0,0,0,0,0,0,0,269.97,0,0,0,0,0,0,0,0,0,0,0,0,0,1,1,46.48,FLYING
47.18,APPROACH,FLY_TO_FIX,105.79,81,-24.79,1794.89,-3.48,1.84,3.5,281.18,0.007,0,-20,281.16,-1.476,0,0,0,0,0,0,0,0,269.97,0,0,0,0,0,0,0,0,0,0,0,0,0,1,1,47.22,FLYING
47.92,APPROACH,FLY_TO_FIX,105.08,81,-24.08,1792.35,-3.43,1.95,3.59,281.18,0.01,0,-20,281.16,-1.463,0,0,0,0,0,0,0,0,269.97,0,0,0,0,0,0,0,0,0,0,0,0,0,1,1,47.96,FLYING
48.66,APPROACH,FLY_TO_FIX,104.35,81,-23.35,1789.84,-3.39,2.06,3.69,281.18,0.012,0,-20,281.16,-1.451,0,0,0,0,0,0,0,0,269.97,0,0,0,0,0,0,0,0,0,0,0,0,0,1,1,48.7,FLYING
49.4,APPROACH,FLY_TO_FIX,103.63,81,-22.63,1787.36,-3.35,2.17,3.8,281.18,0.015,0,-20,281.16,-1.438,0,0,0,0,0,0,0,0,269.97,0,0,0,0,0,0,0,0,0,0,0,0,0,1,1,49.44,FLYING
50.14,APPROACH,FLY_TO_FIX,102.9,81,-21.9,1784.92,-3.3,2.28,3.9,281.18,0.017,0,-20,281.16,-1.426,0,0,0,0,0,0,0,0,269.97,0,0,0,0,0,0,0,0,0,0,0,0,0,1,1,50.18,FLYING
50.88,APPROACH,FLY_TO_FIX,102.17,81,-21.17,1782.51,-3.26,2.4,4.01,281.18,0.019,0,-20,281.16,-1.414,0,0,0,0,0,0,0,0,269.97,0,0,0,0,0,0,0,0,0,0,0,0,0,1,1,50.92,FLYING
51.62,APPROACH,FLY_TO_FIX,101.44,81,-20.44,1780.14,-3.22,2.52,4.12,281.18,0.021,0,-20,281.16,-1.402,0,0,0,0,0,0,0,0,269.97,0,0,0,0,0,0,0,0,0,0,0,0,0,1,1,51.66,FLYING
52.36,APPROACH,FLY_TO_FIX,100.7,81,-19.7,1777.79,-3.18,2.65,4.23,281.18,0.021,0,-20,281.16,-1.39,0,0,0,0,0,0,0,0,269.97,0,0,0,0,0,0,0,0,0,0,0,0,0,1,1,52.4,FLYING
53.1,APPROACH,FLY_TO_FIX,99.96,81,-18.96,1775.48,-3.13,2.77,4.35,281.18,0.022,0,-20,281.16,-1.379,0,0,0,0,0,0,0,0,269.97,0,0,0,0,0,0,0,0,0,0,0,0,0,1,1,53.14,FLYING
53.84,APPROACH,FLY_TO_FIX,99.22,81,-18.22,1773.2,-3.09,2.9,4.47,281.18,0.023,0,-20,281.16,-1.367,0,0,0,0,0,0,0,0,269.97,0,0,0,0,0,0,0,0,0,0,0,0,0,1,1,53.88,FLYING
54.58,APPROACH,FLY_TO_FIX,98.47,81,-17.47,1770.95,-3.05,3.04,4.59,281.18,0.024,0,-20,281.16,-1.356,0,0,0,0,0,0,0,0,269.97,0,0,0,0,0,0,0,0,0,0,0,0,0,1,1,54.62,FLYING
55.32,APPROACH,FLY_TO_FIX,97.71,81,-16.71,1768.73,-3.01,3.17,4.72,281.18,0.025,0,-20,281.16,-1.345,0,0,0,0,0,0,0,0,269.97,0,0,0,0,0,0,0,0,0,0,0,0,0,1,1,55.36,FLYING
56.06,APPROACH,FLY_TO_FIX,96.96,81,-15.96,1766.55,-2.96,3.32,4.85,281.18,0.027,0,-20,281.16,-1.334,0,0,0,0,0,0,0,0,269.97,0,0,0,0,0,0,0,0,0,0,0,0,0,1,1,56.1,FLYING
56.8,APPROACH,FLY_TO_FIX,96.19,81,-15.19,1764.4,-2.92,3.46,4.99,281.18,0.028,0,-20,281.16,-1.323,0,0,0,0,0,0,0,0,269.97,0,0,0,0,0,0,0,0,0,0,0,0,0,1,1,56.84,FLYING
57.54,APPROACH,FLY_TO_FIX,95.42,81,-14.42,1762.27,-2.88,3.61,5.13,281.17,0.029,0,-20,281.16,-1.313,0,0,0,0,0,0,0,0,269.97,0,0,0,0,0,0,0,0,0,0,0,0,0,1,1,57.58,FLYING
58.28,APPROACH,FLY_TO_FIX,94.64,81,-13.64,1760.18,-2.84,3.77,5.28,281.17,0.028,0,-20,281.16,-1.302,0,0,0,0,0,0,0,0,269.97,0,0,0,0,0,0,0,0,0,0,0,0,0,1,1,58.32,FLYING
59.02,APPROACH,FLY_TO_FIX,93.86,81,-12.86,1758.12,-2.8,3.93,5.43,281.17,0.027,0,-20,281.16,-1.292,0,0,0,0,0,0,0,0,269.97,0,0,0,0,0,0,0,0,0,0,0,0,0,1,1,59.06,FLYING
59.76,APPROACH,FLY_TO_FIX,93.07,81,-12.07,1756.09,-2.77,4.09,5.58,281.17,0.028,0,-20,281.16,-1.282,0,0,0,0,0,0,0,0,269.97,0,0,0,0,0,0,0,0,0,0,0,0,0,1,1,59.8,FLYING
60.5,APPROACH,FLY_TO_FIX,92.27,81,-11.27,1754.08,-2.73,4.26,5.74,281.17,0.027,0,-20,281.17,-1.271,0,0,0,0,0,0,0,0,269.97,0,0,0,0,0,0,0,0,0,0,0,0,0,1,1,60.54,FLYING
61.24,APPROACH,FLY_TO_FIX,91.47,81,-10.47,1752.11,-2.69,4.43,5.91,281.16,0.025,0,-20,281.17,-1.262,0,0,0,0,0,0,0,0,269.97,0,0,0,0,0,0,0,0,0,0,0,0,0,1,1,61.28,FLYING
61.98,APPROACH,FLY_TO_FIX,90.66,81,-9.66,1750.16,-2.65,4.62,6.09,281.16,0.024,0,-20,281.17,-1.252,0,0,0,0,0,0,0,0,269.97,0,0,0,0,0,0,0,0,0,0,0,0,0,1,1,62.02,FLYING
62.72,APPROACH,FLY_TO_FIX,89.83,81,-8.83,1748.24,-2.62,4.8,6.27,281.16,0.023,0,-20,281.17,-1.242,0,0,0,0,0,0,0,0,269.97,0,0,0,0,0,0,0,0,0,0,0,0,0,1,1,62.76,FLYING
63.46,APPROACH,FLY_TO_FIX,89,81,-8,1746.35,-2.58,5,6.46,281.16,0.021,0,-20,281.17,-1.233,0,0,0,0,0,0,0,0,269.97,0,0,0,0,0,0,0,0,0,0,0,0,0,1,1,63.5,FLYING
64.2,APPROACH,FLY_TO_FIX,88.16,81,-7.16,1744.49,-2.55,5.2,6.65,281.15,0.021,0,-20,281.17,-1.223,0,0,0,0,0,0,0,0,269.97,0,0,0,0,0,0,0,0,0,0,0,0,0,1,1,64.24,FLYING
64.94,APPROACH,FLY_TO_FIX,87.31,81,-6.31,1742.65,-2.51,5.41,6.86,281.15,0.019,0,-20,281.17,-1.214,0,0,0,0,0,0,0,0,269.97,0,0,0,0,0,0,0,0,0,0,0,0,0,1,1,64.98,FLYING
65.68,APPROACH,FLY_TO_FIX,86.45,81,-5.45,1740.84,-2.48,5.63,7.07,281.15,0.019,0,-20,281.17,-1.205,0,0,0,0,0,0,0,0,269.97,0,0,0,0,0,0,0,0,0,0,0,0,0,1,1,65.72,FLYING
66.42,APPROACH,FLY_TO_FIX,85.58,81,-4.58,1739.05,-2.45,5.86,7.3,281.15,0.016,0,-20,281.17,-1.196,0,0,0,0,0,0,0,0,269.97,0,0,0,0,0,0,0,0,0,0,0,0,0,1,1,66.46,FLYING
67.16,APPROACH,FLY_TO_FIX,84.7,81,-3.7,1737.29,-2.42,6.1,7.53,281.15,0.014,0,-20,281.17,-1.187,0,0,0,0,0,0,0,0,269.97,0,0,0,0,0,0,0,0,0,0,0,0,0,1,1,67.2,FLYING
67.9,APPROACH,FLY_TO_FIX,83.8,81,-2.8,1735.56,-2.39,6.36,7.78,281.14,0.012,0.0459,-20,281.17,-1.179,0,0,0,0,0,0,0,0,269.97,0,0,0,0,0,0,0,0,0,0,0,0,0,1,1,67.94,FLYING
68.64,APPROACH,FLY_TO_FIX,82.9,81,-1.9,1733.85,-2.36,6.62,8.04,281.14,0.012,0.0963,-20,281.17,-1.17,0,0,0,0,0,0,0,0,269.97,0,0,0,0,0,0,0,0,0,0,0,0,0,1,1,68.68,FLYING
69.38,APPROACH,FLY_TO_FIX,81.99,81,-0.99,1732.16,-2.32,6.88,8.31,281.14,0.011,0.1462,-20,281.17,-1.162,0,0,0,0,0,0,0,0,269.97,0,0,0,0,0,0,0,0,0,0,0,0,0,1,1,69.42,FLYING
70.12,APPROACH,FLY_TO_FIX,81.08,81,-0.08,1730.5,-2.3,7.16,8.58,281.14,0.009,0.1945,-20,281.17,-1.153,0,0,0,0,0,0,0,0,269.97,0,0,0,0,0,0,0,0,0,0,0,0,0,1,1,70.16,FLYING
70.86,APPROACH,FLY_TO_FIX,80.19,81,0.81,1728.86,-2.27,7.43,8.85,281.14,0.008,0.2452,-19.608,281.17,-1.145,0,0,0,0,0,0,0,0,269.97,0,0,0,0,0,0,0,0,0,0,0,0,0,1,1,70.9,FLYING
71.6,APPROACH,FLY_TO_FIX,79.32,81,1.68,1727.24,-2.24,7.71,9.12,281.13,0.007,0.298,-18.778,281.17,-1.137,0,0,0,0,0,0,0,0,269.97,0,0,0,0,0,0,0,0,0,0,0,0,0,1,1,71.64,FLYING
72.34,APPROACH,FLY_TO_FIX,78.47,81,2.53,1725.64,-2.21,7.99,9.4,281.13,0.007,0.3521,-17.525,281.17,-1.129,0,0,0,0,0,0,0,0,269.97,0,0,0,0,0,0,0,0,0,0,0,0,0,1,1,72.38,FLYING
73.08,APPROACH,FLY_TO_FIX,77.66,81,3.34,1724.06,-2.18,8.25,9.66,281.13,0.005,0.4068,-15.864,281.17,-1.121,0,0,0,0,0,0,0,0,269.97,0,0,0,0,0,0,0,0,0,0,0,0,0,1,1,73.12,FLYING
73.82,APPROACH,FLY_TO_FIX,76.88,81,4.12,1722.5,-2.15,8.51,9.91,281.13,0.003,0.4612,-13.816,281.17,-1.113,0,0,0,0,0,0,0,0,269.97,0,0,0,0,0,0,0,0,0,0,0,0,0,1,1,73.86,FLYING
74.56,APPROACH,FLY_TO_FIX,76.16,81,4.84,1720.97,-2.12,8.77,10.16,281.13,0.003,0.5144,-11.407,281.17,-1.106,0,0,0,0,0,0,0,0,269.97,0,0,0,0,0,0,0,0,0,0,0,0,0,1,1,74.6,FLYING
75.3,APPROACH,FLY_TO_FIX,75.49,81,5.51,1719.45,-2.09,8.99,10.37,281.13,0,0.5656,-8.662,281.17,-1.098,0,0,0,0,0,0,0,0,269.97,0,0,0,0,0,0,0,0,0,0,0,0,0,1,1,75.34,FLYING
76.04,APPROACH,FLY_TO_FIX,74.89,81,6.11,1717.95,-2.06,9.2,10.57,281.13,0.001,0.6141,-5.615,281.17,-1.091,0,0,0,0,0,0,0,0,269.97,0,0,0,0,0,0,0,0,0,0,0,0,0,1,1,76.08,FLYING
76.78,APPROACH,FLY_TO_FIX,74.36,81,6.64,1716.47,-2.03,9.38,10.75,281.13,0,0.6589,-2.299,281.17,-1.083,0,0,0,0,0,0,0,0,269.97,0,0,0,0,0,0,0,0,0,0,0,0,0,1,1,76.82,FLYING
77.52,APPROACH,FLY_TO_FIX,73.9,81,7.1,1715.01,-2,9.52,10.88,281.13,-0.001,0.6995,1.246,281.17,-1.076,0,0,0,0,0,0,0,0,269.97,0,0,0,0,0,0,0,0,0,0,0,0,0,1,1,77.56,FLYING
78.26,APPROACH,FLY_TO_FIX,73.52,81,7.48,1713.56,-1.97,9.64,10.98,281.12,0.001,0.7351,4.981,281.17,-1.069,0,0,0,0,0,0,0,0,269.97,0,0,0,0,0,0,0,0,0,0,0,0,0,1,1,78.3,FLYING
79,APPROACH,FLY_TO_FIX,73.23,81,7.77,1712.13,-1.94,9.72,11.05,281.12,0,0.752,8.861,281.17,-1.061,0,0,0,0,0,0,0,0,269.97,0,0,0,0,0,0,0,0,0,0,0,0,0,1,1,79.04,FLYING
79.74,APPROACH,FLY_TO_FIX,73.03,81,7.97,1710.71,-1.91,9.77,11.08,281.12,-0.001,0.7658,12.843,281.17,-1.054,0,0,0,0,0,0,0,0,269.97,0,0,0,0,0,0,0,0,0,0,0,0,0,1,1,79.78,FLYING
80.48,APPROACH,FLY_TO_FIX,72.93,81,8.07,1709.31,-1.88,9.77,11.07,281.12,-0.002,0.7779,16.879,281.17,-1.047,0,0,0,0,0,0,0,0,269.97,0,0,0,0,0,0,0,0,0,0,0,0,0,1,1,80.52,FLYING
81.22,APPROACH,FLY_TO_FIX,72.91,81,8.09,1707.92,-1.86,9.75,11.03,281.12,-0.002,0.7772,20,281.18,-1.04,0,0,0,0,0,0,0,0,269.97,0,0,0,0,0,0,0,0,0,0,0,0,0,1,1,81.26,FLYING
81.96,APPROACH,FLY_TO_FIX,72.98,81,8.02,1706.55,-1.84,9.68,10.95,281.12,-0.003,0.7376,20,281.18,-1.033,0,0,0,0,0,0,0,0,269.97,0,0,0,0,0,0,0,0,0,0,0,0,0,1,1,82,FLYING
82.7,APPROACH,FLY_TO_FIX,73.14,81,7.86,1705.18,-1.81,9.58,10.83,281.12,-0.002,0.6973,20,281.18,-1.027,0,0,0,0,0,0,0,0,269.97,0,0,0,0,0,0,0,0,0,0,0,0,0,1,1,82.74,FLYING
83.44,APPROACH,FLY_TO_FIX,73.38,81,7.62,1703.83,-1.79,9.47,10.7,281.12,-0.002,0.6573,20,281.18,-1.02,0,0,0,0,0,0,0,0,269.97,0,0,0,0,0,0,0,0,0,0,0,0,0,1,1,83.48,FLYING
84.18,APPROACH,FLY_TO_FIX,73.69,81,7.31,1702.49,-1.77,9.34,10.55,281.12,-0.004,0.6096,20,281.18,-1.013,0,0,0,0,0,0,0,0,269.97,0,0,0,0,0,0,0,0,0,0,0,0,0,1,1,84.22,FLYING
84.92,APPROACH,FLY_TO_FIX,74.05,81,6.95,1701.16,-1.75,9.19,10.39,281.12,-0.003,0.5544,20,281.18,-1.007,0,0,0,0,0,0,0,0,269.97,0,0,0,0,0,0,0,0,0,0,0,0,0,1,1,84.96,FLYING
85.66,APPROACH,FLY_TO_FIX,74.46,81,6.54,1699.84,-1.74,9.04,10.21,281.11,-0.003,0.4993,20,281.18,-1,0,0,0,0,0,0,0,0,269.97,0,0,0,0,0,0,0,0,0,0,0,0,0,1,1,85.7,FLYING
86.4,APPROACH,FLY_TO_FIX,74.92,81,6.08,1698.54,-1.72,8.87,10.03,281.11,-0.003,0.4453,20,281.18,-0.993,0,0,0,0,0,0,0,0,269.97,0,0,0,0,0,0,0,0,0,0,0,0,0,1,1,86.44,FLYING
87.14,APPROACH,FLY_TO_FIX,75.39,81,5.61,1697.24,-1.7,8.71,9.85,281.11,-0.003,0.3935,20,281.18,-0.987,0,0,0,0,0,0,0,0,269.97,0,0,0,0,0,0,0,0,0,0,0,0,0,1,1,87.18,FLYING
87.88,APPROACH,FLY_TO_FIX,75.89,81,5.11,1695.96,-1.69,8.55,9.67,281.11,-0.003,0.3447,20,281.18,-0.981,0,0,0,0,0,0,0,0,269.97,0,0,0,0,0,0,0,0,0,0,0,0,0,1,1,87.92,FLYING
88.62,APPROACH,FLY_TO_FIX,76.39,81,4.61,1694.69,-1.67,8.4,9.51,281.11,-0.003,0.3006,20,281.18,-0.974,0,0,0,0,0,0,0,0,269.97,0,0,0,0,0,0,0,0,0,0,0,0,0,1,1,88.66,FLYING
89.36,APPROACH,FLY_TO_FIX,76.85,81,4.15,1693.44,-1.66,8.27,9.37,281.11,-0.004,0.2643,20,281.18,-0.968,0,0,0,0,0,0,0,0,269.97,0,0,0,0,0,0,0,0,0,0,0,0,0,1,1,89.4,FLYING
90.1,APPROACH,FLY_TO_FIX,77.27,81,3.73,1692.19,-1.65,8.17,9.25,281.11,-0.004,0.2381,20,281.18,-0.962,0,0,0,0,0,0,0,0,269.97,0,0,0,0,0,0,0,0,0,0,0,0,0,1,1,90.14,FLYING
90.84,APPROACH,FLY_TO_FIX,77.62,81,3.38,1690.96,-1.64,8.1,9.17,281.11,-0.004,0.2227,20,281.18,-0.955,0,0,0,0,0,0,0,0,269.97,0,0,0,0,0,0,0,0,0,0,0,0,0,1,1,90.88,FLYING
91.58,APPROACH,FLY_TO_FIX,77.91,81,3.09,1689.74,-1.63,8.05,9.1,281.11,-0.004,0.2173,20,281.18,-0.949,0,0,0,0,0,0,0,0,269.97,0,0,0,0,0,0,0,0,0,0,0,0,0,1,1,91.62,FLYING
92.32,APPROACH,FLY_TO_FIX,78.12,81,2.88,1688.53,-1.62,8.01,9.06,281.11,-0.005,0.2203,20,281.18,-0.943,0,0,0,0,0,0,0,0,269.97,0,0,0,0,0,0,0,0,0,0,0,0,0,1,1,92.36,FLYING
93.06,APPROACH,FLY_TO_FIX,78.28,81,2.72,1687.33,-1.61,7.99,9.03,281.11,-0.004,0.2292,20,281.18,-0.937,0,0,0,0,0,0,0,0,269.97,0,0,0,0,0,0,0,0,0,0,0,0,0,1,1,93.1,FLYING
93.8,APPROACH,FLY_TO_FIX,78.39,81,2.61,1686.13,-1.6,7.98,9.01,281.11,-0.004,0.2415,20,281.19,-0.931,0,0,0,0,0,0,0,0,269.97,0,0,0,0,0,0,0,0,0,0,0,0,0,1,1,93.84,FLYING
94.54,APPROACH,FLY_TO_FIX,78.47,81,2.53,1684.95,-1.59,7.97,8.99,281.11,-0.003,0.255,20,281.19,-0.925,0,0,0,0,0,0,0,0,269.97,0,0,0,0,0,0,0,0,0,0,0,0,0,1,1,94.58,FLYING
95.28,APPROACH,FLY_TO_FIX,78.54,81,2.46,1683.78,-1.58,7.96,8.97,281.11,-0.004,0.2675,20,281.19,-0.92,0,0,0,0,0,0,0,0,269.97,0,0,0,0,0,0,0,0,0,0,0,0,0,1,1,95.32,FLYING
96.33,APPROACH,FLY_TO_FIX,78.62,81,2.38,1682.12,-1.56,7.95,8.95,281.11,-0.003,0.2749,20,281.19,-0.912,0,0,0,0,0,0,0,0,269.97,0,0,0,0,0,0,0,0,0,0,0,0,0,1,1,96.4,FLYING
97.59,APPROACH,FLY_TO_FIX,78.72,81,2.28,1680.17,-1.54,7.93,8.92,281.1,-0.004,0.2763,20,281.19,-0.902,0,0,0,0,0,0,0,0,269.97,0,0,0,0,0,0,0,0,0,0,0,0,0,1,1,97.66,FLYING
98.85,APPROACH,FLY_TO_FIX,78.83,81,2.17,1678.23,-1.52,7.91,8.88,281.1,-0.001,0.2755,20,281.19,-0.892,0,0,0,0,0,0,0,0,269.97,0,0,0,0,0,0,0,0,0,0,0,0,0,1,1,98.92,FLYING
100.11,APPROACH,FLY_TO_FIX,78.95,81,2.05,1676.33,-1.5,7.89,8.84,281.1,-0.003,0.2729,20,281.19,-0.883,0,0,0,0,0,0,0,0,269.97,0,0,0,0,0,0,0,0,0,0,0,0,0,1,1,100.18,FLYING
101.37,APPROACH,FLY_TO_FIX,79.07,81,1.93,1674.45,-1.48,7.86,8.8,281.1,-0.004,0.269,20,281.19,-0.873,0,0,0,0,0,0,0,0,269.97,0,0,0,0,0,0,0,0,0,0,0,0,0,1,1,101.44,FLYING
102.63,APPROACH,FLY_TO_FIX,79.19,81,1.81,1672.59,-1.46,7.84,8.76,281.1,-0.005,0.2641,20,281.19,-0.864,0,0,0,0,0,0,0,0,269.97,0,0,0,0,0,0,0,0,0,0,0,0,0,1,1,102.7,FLYING
103.89,APPROACH,FLY_TO_FIX,79.31,81,1.69,1670.76,-1.44,7.81,8.73,281.1,-0.005,0.2592,20,281.2,-0.855,0,0,0,0,0,0,0,0,269.97,0,0,0,0,0,0,0,0,0,0,0,0,0,1,1,103.96,FLYING
105.15,APPROACH,FLY_TO_FIX,79.42,81,1.58,1668.96,-1.42,7.79,8.69,281.1,-0.005,0.2553,20,281.2,-0.846,0,0,0,0,0,0,0,0,269.97,0,0,0,0,0,0,0,0,0,0,0,0,0,1,1,105.22,FLYING
106.41,APPROACH,FLY_TO_FIX,79.52,81,1.48,1667.18,-1.4,7.78,8.67,281.1,-0.007,0.2534,20,281.2,-0.837,0,0,0,0,0,0,0,0,269.97,0,0,0,0,0,0,0,0,0,0,0,0,0,1,1,106.48,FLYING
107.67,APPROACH,FLY_TO_FIX,79.6,81,1.4,1665.43,-1.38,7.77,8.65,281.1,-0.008,0.2534,20,281.2,-0.828,0,0,0,0,0,0,0,0,269.97,0,0,0,0,0,0,0,0,0,0,0,0,0,1,1,107.74,FLYING
108.93,APPROACH,FLY_TO_FIX,79.67,81,1.33,1663.69,-1.36,7.76,8.63,281.1,-0.009,0.2549,20,281.2,-0.819,0,0,0,0,0,0,0,0,269.97,0,0,0,0,0,0,0,0,0,0,0,0,0,1,1,109,FLYING
110.19,APPROACH,FLY_TO_FIX,79.72,81,1.28,1661.99,-1.35,7.76,8.61,281.1,-0.011,0.2571,20,281.21,-0.811,0,0,0,0,0,0,0,0,269.97,0,0,0,0,0,0,0,0,0,0,0,0,0,1,1,110.26,FLYING
111.45,APPROACH,FLY_TO_FIX,79.77,81,1.23,1660.3,-1.33,7.76,8.6,281.1,-0.01,0.2589,20,281.21,-0.802,0,0,0,0,0,0,0,0,269.97,0,0,0,0,0,0,0,0,0,0,0,0,0,1,1,111.52,FLYING
112.71,APPROACH,FLY_TO_FIX,79.82,81,1.18,1658.63,-1.31,7.75,8.58,281.1,-0.01,0.26,20,281.21,-0.794,0,0,0,0,0,0,0,0,269.97,0,0,0,0,0,0,0,0,0,0,0,0,0,1,1,112.78,FLYING
113.97,APPROACH,FLY_TO_FIX,79.87,81,1.13,1656.99,-1.29,7.75,8.56,281.1,-0.011,0.2603,20,281.21,-0.786,0,0,0,0,0,0,0,0,269.97,0,0,0,0,0,0,0,0,0,0,0,0,0,1,1,114.04,FLYING
115.23,APPROACH,FLY_TO_FIX,79.92,81,1.08,1655.37,-1.28,7.74,8.55,281.1,-0.009,0.2598,20,281.21,-0.778,0,0,0,0,0,0,0,0,269.97,0,0,0,0,0,0,0,0,0,0,0,0,0,1,1,115.3,FLYING
116.49,APPROACH,FLY_TO_FIX,79.97,81,1.03,1653.77,-1.26,7.74,8.53,281.1,-0.009,0.2588,20,281.21,-0.77,0,0,0,0,0,0,0,0,269.97,0,0,0,0,0,0,0,0,0,0,0,0,0,1,1,116.56,FLYING
117.75,APPROACH,FLY_TO_FIX,80.03,81,0.97,1652.19,-1.24,7.73,8.51,281.1,-0.011,0.2574,20,281.22,-0.762,0,0,0,0,0,0,0,0,269.97,0,0,0,0,0,0,0,0,0,0,0,0,0,1,1,117.82,FLYING
119.01,APPROACH,FLY_TO_FIX,80.08,81,0.92,1650.64,-1.23,7.72,8.5,281.1,-0.015,0.2558,20,281.22,-0.754,0,0,0,0,0,0,0,0,269.97,0,0,0,0,0,0,0,0,0,0,0,0,0,1,1,119.08,FLYING
120.27,APPROACH,FLY_TO_FIX,80.13,81,0.87,1649.1,-1.21,7.72,8.48,281.1,-0.015,0.2543,20,281.22,-0.746,0,0,0,0,0,0,0,0,269.97,0,0,0,0,0,0,0,0,0,0,0,0,0,1,1,120.34,FLYING
121.53,APPROACH,FLY_TO_FIX,80.17,81,0.83,1647.58,-1.19,7.72,8.47,281.1,-0.015,0.2534,20,281.22,-0.739,0,0,0,0,0,0,0,0,269.97,0,0,0,0,0,0,0,0,0,0,0,0,0,1,1,121.6,FLYING
122.79,APPROACH,FLY_TO_FIX,80.21,81,0.79,1646.09,-1.18,7.72,8.46,281.1,-0.016,0.2531,20,281.23,-0.731,0,0,0,0,0,0,0,0,269.97,0,0,0,0,0,0,0,0,0,0,0,0,0,1,1,122.86,FLYING
124.05,APPROACH,FLY_TO_FIX,80.25,81,0.75,1644.61,-1.16,7.72,8.45,281.1,-0.017,0.2534,20,281.23,-0.724,0,0,0,0,0,0,0,0,269.97,0,0,0,0,0,0,0,0,0,0,0,0,0,1,1,124.12,FLYING
125.31,APPROACH,FLY_TO_FIX,80.27,81,0.73,1643.15,-1.15,7.72,8.44,281.1,-0.019,0.254,20,281.23,-0.717,0,0,0,0,0,0,0,0,269.97,0,0,0,0,0,0,0,0,0,0,0,0,0,1,1,125.38,FLYING
126.57,APPROACH,FLY_TO_FIX,80.3,81,0.7,1641.72,-1.13,7.72,8.43,281.11,-0.019,0.2547,20,281.23,-0.709,0,0,0,0,0,0,0,0,269.97,0,0,0,0,0,0,0,0,0,0,0,0,0,1,1,126.64,FLYING
127.83,APPROACH,FLY_TO_FIX,80.32,81,0.68,1640.3,-1.12,7.72,8.43,281.11,-0.019,0.2553,20,281.24,-0.702,0,0,0,0,0,0,0,0,269.97,0,0,0,0,0,0,0,0,0,0,0,0,0,1,1,127.9,FLYING
129.09,APPROACH,FLY_TO_FIX,80.35,81,0.65,1638.9,-1.1,7.73,8.42,281.11,-0.019,0.2556,20,281.24,-0.695,0,0,0,0,0,0,0,0,269.97,0,0,0,0,0,0,0,0,0,0,0,0,0,1,1,129.16,FLYING
130.35,APPROACH,FLY_TO_FIX,80.37,81,0.63,1637.51,-1.09,7.73,8.41,281.11,-0.02,0.2556,20,281.24,-0.688,0,0,0,0,0,0,0,0,269.97,0,0,0,0,0,0,0,0,0,0,0,0,0,1,1,130.42,FLYING
131.61,APPROACH,FLY_TO_FIX,80.39,81,0.61,1636.15,-1.08,7.73,8.41,281.11,-0.02,0.2555,20,281.24,-0.682,0,0,0,0,0,0,0,0,269.97,0,0,0,0,0,0,0,0,0,0,0,0,0,1,1,131.68,FLYING
132.87,APPROACH,FLY_TO_FIX,80.41,81,0.59,1634.8,-1.06,7.73,8.4,281.11,-0.022,0.2553,20,281.25,-0.675,0,0,0,0,0,0,0,0,269.97,0,0,0,0,0,0,0,0,0,0,0,0,0,1,1,132.94,FLYING
134.13,APPROACH,FLY_TO_FIX,80.43,81,0.57,1633.48,-1.05,7.73,8.39,281.11,-0.021,0.2549,20,281.25,-0.668,0,0,0,0,0,0,0,0,269.97,0,0,0,0,0,0,0,0,0,0,0,0,0,1,1,134.2,FLYING
135.39,APPROACH,FLY_TO_FIX,80.45,81,0.55,1632.16,-1.03,7.74,8.39,281.12,-0.024,0.2545,20,281.25,-0.662,0,0,0,0,0,0,0,0,269.97,0,0,0,0,0,0,0,0,0,0,0,0,0,1,1,135.46,FLYING
136.65,APPROACH,FLY_TO_FIX,80.47,81,0.53,1630.87,-1.02,7.74,8.38,281.12,-0.023,0.2541,20,281.26,-0.655,0,0,0,0,0,0,0,0,269.97,0,0,0,0,0,0,0,0,0,0,0,0,0,1,1,136.72,FLYING
137.91,APPROACH,FLY_TO_FIX,80.49,81,0.51,1629.59,-1.01,7.74,8.37,281.12,-0.024,0.2538,20,281.26,-0.649,0,0,0,0,0,0,0,0,269.97,0,0,0,0,0,0,0,0,0,0,0,0,0,1,1,137.98,FLYING
139.17,APPROACH,FLY_TO_FIX,80.51,81,0.49,1628.33,-0.99,7.74,8.37,281.12,-0.023,0.2537,20,281.26,-0.642,0,0,0,0,0,0,0,0,269.97,0,0,0,0,0,0,0,0,0,0,0,0,0,1,1,139.24,FLYING
140.43,APPROACH,FLY_TO_FIX,80.52,81,0.48,1627.09,-0.98,7.75,8.36,281.13,-0.027,0.2538,20,281.27,-0.636,0,0,0,0,0,0,0,0,269.97,0,0,0,0,0,0,0,0,0,0,0,0,0,1,1,140.5,FLYING
141.69,APPROACH,FLY_TO_FIX,80.53,81,0.47,1625.86,-0.97,7.75,8.36,281.13,-0.029,0.2541,20,281.27,-0.63,0,0,0,0,0,0,0,0,269.97,0,0,0,0,0,0,0,0,0,0,0,0,0,1,1,141.76,FLYING
142.95,APPROACH,FLY_TO_FIX,80.54,81,0.46,1624.65,-0.96,7.76,8.36,281.13,-0.027,0.2543,20,281.27,-0.624,0,0,0,0,0,0,0,0,269.97,0,0,0,0,0,0,0,0,0,0,0,0,0,1,1,143.02,FLYING
144.21,APPROACH,FLY_TO_FIX,80.55,81,0.45,1623.46,-0.94,7.76,8.35,281.13,-0.029,0.2546,20,281.28,-0.618,0,0,0,0,0,0,0,0,269.97,0,0,0,0,0,0,0,0,0,0,0,0,0,1,1,144.28,FLYING
145.47,APPROACH,FLY_TO_FIX,80.56,81,0.44,1622.28,-0.93,7.77,8.35,281.13,-0.027,0.2549,20,281.28,-0.612,0,0,0,0,0,0,0,0,269.97,0,0,0,0,0,0,0,0,0,0,0,0,0,1,1,145.54,FLYING
146.73,APPROACH,FLY_TO_FIX,80.57,81,0.43,1621.11,-0.92,7.77,8.35,281.14,-0.03,0.2551,20,281.28,-0.606,0,0,0,0,0,0,0,0,269.97,0,0,0,0,0,0,0,0,0,0,0,0,0,1,1,146.8,FLYING
147.99,APPROACH,FLY_TO_FIX,80.58,81,0.42,1619.96,-0.91,7.78,8.35,281.14,-0.032,0.2553,20,281.29,-0.6,0,0,0,0,0,0,0,0,269.97,0,0,0,0,0,0,0,0,0,0,0,0,0,1,1,148.06,FLYING
149.25,APPROACH,FLY_TO_FIX,80.58,81,0.42,1618.83,-0.9,7.78,8.34,281.14,-0.032,0.2554,20,281.29,-0.595,0,0,0,0,0,0,0,0,269.97,0,0,0,0,0,0,0,0,0,0,0,0,0,1,1,149.32,FLYING
150.51,APPROACH,FLY_TO_FIX,80.59,81,0.41,1617.71,-0.88,7.79,8.34,281.15,-0.035,0.2556,20,281.3,-0.589,0,0,0,0,0,0,0,0,269.97,0,0,0,0,0,0,0,0,0,0,0,0,0,1,1,150.58,FLYING
151.77,APPROACH,FLY_TO_FIX,80.6,81,0.4,1616.6,-0.87,7.79,8.34,281.15,-0.037,0.2556,20,281.3,-0.584,0,0,0,0,0,0,0,0,269.97,0,0,0,0,0,0,0,0,0,0,0,0,0,1,1,151.84,FLYING
153.03,APPROACH,FLY_TO_FIX,80.6,81,0.4,1615.51,-0.86,7.8,8.34,281.15,-0.035,0.2557,20,281.31,-0.578,0,0,0,0,0,0,0,0,269.97,0,0,0,0,0,0,0,0,0,0,0,0,0,1,1,153.1,FLYING
154.29,APPROACH,FLY_TO_FIX,80.61,81,0.39,1614.43,-0.85,7.8,8.33,281.16,-0.035,0.2558,20,281.31,-0.573,0,0,0,0,0,0,0,0,269.97,0,0,0,0,0,0,0,0,0,0,0,0,0,1,1,154.36,FLYING
155.55,APPROACH,FLY_TO_FIX,80.61,81,0.39,1613.37,-0.84,7.81,8.33,281.16,-0.037,0.2558,20,281.31,-0.567,0,0,0,0,0,0,0,0,269.97,0,0,0,0,0,0,0,0,0,0,0,0,0,1,1,155.62,FLYING
156.81,APPROACH,FLY_TO_FIX,80.62,81,0.38,1612.32,-0.83,7.81,8.33,281.17,-0.04,0.2559,20,281.32,-0.562,0,0,0,0,0,0,0,0,269.97,0,0,0,0,0,0,0,0,0,0,0,0,0,1,1,156.88,FLYING
158.07,APPROACH,FLY_TO_FIX,80.62,81,0.38,1611.28,-0.82,7.82,8.33,281.17,-0.043,0.2559,20,281.33,-0.557,0,0,0,0,0,0,0,0,269.97,0,0,0,0,0,0,0,0,0,0,0,0,0,1,1,158.14,FLYING
159.33,APPROACH,FLY_TO_FIX,80.62,81,0.38,1610.26,-0.81,7.82,8.33,281.18,-0.043,0.256,20,281.33,-0.552,0,0,0,0,0,0,0,0,269.97,0,0,0,0,0,0,0,0,0,0,0,0,0,1,1,159.4,FLYING
160.59,APPROACH,FLY_TO_FIX,80.63,81,0.37,1609.25,-0.8,7.83,8.33,281.18,-0.042,0.2561,20,281.34,-0.547,0,0,0,0,0,0,0,0,269.97,0,0,0,0,0,0,0,0,0,0,0,0,0,1,1,160.66,FLYING
161.85,APPROACH,FLY_TO_FIX,80.63,81,0.37,1608.25,-0.79,7.83,8.33,281.18,-0.042,0.2562,20,281.34,-0.542,0,0,0,0,0,0,0,0,269.97,0,0,0,0,0,0,0,0,0,0,0,0,0,1,1,161.92,FLYING
163.11,APPROACH,FLY_TO_FIX,80.63,81,0.37,1607.27,-0.78,7.84,8.32,281.19,-0.042,0.2563,20,281.35,-0.537,0,0,0,0,0,0,0,0,269.97,0,0,0,0,0,0,0,0,0,0,0,0,0,1,1,163.18,FLYING
164.37,APPROACH,FLY_TO_FIX,80.63,81,0.37,1606.3,-0.77,7.84,8.32,281.19,-0.042,0.2564,20,281.35,-0.532,0,0,0,0,0,0,0,0,269.97,0,0,0,0,0,0,0,0,0,0,0,0,0,1,1,164.44,FLYING
165.63,APPROACH,FLY_TO_FIX,80.64,81,0.36,1605.34,-0.76,7.85,8.32,281.2,-0.043,0.2565,20,281.36,-0.527,0,0,0,0,0,0,0,0,269.97,0,0,0,0,0,0,0,0,0,0,0,0,0,1,1,165.7,FLYING
166.89,APPROACH,FLY_TO_FIX,80.64,81,0.36,1604.39,-0.75,7.85,8.32,281.2,-0.042,0.2566,20,281.37,-0.522,0,0,0,0,0,0,0,0,269.97,0,0,0,0,0,0,0,0,0,0,0,0,0,1,1,166.96,FLYING
168.15,APPROACH,FLY_TO_FIX,80.64,81,0.36,1603.46,-0.74,7.86,8.32,281.21,-0.044,0.2568,20,281.37,-0.518,0,0,0,0,0,0,0,0,269.97,0,0,0,0,0,0,0,0,0,0,0,0,0,1,1,168.22,FLYING
169.41,APPROACH,FLY_TO_FIX,80.64,81,0.36,1602.53,-0.73,7.86,8.32,281.21,-0.048,0.2569,20,281.38,-0.513,0,0,0,0,0,0,0,0,269.97,0,0,0,0,0,0,0,0,0,0,0,0,0,1,1,169.48,FLYING
170.67,APPROACH,FLY_TO_FIX,80.64,81,0.36,1601.62,-0.72,7.87,8.32,281.22,-0.051,0.257,20,281.39,-0.509,0,0,0,0,0,0,0,0,269.97,0,0,0,0,0,0,0,0,0,0,0,0,0,1,1,170.74,FLYING
171.93,APPROACH,FLY_TO_FIX,80.64,81,0.36,1600.72,-0.71,7.87,8.32,281.22,-0.053,0.2572,20,281.4,-0.504,0,0,0,0,0,0,0,0,269.97,0,0,0,0,0,0,0,0,0,0,0,0,0,1,1,172,FLYING
173.19,APPROACH,FLY_TO_FIX,80.64,81,0.36,1599.83,-0.7,7.88,8.32,281.23,-0.053,0.2573,20,281.41,-0.5,0,0,0,0,0,0,0,0,269.97,0,0,0,0,0,0,0,0,0,0,0,0,0,1,1,173.26,FLYING
174.45,APPROACH,FLY_TO_FIX,80.64,81,0.36,1598.95,-0.69,7.88,8.32,281.24,-0.059,0.2574,20,281.42,-0.495,0,0,0,0,0,0,0,0,269.97,0,0,0,0,0,0,0,0,0,0,0,0,0,1,1,174.52,FLYING
175.71,APPROACH,FLY_TO_FIX,80.64,81,0.36,1598.08,-0.69,7.89,8.32,281.24,-0.062,0.2575,20,281.43,-0.491,0,0,0,0,0,0,0,0,269.97,0,0,0,0,0,0,0,0,0,0,0,0,0,1,1,175.78,FLYING
176.97,APPROACH,FLY_TO_FIX,80.64,81,0.36,1597.22,-0.68,7.89,8.32,281.25,-0.061,0.2576,20,281.44,-0.487,0,0,0,0,0,0,0,0,269.97,0,0,0,0,0,0,0,0,0,0,0,0,0,1,1,177.04,FLYING
178.23,APPROACH,FLY_TO_FIX,80.64,81,0.36,1596.37,-0.67,7.9,8.32,281.26,-0.063,0.2577,20,281.45,-0.482,0,0,0,0,0,0,0,0,269.97,0,0,0,0,0,0,0,0,0,0,0,0,0,1,1,178.3,FLYING
179.49,APPROACH,FLY_TO_FIX,80.64,81,0.36,1595.54,-0.66,7.9,8.32,281.27,-0.069,0.2577,20,281.47,-0.478,0,0,0,0,0,0,0,0,269.97,0,0,0,0,0,0,0,0,0,0,0,0,0,1,1,179.56,FLYING
180.75,APPROACH,FLY_TO_FIX,80.64,81,0.36,1594.71,-0.65,7.9,8.31,281.28,-0.076,0.2578,20,281.48,-0.474,0,0,0,0,0,0,0,0,269.97,0,0,0,0,0,0,0,0,0,0,0,0,0,1,1,180.82,FLYING
182.01,APPROACH,FLY_TO_FIX,80.64,81,0.36,1593.89,-0.65,7.91,8.31,281.29,-0.081,0.2579,20,281.5,-0.47,0,0,0,0,0,0,0,0,269.97,0,0,0,0,0,0,0,0,0,0,0,0,0,1,1,182.08,FLYING
183.27,APPROACH,FLY_TO_FIX,80.64,81,0.36,1593.08,-0.64,7.91,8.31,281.3,-0.087,0.2579,20,281.51,-0.466,0,0,0,0,0,0,0,0,269.97,0,0,0,0,0,0,0,0,0,0,0,0,0,1,1,183.34,FLYING
184.57,APPROACH,FLY_TO_FIX,80.64,81,0.36,1592.25,-0.6,7.87,8.28,281.31,-0.06,0.2579,20,270.57,-5.197,0,0,0,0,0,0,0,0,269.97,0,0,0,0,0,0,0,0,0,0,0,0,0,1,1,184.64,FLYING
185.83,APPROACH,FLY_TO_FIX,80.74,81,0.26,1590.79,-1.48,6.43,7.4,280.07,8.043,0.2431,20,270.51,-5.19,0,0,0,0,0,0,0,0,269.97,0,0,0,0,0,0,0,0,0,0,0,0,0,1,1,185.9,FLYING
187.09,APPROACH,FLY_TO_FIX,81.05,81,-0.05,1588.2,-2.46,5.77,7.5,277.91,12.244,0.1996,19.98,270.46,-5.178,0,0,0,0,0,0,0,0,269.97,0,0,0,0,0,0,0,0,0,0,0,0,0,1,1,187.16,FLYING
188.35,APPROACH,FLY_TO_FIX,81.43,81,-0.43,1584.41,-3.36,5.26,7.49,276.63,11.25,0.1486,19.772,270.42,-5.159,0,0,0,0,0,0,0,0,269.97,0,0,0,0,0,0,0,0,0,0,0,0,0,1,1,188.42,FLYING
189.64,APPROACH,FLY_TO_FIX,81.78,81,-0.78,1579.44,-4.16,4.81,7.49,275.46,9.824,0.1041,19.386,270.38,-5.135,0,0,0,0,0,0,0,0,269.97,0,0,0,0,0,0,0,0,0,0,0,0,0,1,1,189.71,FLYING
190.9,APPROACH,FLY_TO_FIX,82.02,81,-1.02,1573.71,-4.82,4.48,7.53,274.48,8.374,0.0792,18.878,270.35,-5.107,0,0,0,0,0,0,0,0,269.97,0,0,0,0,0,0,0,0,0,0,0,0,0,1,1,190.97,FLYING
192.16,APPROACH,FLY_TO_FIX,82.12,81,-1.12,1567.24,-5.36,4.24,7.6,273.66,6.991,0.0761,18.317,270.33,-5.075,0,0,0,0,0,0,0,0,269.97,0,0,0,0,0,0,0,0,0,0,0,0,0,1,1,192.23,FLYING
193.42,APPROACH,FLY_TO_FIX,82.09,81,-1.09,1560.16,-5.8,4.08,7.7,272.99,5.751,0.0916,17.771,270.31,-5.04,0,0,0,0,0,0,0,0,269.97,0,0,0,0,0,0,0,0,0,0,0,0,0,1,1,193.49,FLYING
194.68,APPROACH,FLY_TO_FIX,81.96,81,-0.96,1552.6,-6.15,3.98,7.81,272.44,4.676,0.1176,17.287,270.29,-5.002,0,0,0,0,0,0,0,0,269.97,0,0,0,0,0,0,0,0,0,0,0,0,0,1,1,194.75,FLYING
195.94,APPROACH,FLY_TO_FIX,81.81,81,-0.81,1544.66,-6.42,3.9,7.9,272,3.773,0.1442,16.88,270.28,-4.963,0,0,0,0,0,0,0,0,269.97,0,0,0,0,0,0,0,0,0,0,0,0,0,1,1,196.01,FLYING
197.2,APPROACH,FLY_TO_FIX,81.67,81,-0.67,1536.42,-6.64,3.84,7.98,271.65,3.027,0.1644,16.542,270.27,-4.922,0,0,0,0,0,0,0,0,269.97,0,0,0,0,0,0,0,0,0,0,0,0,0,1,1,197.27,FLYING
198.46,APPROACH,FLY_TO_FIX,81.56,81,-0.56,1527.94,-6.8,3.79,8.05,271.36,2.421,0.1773,16.259,270.26,-4.879,0,0,0,0,0,0,0,0,269.97,0,0,0,0,0,0,0,0,0,0,0,0,0,1,1,198.53,FLYING
199.76,APPROACH,FLY_TO_FIX,81.49,81,-0.49,1519.03,-6.93,3.75,8.09,271.13,1.918,0.1834,16.012,270.25,-4.836,0,0,0,0,0,0,0,0,269.97,0,0,0,0,0,0,0,0,0,0,0,0,0,2,2,199.83,FLYING
201.09,APPROACH,FLY_TO_FIX,81.4,81,-0.4,1509.75,-6.97,3.54,7.92,270.94,1.509,0.1906,15.808,270.25,-4.789,0,0,0,0,0,0,0,0,269.97,0,0,0,0,0,0,0,0,0,0,0,0,0,2,2,201.16,FLYING
202.35,APPROACH,FLY_TO_FIX,81.29,81,-0.29,1500.93,-6.99,3.35,7.74,270.8,1.204,0.2013,15.66,270.24,-4.745,0,0,0,0,0,0,0,0,269.97,0,0,0,0,0,0,0,0,0,0,0,0,0,2,2,202.42,FLYING
203.61,APPROACH,FLY_TO_FIX,81.15,81,-0.15,1492.09,-7.02,3.32,7.74,270.69,0.96,0.2162,15.584,270.24,-4.7,0,0,0,0,0,0,0,0,269.97,0,0,0,0,0,0,0,0,0,0,0,0,0,2,2,203.68,FLYING
204.87,APPROACH,FLY_TO_FIX,81.03,81,-0.03,1483.22,-7.07,3.28,7.71,270.6,0.758,0.2267,15.567,270.24,-4.656,0,0,0,0,0,0,0,0,269.97,0,0,0,0,0,0,0,0,0,0,0,0,0,2,2,204.94,FLYING
206.16,APPROACH,FLY_TO_FIX,80.94,81,0.06,1474.1,-7.05,3.3,7.75,270.53,0.553,0.2319,15.595,270.24,-4.61,0,0,0,0,0,0,0,0,269.97,0,0,0,0,0,0,0,0,0,0,0,0,0,2,2,206.23,FLYING
207.42,APPROACH,FLY_TO_FIX,80.91,81,0.09,1465.22,-7.06,3.31,7.76,270.49,0.393,0.2296,15.641,270.24,-4.566,0,0,0,0,0,0,0,0,269.97,0,0,0,0,0,0,0,0,0,0,0,0,0,2,2,207.49,FLYING
208.68,APPROACH,FLY_TO_FIX,80.91,81,0.09,1456.33,-7.05,3.31,7.76,270.45,0.279,0.2224,15.686,270.23,-4.522,0,0,0,0,0,0,0,0,269.97,0,0,0,0,0,0,0,0,0,0,0,0,0,2,2,208.75,FLYING
209.94,APPROACH,FLY_TO_FIX,80.95,81,0.05,1447.43,-7.02,3.16,7.62,270.43,0.203,0.2113,15.713,270.23,-4.477,0,0,0,0,0,0,0,0,269.97,0,0,0,0,0,0,0,0,0,0,0,0,0,2,2,210.01,FLYING
211.2,APPROACH,FLY_TO_FIX,81.03,81,-0.03,1438.52,-7.08,3.26,7.73,270.41,0.152,0.1954,15.701,270.23,-4.433,0,0,0,0,0,0,0,0,269.97,0,0,0,0,0,0,0,0,0,0,0,0,0,2,2,211.27,FLYING
212.46,APPROACH,FLY_TO_FIX,81.12,81,-0.12,1429.61,-7.06,3.24,7.7,270.4,0.121,0.1796,15.643,270.23,-4.388,0,0,0,0,0,0,0,0,269.97,0,0,0,0,0,0,0,0,0,0,0,0,0,2,2,212.53,FLYING
213.72,APPROACH,FLY_TO_FIX,81.22,81,-0.22,1420.73,-7.04,3.23,7.67,270.38,0.104,0.1638,15.536,270.23,-4.344,0,0,0,0,0,0,0,0,269.97,0,0,0,0,0,0,0,0,0,0,0,0,0,2,2,213.79,FLYING
214.98,APPROACH,FLY_TO_FIX,81.31,81,-0.31,1411.86,-7.02,3.22,7.65,270.37,0.093,0.1502,15.382,270.23,-4.299,0,0,0,0,0,0,0,0,269.97,0,0,0,0,0,0,0,0,0,0,0,0,0,2,2,215.05,FLYING
216.24,APPROACH,FLY_TO_FIX,81.38,81,-0.38,1403.03,-7,3.23,7.64,270.36,0.088,0.1418,15.195,270.23,-4.255,0,0,0,0,0,0,0,0,269.97,0,0,0,0,0,0,0,0,0,0,0,0,0,2,2,216.31,FLYING
217.5,APPROACH,FLY_TO_FIX,81.39,81,-0.39,1394.24,-6.97,3.26,7.65,270.34,0.081,0.1408,14.997,270.23,-4.211,0,0,0,0,0,0,0,0,269.97,0,0,0,0,0,0,0,0,0,0,0,0,0,2,2,217.57,FLYING
218.76,APPROACH,FLY_TO_FIX,81.37,81,-0.37,1385.5,-6.93,3.3,7.67,270.33,0.078,0.1465,14.813,270.23,-4.167,0,0,0,0,0,0,0,0,269.97,0,0,0,0,0,0,0,0,0,0,0,0,0,2,2,218.83,FLYING
220.02,APPROACH,FLY_TO_FIX,81.3,81,-0.3,1376.81,-6.88,3.35,7.7,270.32,0.076,0.1565,14.66,270.23,-4.124,0,0,0,0,0,0,0,0,269.97,0,0,0,0,0,0,0,0,0,0,0,0,0,2,2,220.09,FLYING
221.28,APPROACH,FLY_TO_FIX,81.23,81,-0.23,1368.18,-6.83,3.4,7.72,270.31,0.073,0.1676,14.546,270.23,-4.081,0,0,0,0,0,0,0,0,269.97,0,0,0,0,0,0,0,0,0,0,0,0,0,2,2,221.35,FLYING
222.54,APPROACH,FLY_TO_FIX,81.15,81,-0.15,1359.62,-6.78,3.45,7.75,270.3,0.07,0.1778,14.472,270.23,-4.038,0,0,0,0,0,0,0,0,269.97,0,0,0,0,0,0,0,0,0,0,0,0,0,2,2,222.61,FLYING
223.8,APPROACH,FLY_TO_FIX,81.07,81,-0.07,1351.12,-6.73,3.5,7.77,270.29,0.066,0.1866,14.436,270.23,-3.995,0,0,0,0,0,0,0,0,269.97,0,0,0,0,0,0,0,0,0,0,0,0,0,2,2,223.87,FLYING
225.06,APPROACH,FLY_TO_FIX,81,81,0,1342.69,-6.67,3.55,7.79,270.28,0.062,0.1937,14.435,270.23,-3.953,0,0,0,0,0,0,0,0,269.97,0,0,0,0,0,0,0,0,0,0,0,0,0,2,2,225.13,FLYING
226.32,APPROACH,FLY_TO_FIX,80.94,81,0.06,1334.33,-6.62,3.6,7.81,270.27,0.056,0.1988,14.464,270.23,-3.911,0,0,0,0,0,0,0,0,269.97,0,0,0,0,0,0,0,0,0,0,0,0,0,2,2,226.39,FLYING
227.58,APPROACH,FLY_TO_FIX,80.89,81,0.11,1326.04,-6.56,3.65,7.82,270.26,0.05,0.202,14.516,270.23,-3.87,0,0,0,0,0,0,0,0,269.97,0,0,0,0,0,0,0,0,0,0,0,0,0,2,2,227.65,FLYING
228.84,APPROACH,FLY_TO_FIX,80.86,81,0.14,1317.82,-6.5,3.69,7.83,270.26,0.044,0.2032,14.585,270.23,-3.829,0,0,0,0,0,0,0,0,269.97,0,0,0,0,0,0,0,0,0,0,0,0,0,2,2,228.91,FLYING
230.1,APPROACH,FLY_TO_FIX,80.84,81,0.16,1309.68,-6.44,3.73,7.83,270.25,0.04,0.2028,14.663,270.23,-3.788,0,0,0,0,0,0,0,0,269.97,0,0,0,0,0,0,0,0,0,0,0,0,0,2,2,230.17,FLYING
231.36,APPROACH,FLY_TO_FIX,80.84,81,0.16,1301.62,-6.38,3.76,7.83,270.25,0.035,0.2009,14.744,270.23,-3.748,0,0,0,0,0,0,0,0,269.97,0,0,0,0,0,0,0,0,0,0,0,0,0,2,2,231.43,FLYING
232.62,APPROACH,FLY_TO_FIX,80.84,81,0.16,1293.63,-6.32,3.8,7.83,270.24,0.031,0.1979,14.823,270.23,-3.708,0,0,0,0,0,0,0,0,269.97,0,0,0,0,0,0,0,0,0,0,0,0,0,2,2,232.69,FLYING
233.88,APPROACH,FLY_TO_FIX,80.86,81,0.14,1285.72,-6.25,3.83,7.82,270.24,0.028,0.1942,14.895,270.23,-3.668,0,0,0,0,0,0,0,0,269.97,0,0,0,0,0,0,0,0,0,0,0,0,0,2,2,233.95,FLYING
235.14,APPROACH,FLY_TO_FIX,80.88,81,0.12,1277.88,-6.19,3.86,7.82,270.23,0.023,0.1903,14.956,270.23,-3.629,0,0,0,0,0,0,0,0,269.97,0,0,0,0,0,0,0,0,0,0,0,0,0,2,2,235.21,FLYING
236.4,APPROACH,FLY_TO_FIX,80.9,81,0.1,1270.13,-6.13,3.89,7.81,270.23,0.021,0.1864,15.006,270.23,-3.59,0,0,0,0,0,0,0,0,269.97,0,0,0,0,0,0,0,0,0,0,0,0,0,2,2,236.47,FLYING
237.66,APPROACH,FLY_TO_FIX,80.92,81,0.08,1262.45,-6.07,3.92,7.8,270.22,0.017,0.183,15.044,270.23,-3.551,0,0,0,0,0,0,0,0,269.97,0,0,0,0,0,0,0,0,0,0,0,0,0,2,2,237.73,FLYING
238.92,APPROACH,FLY_TO_FIX,80.95,81,0.05,1254.84,-6.01,3.95,7.79,270.22,0.013,0.1803,15.071,270.23,-3.513,0,0,0,0,0,0,0,0,269.97,0,0,0,0,0,0,0,0,0,0,0,0,0,2,2,238.99,FLYING
240.18,APPROACH,FLY_TO_FIX,80.96,81,0.04,1247.31,-5.95,3.99,7.79,270.22,0.011,0.1785,15.089,270.23,-3.476,0,0,0,0,0,0,0,0,269.97,0,0,0,0,0,0,0,0,0,0,0,0,0,2,2,240.25,FLYING
241.44,APPROACH,FLY_TO_FIX,80.98,81,0.02,1239.86,-5.89,4.02,7.78,270.22,0.009,0.1777,15.102,270.23,-3.438,0,0,0,0,0,0,0,0,269.97,0,0,0,0,0,0,0,0,0,0,0,0,0,2,2,241.51,FLYING
242.7,APPROACH,FLY_TO_FIX,80.98,81,0.02,1232.49,-5.83,4.06,7.78,270.21,0.007,0.1781,15.111,270.23,-3.402,0,0,0,0,0,0,0,0,269.97,0,0,0,0,0,0,0,0,0,0,0,0,0,2,2,242.77,FLYING
243.96,APPROACH,FLY_TO_FIX,80.98,81,0.02,1225.2,-5.77,4.1,7.79,270.21,0.004,0.1796,15.123,270.23,-3.365,0,0,0,0,0,0,0,0,269.97,0,0,0,0,0,0,0,0,0,0,0,0,0,2,2,244.03,FLYING
245.22,APPROACH,FLY_TO_FIX,80.97,81,0.03,1217.98,-5.71,4.14,7.79,270.21,0.003,0.1819,15.139,270.23,-3.329,0,0,0,0,0,0,0,0,269.97,0,0,0,0,0,0,0,0,0,0,0,0,0,2,2,245.29,FLYING
246.48,APPROACH,FLY_TO_FIX,80.95,81,0.05,1210.84,-5.64,4.18,7.79,270.21,0.001,0.1848,15.164,270.23,-3.293,0,0,0,0,0,0,0,0,269.97,0,0,0,0,0,0,0,0,0,0,0,0,0,2,2,246.55,FLYING
247.74,APPROACH,FLY_TO_FIX,80.93,81,0.07,1203.77,-5.58,4.22,7.8,270.21,-0.001,0.1882,15.198,270.23,-3.258,0,0,0,0,0,0,0,0,269.97,0,0,0,0,0,0,0,0,0,0,0,0,0,2,2,247.81,FLYING
249,APPROACH,FLY_TO_FIX,80.91,81,0.09,1196.79,-5.52,4.26,7.8,270.21,-0.002,0.1917,15.244,270.23,-3.223,0,0,0,0,0,0,0,0,269.97,0,0,0,0,0,0,0,0,0,0,0,0,0,2,2,249.07,FLYING
250.26,APPROACH,FLY_TO_FIX,80.88,81,0.12,1189.88,-5.46,4.31,7.81,270.21,-0.003,0.1953,15.302,270.23,-3.188,0,0,0,0,0,0,0,0,269.97,0,0,0,0,0,0,0,0,0,0,0,0,0,2,2,250.33,FLYING
251.52,APPROACH,FLY_TO_FIX,80.86,81,0.14,1183.04,-5.4,4.35,7.82,270.21,-0.005,0.1986,15.373,270.23,-3.154,0,0,0,0,0,0,0,0,269.97,0,0,0,0,0,0,0,0,0,0,0,0,0,2,2,251.59,FLYING
252.78,APPROACH,FLY_TO_FIX,80.84,81,0.16,1176.28,-5.34,4.39,7.82,270.21,-0.008,0.2015,15.454,270.23,-3.12,0,0,0,0,0,0,0,0,269.97,0,0,0,0,0,0,0,0,0,0,0,0,0,2,2,252.85,FLYING
254.04,APPROACH,FLY_TO_FIX,80.82,81,0.18,1169.59,-5.29,4.43,7.82,270.21,-0.009,0.2039,15.546,270.23,-3.087,0,0,0,0,0,0,0,0,269.97,0,0,0,0,0,0,0,0,0,0,0,0,0,2,2,254.11,FLYING
255.3,APPROACH,FLY_TO_FIX,80.8,81,0.2,1162.98,-5.23,4.46,7.83,270.21,-0.01,0.2058,15.645,270.23,-3.054,0,0,0,0,0,0,0,0,269.97,0,0,0,0,0,0,0,0,0,0,0,0,0,2,2,255.37,FLYING
256.56,APPROACH,FLY_TO_FIX,80.79,81,0.21,1156.43,-5.17,4.5,7.83,270.21,-0.012,0.2071,15.749,270.23,-3.021,0,0,0,0,0,0,0,0,269.97,0,0,0,0,0,0,0,0,0,0,0,0,0,2,2,256.63,FLYING
257.82,APPROACH,FLY_TO_FIX,80.79,81,0.21,1149.96,-5.11,4.53,7.83,270.21,-0.013,0.2077,15.856,270.24,-2.988,0,0,0,0,0,0,0,0,269.97,0,0,0,0,0,0,0,0,0,0,0,0,0,2,2,257.89,FLYING
259.08,APPROACH,FLY_TO_FIX,80.78,81,0.22,1143.56,-5.06,4.57,7.82,270.21,-0.013,0.2078,15.964,270.24,-2.956,0,0,0,0,0,0,0,0,269.97,0,0,0,0,0,0,0,0,0,0,0,0,0,2,2,259.15,FLYING
260.34,APPROACH,FLY_TO_FIX,80.79,81,0.21,1137.23,-5,4.6,7.82,270.21,-0.015,0.2074,16.07,270.24,-2.925,0,0,0,0,0,0,0,0,269.97,0,0,0,0,0,0,0,0,0,0,0,0,0,2,2,260.41,FLYING
261.6,APPROACH,FLY_TO_FIX,80.8,81,0.2,1130.96,-4.95,4.63,7.82,270.21,-0.016,0.2067,16.173,270.24,-2.893,0,0,0,0,0,0,0,0,269.97,0,0,0,0,0,0,0,0,0,0,0,0,0,2,2,261.67,FLYING
262.86,APPROACH,FLY_TO_FIX,80.81,81,0.19,1124.77,-4.9,4.66,7.81,270.21,-0.016,0.2058,16.27,270.24,-2.862,0,0,0,0,0,0,0,0,269.97,0,0,0,0,0,0,0,0,0,0,0,0,0,2,2,262.93,FLYING
264.12,APPROACH,FLY_TO_FIX,80.82,81,0.18,1118.64,-4.84,4.68,7.81,270.21,-0.015,0.2048,16.36,270.24,-2.832,0,0,0,0,0,0,0,0,269.97,0,0,0,0,0,0,0,0,0,0,0,0,0,2,2,264.19,FLYING
265.38,APPROACH,FLY_TO_FIX,80.83,81,0.17,1112.57,-4.79,4.71,7.8,270.22,-0.015,0.2039,16.444,270.24,-2.801,0,0,0,0,0,0,0,0,269.97,0,0,0,0,0,0,0,0,0,0,0,0,0,2,2,265.45,FLYING
266.64,APPROACH,FLY_TO_FIX,80.85,81,0.15,1106.58,-4.74,4.74,7.8,270.22,-0.015,0.2031,16.52,270.24,-2.771,0,0,0,0,0,0,0,0,269.97,0,0,0,0,0,0,0,0,0,0,0,0,0,2,2,266.71,FLYING
267.9,APPROACH,FLY_TO_FIX,80.86,81,0.14,1100.64,-4.69,4.77,7.79,270.22,-0.014,0.2024,16.59,270.24,-2.741,0,0,0,0,0,0,0,0,269.97,0,0,0,0,0,0,0,0,0,0,0,0,0,2,2,267.97,FLYING
269.16,APPROACH,FLY_TO_FIX,80.87,81,0.13,1094.77,-4.64,4.79,7.79,270.22,-0.013,0.2021,16.654,270.24,-2.712,0,0,0,0,0,0,0,0,269.97,0,0,0,0,0,0,0,0,0,0,0,0,0,2,2,269.23,FLYING
270.42,APPROACH,FLY_TO_FIX,80.88,81,0.12,1088.97,-4.59,4.82,7.78,270.22,-0.013,0.2021,16.713,270.24,-2.683,0,0,0,0,0,0,0,0,269.97,0,0,0,0,0,0,0,0,0,0,0,0,0,2,2,270.49,FLYING
271.68,APPROACH,FLY_TO_FIX,80.89,81,0.11,1083.22,-4.54,4.85,7.78,270.22,-0.013,0.2024,16.768,270.24,-2.654,0,0,0,0,0,0,0,0,269.97,0,0,0,0,0,0,0,0,0,0,0,0,0,2,2,271.75,FLYING
272.94,APPROACH,FLY_TO_FIX,80.9,81,0.1,1077.54,-4.49,4.88,7.78,270.22,-0.013,0.203,16.82,270.24,-2.626,0,0,0,0,0,0,0,0,269.97,0,0,0,0,0,0,0,0,0,0,0,0,0,2,2,273.01,FLYING
274.2,APPROACH,FLY_TO_FIX,80.9,81,0.1,1071.92,-4.44,4.9,7.77,270.22,-0.013,0.2039,16.87,270.24,-2.598,0,0,0,0,0,0,0,0,269.97,0,0,0,0,0,0,0,0,0,0,0,0,0,2,2,274.27,FLYING
275.46,APPROACH,FLY_TO_FIX,80.9,81,0.1,1066.36,-4.39,4.93,7.77,270.22,-0.013,0.205,16.919,270.24,-2.57,0,0,0,0,0,0,0,0,269.97,0,0,0,0,0,0,0,0,0,0,0,0,0,2,2,275.53,FLYING
276.72,APPROACH,FLY_TO_FIX,80.9,81,0.1,1060.86,-4.35,4.96,7.77,270.22,-0.012,0.2063,16.969,270.24,-2.542,0,0,0,0,0,0,0,0,269.97,0,0,0,0,0,0,0,0,0,0,0,0,0,2,2,276.79,FLYING
277.98,APPROACH,FLY_TO_FIX,80.9,81,0.1,1055.42,-4.3,4.99,7.77,270.22,-0.012,0.2076,17.02,270.24,-2.515,0,0,0,0,0,0,0,0,269.97,0,0,0,0,0,0,0,0,0,0,0,0,0,2,2,278.05,FLYING
279.24,APPROACH,FLY_TO_FIX,80.9,81,0.1,1050.04,-4.25,5.02,7.77,270.22,-0.012,0.209,17.071,270.24,-2.488,0,0,0,0,0,0,0,0,269.97,0,0,0,0,0,0,0,0,0,0,0,0,0,2,2,279.31,FLYING
280.5,APPROACH,FLY_TO_FIX,80.89,81,0.11,1044.72,-4.21,5.05,7.77,270.22,-0.012,0.2103,17.125,270.24,-2.462,0,0,0,0,0,0,0,0,269.97,0,0,0,0,0,0,0,0,0,0,0,0,0,2,2,280.57,FLYING
281.76,APPROACH,FLY_TO_FIX,80.89,81,0.11,1039.45,-4.16,5.08,7.77,270.22,-0.012,0.2115,17.18,270.24,-2.435,0,0,0,0,0,0,0,0,269.97,0,0,0,0,0,0,0,0,0,0,0,0,0,2,2,281.83,FLYING
283.02,APPROACH,FLY_TO_FIX,80.89,81,0.11,1034.24,-4.12,5.1,7.77,270.22,-0.012,0.2125,17.235,270.24,-2.409,0,0,0,0,0,0,0,0,269.97,0,0,0,0,0,0,0,0,0,0,0,0,0,2,2,283.09,FLYING
284.28,APPROACH,FLY_TO_FIX,80.89,81,0.11,1029.09,-4.07,5.13,7.77,270.22,-0.012,0.2133,17.292,270.24,-2.383,0,0,0,0,0,0,0,0,269.97,0,0,0,0,0,0,0,0,0,0,0,0,0,2,2,284.35,FLYING
285.54,APPROACH,FLY_TO_FIX,80.89,81,0.11,1023.99,-4.03,5.16,7.77,270.23,-0.011,0.214,17.348,270.25,-2.358,0,0,0,0,0,0,0,0,269.97,0,0,0,0,0,0,0,0,0,0,0,0,0,2,2,285.61,FLYING
286.8,APPROACH,FLY_TO_FIX,80.89,81,0.11,1018.94,-3.99,5.18,7.77,270.23,-0.011,0.2145,17.405,270.25,-2.333,0,0,0,0,0,0,0,0,269.97,0,0,0,0,0,0,0,0,0,0,0,0,0,2,2,286.87,FLYING
288.06,APPROACH,FLY_TO_FIX,80.89,81,0.11,1013.95,-3.94,5.21,7.76,270.23,-0.011,0.2148,17.459,270.25,-2.308,0,0,0,0,0,0,0,0,269.97,0,0,0,0,0,0,0,0,0,0,0,0,0,2,2,288.13,FLYING
289.32,APPROACH,FLY_TO_FIX,80.89,81,0.11,1009.02,-3.9,5.23,7.76,270.23,-0.011,0.215,17.513,270.25,-2.283,0,0,0,0,0,0,0,0,269.97,0,0,0,0,0,0,0,0,0,0,0,0,0,2,2,289.39,FLYING
290.58,APPROACH,FLY_TO_FIX,80.9,81,0.1,1004.14,-3.86,5.26,7.76,270.23,-0.011,0.2151,17.564,270.25,-2.258,0,0,0,0,0,0,0,0,269.97,0,0,0,0,0,0,0,0,0,0,0,0,0,2,2,290.65,FLYING
291.84,APPROACH,FLY_TO_FIX,80.9,81,0.1,999.31,-3.82,5.28,7.76,270.23,-0.012,0.2151,17.613,270.25,-2.234,0,0,0,0,0,0,0,0,269.97,0,0,0,0,0,0,0,0,0,0,0,0,0,2,2,291.91,FLYING
293.1,APPROACH,FLY_TO_FIX,80.91,81,0.09,994.53,-3.78,5.3,7.75,270.23,-0.011,0.2151,17.659,270.25,-2.21,0,0,0,0,0,0,0,0,269.97,0,0,0,0,0,0,0,0,0,0,0,0,0,2,2,293.17,FLYING
294.36,APPROACH,FLY_TO_FIX,80.91,81,0.09,989.8,-3.74,5.33,7.75,270.23,-0.012,0.215,17.702,270.25,-2.187,0,0,0,0,0,0,0,0,269.97,0,0,0,0,0,0,0,0,0,0,0,0,0,2,2,294.43,FLYING
295.62,APPROACH,FLY_TO_FIX,80.92,81,0.08,985.13,-3.69,5.35,7.75,270.23,-0.011,0.2151,17.743,270.25,-2.163,0,0,0,0,0,0,0,0,269.97,0,0,0,0,0,0,0,0,0,0,0,0,0,2,2,295.69,FLYING
296.88,APPROACH,FLY_TO_FIX,80.92,81,0.08,980.5,-3.65,5.37,7.75,270.23,-0.011,0.2152,17.781,270.25,-2.14,0,0,0,0,0,0,0,0,269.97,0,0,0,0,0,0,0,0,0,0,0,0,0,2,2,296.95,FLYING
298.14,APPROACH,FLY_TO_FIX,80.93,81,0.07,975.93,-3.62,5.39,7.74,270.23,-0.011,0.2154,17.817,270.25,-2.117,0,0,0,0,0,0,0,0,269.97,0,0,0,0,0,0,0,0,0,0,0,0,0,2,2,298.21,FLYING
299.4,APPROACH,FLY_TO_FIX,80.93,81,0.07,971.4,-3.58,5.42,7.74,270.23,-0.011,0.2156,17.851,270.25,-2.094,0,0,0,0,0,0,0,0,269.97,0,0,0,0,0,0,0,0,0,0,0,0,0,2,2,299.47,FLYING
300.66,APPROACH,FLY_TO_FIX,80.93,81,0.07,966.92,-3.54,5.44,7.74,270.23,-0.011,0.216,17.884,270.25,-2.072,0,0,0,0,0,0,0,0,269.97,0,0,0,0,0,0,0,0,0,0,0,0,0,2,2,300.73,FLYING
301.92,APPROACH,FLY_TO_FIX,80.94,81,0.06,962.49,-3.5,5.46,7.74,270.23,-0.011,0.2165,17.916,270.25,-2.05,0,0,0,0,0,0,0,0,269.97,0,0,0,0,0,0,0,0,0,0,0,0,0,2,2,301.99,FLYING
303.18,APPROACH,FLY_TO_FIX,80.94,81,0.06,958.11,-3.46,5.48,7.74,270.23,-0.011,0.217,17.947,270.25,-2.028,0,0,0,0,0,0,0,0,269.97,0,0,0,0,0,0,0,0,0,0,0,0,0,2,2,303.25,FLYING
304.44,APPROACH,FLY_TO_FIX,80.94,81,0.06,953.77,-3.43,5.51,7.73,270.23,-0.011,0.2177,17.978,270.25,-2.006,0,0,0,0,0,0,0,0,269.97,0,0,0,0,0,0,0,0,0,0,0,0,0,2,2,304.51,FLYING
305.7,APPROACH,FLY_TO_FIX,80.94,81,0.06,949.48,-3.39,5.53,7.73,270.23,-0.011,0.2183,18.01,270.25,-1.985,0,0,0,0,0,0,0,0,269.97,0,0,0,0,0,0,0,0,0,0,0,0,0,2,2,305.77,FLYING
306.96,APPROACH,FLY_TO_FIX,80.94,81,0.06,945.24,-3.35,5.55,7.73,270.23,-0.011,0.219,18.041,270.25,-1.964,0,0,0,0,0,0,0,0,269.97,0,0,0,0,0,0,0,0,0,0,0,0,0,2,2,307.03,FLYING
308.22,APPROACH,FLY_TO_FIX,80.94,81,0.06,941.05,-3.32,5.57,7.73,270.23,-0.011,0.2197,18.074,270.25,-1.943,0,0,0,0,0,0,0,0,269.97,0,0,0,0,0,0,0,0,0,0,0,0,0,2,2,308.29,FLYING
309.48,APPROACH,FLY_TO_FIX,80.93,81,0.07,936.89,-3.28,5.6,7.73,270.23,-0.011,0.2203,18.106,270.25,-1.922,0,0,0,0,0,0,0,0,269.97,0,0,0,0,0,0,0,0,0,0,0,0,0,2,2,309.55,FLYING
310.74,APPROACH,FLY_TO_FIX,80.93,81,0.07,932.79,-3.25,5.62,7.73,270.23,-0.01,0.221,18.14,270.25,-1.901,0,0,0,0,0,0,0,0,269.97,0,0,0,0,0,0,0,0,0,0,0,0,0,2,2,310.81,FLYING
312,APPROACH,FLY_TO_FIX,80.93,81,0.07,928.73,-3.21,5.64,7.73,270.23,-0.011,0.2216,18.174,270.26,-1.881,0,0,0,0,0,0,0,0,269.97,0,0,0,0,0,0,0,0,0,0,0,0,0,2,2,312.07,FLYING
313.26,APPROACH,FLY_TO_FIX,80.93,81,0.07,924.71,-3.18,5.66,7.73,270.23,-0.011,0.2221,18.208,270.26,-1.861,0,0,0,0,0,0,0,0,269.97,0,0,0,0,0,0,0,0,0,0,0,0,0,2,2,313.33,FLYING
314.52,APPROACH,FLY_TO_FIX,80.93,81,0.07,920.73,-3.14,5.68,7.73,270.23,-0.01,0.2225,18.243,270.26,-1.841,0,0,0,0,0,0,0,0,269.97,0,0,0,0,0,0,0,0,0,0,0,0,0,2,2,314.59,FLYING
315.78,APPROACH,FLY_TO_FIX,80.93,81,0.07,916.8,-3.11,5.7,7.73,270.23,-0.011,0.2229,18.277,270.26,-1.821,0,0,0,0,0,0,0,0,269.97,0,0,0,0,0,0,0,0,0,0,0,0,0,2,2,315.85,FLYING
317.04,APPROACH,FLY_TO_FIX,80.93,81,0.07,912.91,-3.07,5.72,7.73,270.23,-0.011,0.2232,18.312,270.26,-1.802,0,0,0,0,0,0,0,0,269.97,0,0,0,0,0,0,0,0,0,0,0,0,0,2,2,317.11,FLYING
318.3,APPROACH,FLY_TO_FIX,80.93,81,0.07,909.06,-3.04,5.74,7.73,270.23,-0.01,0.2235,18.346,270.26,-1.782,0,0,0,0,0,0,0,0,269.97,0,0,0,0,0,0,0,0,0,0,0,0,0,2,2,318.37,FLYING
319.56,APPROACH,FLY_TO_FIX,80.93,81,0.07,905.26,-3.01,5.76,7.72,270.23,-0.01,0.2238,18.38,270.26,-1.763,0,0,0,0,0,0,0,0,269.97,0,0,0,0,0,0,0,0,0,0,0,0,0,2,2,319.63,FLYING
320.82,APPROACH,FLY_TO_FIX,80.93,81,0.07,901.49,-2.97,5.78,7.72,270.23,-0.011,0.224,18.413,270.26,-1.745,0,0,0,0,0,0,0,0,269.97,0,0,0,0,0,0,0,0,0,0,0,0,0,2,2,320.89,FLYING
322.08,APPROACH,FLY_TO_FIX,80.94,81,0.06,897.77,-2.94,5.8,7.72,270.24,-0.011,0.2243,18.445,270.26,-1.726,0,0,0,0,0,0,0,0,269.97,0,0,0,0,0,0,0,0,0,0,0,0,0,2,2,322.15,FLYING
323.34,APPROACH,FLY_TO_FIX,80.94,81,0.06,894.09,-2.91,5.82,7.72,270.24,-0.011,0.2245,18.476,270.26,-1.707,0,0,0,0,0,0,0,0,269.97,0,0,0,0,0,0,0,0,0,0,0,0,0,2,2,323.41,FLYING
324.6,APPROACH,FLY_TO_FIX,80.94,81,0.06,890.44,-2.88,5.84,7.72,270.24,-0.011,0.2247,18.507,270.26,-1.689,0,0,0,0,0,0,0,0,269.97,0,0,0,0,0,0,0,0,0,0,0,0,0,2,2,324.67,FLYING
325.86,APPROACH,FLY_TO_FIX,80.94,81,0.06,886.84,-2.85,5.86,7.72,270.24,-0.011,0.2249,18.537,270.26,-1.671,0,0,0,0,0,0,0,0,269.97,0,0,0,0,0,0,0,0,0,0,0,0,0,2,2,325.93,FLYING
327.12,APPROACH,FLY_TO_FIX,80.94,81,0.06,883.28,-2.82,5.88,7.72,270.24,-0.01,0.2252,18.567,270.26,-1.653,0,0,0,0,0,0,0,0,269.97,0,0,0,0,0,0,0,0,0,0,0,0,0,2,2,327.19,FLYING
328.38,APPROACH,FLY_TO_FIX,80.94,81,0.06,879.75,-2.79,5.89,7.71,270.24,-0.011,0.2255,18.595,270.26,-1.636,0,0,0,0,0,0,0,0,269.97,0,0,0,0,0,0,0,0,0,0,0,0,0,2,2,328.45,FLYING
329.64,APPROACH,FLY_TO_FIX,80.94,81,0.06,876.26,-2.76,5.91,7.71,270.24,-0.01,0.2258,18.624,270.26,-1.618,0,0,0,0,0,0,0,0,269.97,0,0,0,0,0,0,0,0,0,0,0,0,0,2,2,329.71,FLYING
330.9,APPROACH,FLY_TO_FIX,80.94,81,0.06,872.81,-2.73,5.93,7.71,270.24,-0.01,0.2262,18.652,270.26,-1.601,0,0,0,0,0,0,0,0,269.97,0,0,0,0,0,0,0,0,0,0,0,0,0,2,2,330.97,FLYING
332.15,APPROACH,FLY_TO_FIX,80.94,81,0.06,869.42,-2.7,5.95,7.71,270.24,-0.011,0.2266,18.68,270.26,-1.584,0,0,0,0,0,0,0,0,269.97,0,0,0,0,0,0,0,0,0,0,0,0,0,2,2,332.22,FLYING
333.26,APPROACH,FLY_TO_FIX,80.94,81,0.06,866.45,-2.67,5.96,7.71,270.24,-0.011,0.227,18.708,270.26,-1.569,0,0,0,0,0,0,0,0,269.97,0,0,0,0,0,0,0,0,0,0,0,0,0,2,2,333.32,FLYING
334.12,APPROACH,FLY_TO_FIX,80.94,81,0.06,864.18,-2.65,5.97,7.7,270.24,-0.012,0.2276,18.737,270.26,-1.557,0,0,0,0,0,0,0,0,269.97,0,0,0,0,0,0,0,0,0,0,0,0,0,2,2,334.16,FLYING
334.87,APPROACH,FLY_TO_FIX,80.94,81,0.06,862.2,-2.63,5.98,7.7,270.24,-0.013,0.228,18.766,270.26,-1.547,0,0,0,0,0,0,0,0,269.97,0,0,0,0,0,0,0,0,0,0,0,0,0,2,2,334.91,FLYING
335.61,APPROACH,FLY_TO_FIX,80.94,81,0.06,860.26,-2.61,5.99,7.7,270.24,-0.013,0.2285,18.795,270.27,-1.537,0,0,0,0,0,0,0,0,269.97,0,0,0,0,0,0,0,0,0,0,0,0,0,2,2,335.65,FLYING
336.35,APPROACH,FLY_TO_FIX,80.94,81,0.06,858.34,-2.6,6,7.7,270.24,-0.013,0.2289,18.824,270.27,-1.528,0,0,0,0,0,0,0,0,269.97,0,0,0,0,0,0,0,0,0,0,0,0,0,2,2,336.39,FLYING
337.09,APPROACH,FLY_TO_FIX,80.94,81,0.06,856.43,-2.58,6.02,7.7,270.24,-0.013,0.2293,18.854,270.27,-1.518,0,0,0,0,0,0,0,0,269.97,0,0,0,0,0,0,0,0,0,0,0,0,0,2,2,337.13,FLYING
337.83,APPROACH,FLY_TO_FIX,80.94,81,0.06,854.53,-2.56,6.02,7.7,270.24,-0.013,0.2297,18.884,270.27,-1.509,0,0,0,0,0,0,0,0,269.97,0,0,0,0,0,0,0,0,0,0,0,0,0,2,2,337.87,FLYING
338.57,APPROACH,FLY_TO_FIX,80.94,81,0.06,852.64,-2.54,6.03,7.7,270.24,-0.013,0.23,18.914,270.27,-1.499,0,0,0,0,0,0,0,0,269.97,0,0,0,0,0,0,0,0,0,0,0,0,0,2,2,338.61,FLYING
339.31,APPROACH,FLY_TO_FIX,80.94,81,0.06,850.77,-2.53,6.04,7.7,270.24,-0.013,0.2303,18.943,270.27,-1.49,0,0,0,0,0,0,0,0,269.97,0,0,0,0,0,0,0,0,0,0,0,0,0,2,2,339.35,FLYING
340.05,APPROACH,FLY_TO_FIX,80.94,81,0.06,848.91,-2.51,6.05,7.7,270.24,-0.013,0.2305,18.973,270.27,-1.481,0,0,0,0,0,0,0,0,269.97,0,0,0,0,0,0,0,0,0,0,0,0,0,2,2,340.09,FLYING
340.79,APPROACH,FLY_TO_FIX,80.94,81,0.06,847.06,-2.49,6.06,7.7,270.24,-0.013,0.2308,19.001,270.27,-1.471,0,0,0,0,0,0,0,0,269.97,0,0,0,0,0,0,0,0,0,0,0,0,0,2,2,340.83,FLYING
341.55,APPROACH,FLY_TO_FIX,80.94,81,0.06,845.17,-2.48,6.07,7.7,270.24,-0.013,0.231,19.03,270.27,-1.462,0,0,0,0,0,0,0,0,269.97,0,0,0,0,0,0,0,0,0,0,0,0,0,2,2,341.59,FLYING
342.29,APPROACH,FLY_TO_FIX,80.95,81,0.05,843.34,-2.46,6.08,7.69,270.24,-0.013,0.2311,19.057,270.27,-1.453,0,0,0,0,0,0,0,0,269.97,0,0,0,0,0,0,0,0,0,0,0,0,0,2,2,342.33,FLYING
342.99,APPROACH,FLY_TO_FIX,80.95,81,0.05,841.63,-2.44,6.09,7.69,270.24,-0.013,0.2312,19.084,270.27,-1.444,0,0,0,0,0,0,0,0,269.97,0,0,0,0,0,0,0,0,0,0,0,0,0,2,2,343.03,FLYING
343.69,APPROACH,FLY_TO_FIX,80.95,81,0.05,839.93,-2.43,6.1,7.69,270.24,-0.013,0.2314,19.109,270.27,-1.436,0,0,0,0,0,0,0,0,269.97,0,0,0,0,0,0,0,0,0,0,0,0,0,2,2,343.73,FLYING
344.41,APPROACH,FLY_TO_FIX,80.95,81,0.05,838.18,-2.41,6.11,7.69,270.24,-0.013,0.2314,19.134,270.27,-1.427,0,0,0,0,0,0,0,0,269.97,0,0,0,0,0,0,0,0,0,0,0,0,0,2,2,344.45,FLYING
345.19,APPROACH,FLY_TO_FIX,80.95,81,0.05,836.31,-2.4,6.12,7.69,270.24,-0.013,0.2315,19.158,270.27,-1.418,0,0,0,0,0,0,0,0,269.97,0,0,0,0,0,0,0,0,0,0,0,0,0,2,2,345.23,FLYING
345.93,APPROACH,FLY_TO_FIX,80.96,81,0.04,834.54,-2.38,6.13,7.69,270.24,-0.013,0.2315,19.18,270.27,-1.409,0,0,0,0,0,0,0,0,269.97,0,0,0,0,0,0,0,0,0,0,0,0,0,2,2,345.97,FLYING
346.67,APPROACH,FLY_TO_FIX,80.96,81,0.04,832.79,-2.37,6.14,7.69,270.24,-0.013,0.2315,19.2,270.27,-1.4,0,0,0,0,0,0,0,0,269.97,0,0,0,0,0,0,0,0,0,0,0,0,0,2,2,346.71,FLYING
347.41,APPROACH,FLY_TO_FIX,80.96,81,0.04,831.04,-2.35,6.15,7.68,270.24,-0.013,0.2315,19.22,270.27,-1.391,0,0,0,0,0,0,0,0,269.97,0,0,0,0,0,0,0,0,0,0,0,0,0,2,2,347.45,FLYING
348.15,APPROACH,FLY_TO_FIX,80.96,81,0.04,829.31,-2.34,6.15,7.68,270.24,-0.013,0.2315,19.237,270.27,-1.382,0,0,0,0,0,0,0,0,269.97,0,0,0,0,0,0,0,0,0,0,0,0,0,2,2,348.19,FLYING
348.89,APPROACH,FLY_TO_FIX,80.97,81,0.03,827.59,-2.32,6.16,7.68,270.24,-0.013,0.2315,19.254,270.27,-1.374,0,0,0,0,0,0,0,0,269.97,0,0,0,0,0,0,0,0,0,0,0,0,0,2,2,348.93,FLYING
349.63,APPROACH,FLY_TO_FIX,80.97,81,0.03,825.88,-2.3,6.17,7.68,270.24,-0.013,0.2314,19.268,270.27,-1.365,0,0,0,0,0,0,0,0,269.97,0,0,0,0,0,0,0,0,0,0,0,0,0,2,2,349.67,FLYING
350.41,APPROACH,FLY_TO_FIX,80.97,81,0.03,824.09,-2.29,6.18,7.68,270.24,-0.012,0.2314,19.282,270.27,-1.356,0,0,0,0,0,0,0,0,269.97,0,0,0,0,0,0,0,0,0,0,0,0,0,2,2,350.45,FLYING
351.15,APPROACH,FLY_TO_FIX,80.98,81,0.02,822.41,-2.27,6.19,7.68,270.24,-0.012,0.2313,19.293,270.27,-1.348,0,0,0,0,0,0,0,0,269.97,0,0,0,0,0,0,0,0,0,0,0,0,0,2,2,351.19,FLYING
351.89,APPROACH,FLY_TO_FIX,80.98,81,0.02,820.73,-2.26,6.2,7.68,270.24,-0.012,0.2313,19.304,270.27,-1.34,0,0,0,0,0,0,0,0,269.97,0,0,0,0,0,0,0,0,0,0,0,0,0,2,2,351.93,FLYING
352.63,APPROACH,FLY_TO_FIX,80.98,81,0.02,819.07,-2.24,6.21,7.67,270.24,-0.012,0.2313,19.313,270.27,-1.331,0,0,0,0,0,0,0,0,269.97,0,0,0,0,0,0,0,0,0,0,0,0,0,2,2,352.67,FLYING
353.37,APPROACH,FLY_TO_FIX,80.98,81,0.02,817.41,-2.23,6.21,7.67,270.24,-0.012,0.2313,19.321,270.27,-1.323,0,0,0,0,0,0,0,0,269.97,0,0,0,0,0,0,0,0,0,0,0,0,0,2,2,353.41,FLYING
354.11,APPROACH,FLY_TO_FIX,80.99,81,0.01,815.77,-2.21,6.22,7.67,270.24,-0.012,0.2313,19.328,270.27,-1.315,0,0,0,0,0,0,0,0,269.97,0,0,0,0,0,0,0,0,0,0,0,0,0,2,2,354.15,FLYING
354.85,APPROACH,FLY_TO_FIX,80.99,81,0.01,814.14,-2.2,6.23,7.67,270.24,-0.012,0.2314,19.333,270.27,-1.307,0,0,0,0,0,0,0,0,269.97,0,0,0,0,0,0,0,0,0,0,0,0,0,2,2,354.89,FLYING
355.59,APPROACH,FLY_TO_FIX,80.99,81,0.01,812.52,-2.19,6.24,7.67,270.24,-0.012,0.2314,19.338,270.28,-1.298,0,0,0,0,0,0,0,0,269.97,0,0,0,0,0,0,0,0,0,0,0,0,0,2,2,355.63,FLYING
356.35,APPROACH,FLY_TO_FIX,80.99,81,0.01,810.86,-2.17,6.25,7.67,270.24,-0.012,0.2315,19.343,270.28,-1.29,0,0,0,0,0,0,0,0,269.97,0,0,0,0,0,0,0,0,0,0,0,0,0,2,2,356.39,FLYING
357.09,APPROACH,FLY_TO_FIX,80.99,81,0.01,809.26,-2.16,6.26,7.67,270.25,-0.012,0.2316,19.346,270.28,-1.282,0,0,0,0,0,0,0,0,269.97,0,0,0,0,0,0,0,0,0,0,0,0,0,2,2,357.13,FLYING
357.83,APPROACH,FLY_TO_FIX,80.99,81,0.01,807.67,-2.14,6.26,7.67,270.25,-0.012,0.2317,19.349,270.28,-1.274,0,0,0,0,0,0,0,0,269.97,0,0,0,0,0,0,0,0,0,0,0,0,0,2,2,357.87,FLYING
358.57,APPROACH,FLY_TO_FIX,80.99,81,0.01,806.1,-2.13,6.27,7.67,270.25,-0.011,0.2318,19.352,270.28,-1.266,0,0,0,0,0,0,0,0,269.97,0,0,0,0,0,0,0,0,0,0,0,0,0,2,2,358.61,FLYING
