t_s,phase,subphase,ias_ms,vapp_ms,spd_err_ms,agl_m,vs_ms,pitch_deg,aoa_deg,hdg_deg,bank_deg,thr_cmd,thr_cur,thr_intg,at_gain,at_tau_s,at_a_up,at_a_dn,at_kp_thr,at_ki_spd,at_thr_slew,aa_hdg_cmd_deg,aa_fpa_cmd_deg,aa_fbw,aa_dir,actual_fpa_deg,ftf_hdg_err_deg,ftf_fix_idx,kos_steer_pit_deg,kos_steer_hdg_deg,aa_dir_vx,aa_dir_vy,aa_dir_vz,aa_dir_pitch_deg,aa_dir_hdg_deg,ils_loc_m,ils_gs_m,ils_dist_km,loc_corr_deg,gs_corr_deg,flare_fpa_cmd,flare_tgt_vs,flare_frac,steer_hdg_deg,steer_blend,ro_loc_corr_deg,ro_hdg_err_deg,ro_yaw_tgt,ro_yaw_scale,ro_yaw_gate,yaw_cmd,roll_cmd,pitch_cmd,ro_pitch_tgt_deg,ro_pitch_err_deg,ro_pitch_ff,ro_roll_assist,flaps_cur,flaps_tgt,asc_j_ab,asc_j_rk,asc_validity,asc_q_pa,asc_q_raw_pa,asc_mach,asc_apo_m,asc_drag_n,asc_w_prop,asc_edot_aero,asc_edot_orb,asc_pitch_bias,asc_blend,asc_spooling,asc_ab_thr_ratio,asc_ab_t_now,asc_ab_t_avail,asc_ab_ign_on,asc_ab_flameouts,asc_rk_t_now,asc_rk_t_avail,asc_rk_ign_on,asc_rk_flameouts,ship_thrust,ship_avail_thrust,ship_ign_on,ship_flameouts,ifc_raw_dt_s,ifc_dt_s,ifc_loop_n,ifc_hz_est,ifc_raw_dt_max_s,ifc_raw_dt_min_s,phase_el_s,status,craft_name,cfg_file
0.12,TAKEOFF,TO_PREFLIGHT,0.82,80,79.18,3.64,0,-0.22,0.11,91.84,0.098,0.032,0,0,0,0,0,0,0,0,0,90.4,0,1,0,-0.28,0,0,0,90,0,0,0,0,0,0,0,0,0,0,0,0,0,90.4,1,0,1.441,0,0,1,0,0,0,0,0,0,0,0,2,0,0,VALID,0,0,0,0,0,1,0,0,0,0,0,0,0,0,0,0,0,0,0,0,0,887.79,2,0,0.08,0.08,1,3.45,0.08,0.02,0.04,LANDED,X10-G,0:/Integrated Flight Computer/aircraft/x10_g_cfg.ks (inferred preloaded)
0.38,TAKEOFF,TO_PREFLIGHT,0.82,80,79.18,3.64,0,-0.23,-0.07,91.89,0.097,0.12,0,0,0,0,0,0,0,0,0,90.4,0,1,0,-0.1,0,0,0,90,0,0,0,0,0,0,0,0,0,0,0,0,0,90.4,1,0,1.46,0,0,1,0,0,0,0,0,0,0,1,2,0,0,VALID,0,0,0,0,0,1,0,0,0,0,0,0,0,0,0,0,0,0,0,0,2.07,887.79,2,0,0.04,0.04,6,19.23,0.12,0.04,0.3,LANDED,X10-G,0:/Integrated Flight Computer/aircraft/x10_g_cfg.ks (inferred preloaded)
0.64,TAKEOFF,TO_PREFLIGHT,0.74,80,79.26,3.63,0,-0.26,-0.62,91.95,0.097,0.224,0,0,0,0,0,0,0,0,0,90.4,0,1,0,0.25,0,0,0,90,0,0,0,0,0,0,0,0,0,0,0,0,0,90.4,1,0,1.46,0,0,1,0,0,0,0,0,0,0,1,2,0,0,VALID,0,0,0,0,0,1,0,0,0,0,0,0,0,0,0,0,0,0,0,0,8.5,887.79,2,0,0.04,0.04,11,19.23,0.08,0.04,0.56,LANDED,X10-G,0:/Integrated Flight Computer/aircraft/x10_g_cfg.ks (inferred preloaded)
0.94,TAKEOFF,TO_PREFLIGHT,0.52,80,79.48,3.62,0,-0.28,0.23,92,0.097,0.344,0,0,0,0,0,0,0,0,0,90.4,0,1,0,-0.25,0,0,0,90,0,0,0,0,0,0,0,0,0,0,0,0,0,90.4,1,0,1.46,0,0,1,0,0,0,0,0,0,0,2,2,0,0,VALID,0,0,0,0,0,1,0,0,0,0,0,0,0,0,0,0,0,0,0,0,21.3,887.79,2,0,0.06,0.06,16,16.67,0.08,0.04,0.86,LANDED,X10-G,0:/Integrated Flight Computer/aircraft/x10_g_cfg.ks (inferred preloaded)
1.24,TAKEOFF,TO_PREFLIGHT,0.22,80,79.78,3.62,0,-0.3,-1.11,92.05,0.096,0.464,0,0,0,0,0,0,0,0,0,90.4,0,1,0,0.18,0,0,0,90,0,0,0,0,0,0,0,0,0,0,0,0,0,90.4,1,0,1.46,0,0,1,0,0,0,0,0,0,0,2,2,0,0,VALID,0,0,0,0,0,1,0,0,0,0,0,0,0,0,0,0,0,0,0,0,39.68,887.79,2,0,0.08,0.08,22,20,0.08,0.04,1.16,LANDED,X10-G,0:/Integrated Flight Computer/aircraft/x10_g_cfg.ks (inferred preloaded)
1.52,TAKEOFF,TO_PREFLIGHT,0.03,80,79.97,3.64,-0.03,-0.22,46.89,92.05,0.094,0.576,0,0,0,0,0,0,0,0,0,90.4,0,1,0,-1.74,0,0,0,90,0,0,0,0,0,0,0,0,0,0,0,0,0,90.4,1,0,1.46,0,0,1,0,0,0,0,0,0,0,2,2,0,0,VALID,0,0,0,0,0,1,0,0,0,0,0,0,0,0,0,0,0,0,0,0,61.37,887.79,2,0,0.04,0.04,28,21.43,0.08,0.04,1.44,LANDED,X10-G,0:/Integrated Flight Computer/aircraft/x10_g_cfg.ks (inferred preloaded)
1.8,TAKEOFF,TO_PREFLIGHT,0.02,80,79.98,3.64,0.02,-0.2,-21.83,92.05,0.097,0.688,0,0,0,0,0,0,0,0,0,90.4,0,1,0,1.12,0,0,0,90,0,0,0,0,0,0,0,0,0,0,0,0,0,90.4,1,0,1.46,0,0,1,0,0,0,0,0,0,0,2,2,0,0,VALID,0,0,0,0,0,1,0,0,0,0,0,0,0,0,0,0,0,0,0,0,87.28,887.79,2,0,0.04,0.04,33,17.86,0.08,0.04,1.72,LANDED,X10-G,0:/Integrated Flight Computer/aircraft/x10_g_cfg.ks (inferred preloaded)
2.06,TAKEOFF,TO_PREFLIGHT,0.07,80,79.93,3.62,0.02,-0.29,-17.47,92.05,0.098,0.792,0,0,0,0,0,0,0,0,0,90.4,0,1,0,0.88,0,0,0,90,0,0,0,0,0,0,0,0,0,0,0,0,0,90.4,1,0,1.46,0,0,1,0,0,0,0,0,0,0,2,2,0,0,VALID,0,0,0,0,0,1,0,0,0,0,0,0,0,0,0,0,0,0,0,0,114.99,887.78,2,0,0.04,0.04,38,19.23,0.08,0.04,1.98,LANDED,X10-G,0:/Integrated Flight Computer/aircraft/x10_g_cfg.ks (inferred preloaded)
2.32,TAKEOFF,TO_PREFLIGHT,0.04,80,79.96,3.62,-0.02,-0.27,35.84,92.05,0.096,0.896,0,0,0,0,0,0,0,0,0,90.4,0,1,0,-1.13,0,0,0,90,0,0,0,0,0,0,0,0,0,0,0,0,0,90.4,1,0,1.46,0,0,1,0,0,0,0,0,0,0,2,2,0,0,VALID,0,0,0,0,0,1,0,0,0,0,0,0,0,0,0,0,0,0,0,0,145.92,887.78,2,0,0.06,0.06,42,15.38,0.08,0.04,2.24,LANDED,X10-G,0:/Integrated Flight Computer/aircraft/x10_g_cfg.ks (inferred preloaded)
2.58,TAKEOFF,TO_PREFLIGHT,0.03,80,79.97,3.63,0.01,-0.25,-7.02,92.05,0.095,1,0,0,0,0,0,0,0,0,0,90.4,0,1,0,0.43,0,0,0,90,0,0,0,0,0,0,0,0,0,0,0,0,0,90.4,1,0,1.46,0,0,1,0,0,0,0,0,0,0,2,2,0,0,VALID,0,0,0,0,0,1,0,0,0,0,0,0,0,0,0,0,0,0,0,0,179.91,887.78,2,0,0.06,0.06,46,15.38,0.08,0.04,2.5,LANDED,X10-G,0:/Integrated Flight Computer/aircraft/x10_g_cfg.ks (inferred preloaded)
2.84,TAKEOFF,TO_PREFLIGHT,0.07,80,79.93,3.62,0.01,-0.3,-8.08,92.05,0.097,1,0,0,0,0,0,0,0,0,0,90.4,0,1,0,0.54,0,0,0,90,0,0,0,0,0,0,0,0,0,0,0,0,0,90.4,1,0,1.46,0,0,1,0,0,0,0,0,0,0,2,2,0,0,VALID,0,0,0,0,0,1,0,0,0,0,0,0,0,0,0,0,0,0,0,0,215.69,887.78,2,0,0.06,0.06,50,15.38,0.08,0.04,2.76,LANDED,X10-G,0:/Integrated Flight Computer/aircraft/x10_g_cfg.ks (inferred preloaded)
3.1,TAKEOFF,TO_PREFLIGHT,0.07,80,79.93,3.62,-0.01,-0.3,5.38,92.05,0.097,1,0,0,0,0,0,0,0,0,0,90.4,0,1,0,-0.44,0,0,0,90,0,0,0,0,0,0,0,0,0,0,0,0,0,90.4,1,0,1.46,0,0,1,0,0,0,0,0,0,0,2,2,0,0,VALID,0,0,0,0,0,1,0,0,0,0,0,0,0,0,0,0,0,0,0,0,249.81,887.78,2,0,0.06,0.06,54,15.38,0.08,0.04,3.02,LANDED,X10-G,0:/Integrated Flight Computer/aircraft/x10_g_cfg.ks (inferred preloaded)
3.36,TAKEOFF,TO_PREFLIGHT,0.08,80,79.92,3.62,0,-0.3,-1.74,92.05,0.096,1,0,0,0,0,0,0,0,0,0,90.4,0,1,0,0.17,0,0,0,90,0,0,0,0,0,0,0,0,0,0,0,0,0,90.4,1,0,1.46,0,0,1,0,0,0,0,0,0,0,2,2,0,0,VALID,0,0,0,0,0,1,0,0,0,0,0,0,0,0,0,0,0,0,0,0,282.2,887.78,2,0,0.06,0.06,58,15.38,0.08,0.04,3.28,LANDED,X10-G,0:/Integrated Flight Computer/aircraft/x10_g_cfg.ks (inferred preloaded)
3.62,TAKEOFF,TO_PREFLIGHT,0.1,80,79.9,3.61,0,-0.32,-2.17,92.05,0.096,1,0,0,0,0,0,0,0,0,0,90.4,0,1,0,0.17,0,0,0,90,0,0,0,0,0,0,0,0,0,0,0,0,0,90.4,1,0,1.46,0,0,1,0,0,0,0,0,0,0,2,2,0,0,VALID,0,0,0,0,0,1,0,0,0,0,0,0,0,0,0,0,0,0,0,0,312.95,887.78,2,0,0.06,0.06,62,15.38,0.08,0.04,3.54,LANDED,X10-G,0:/Integrated Flight Computer/aircraft/x10_g_cfg.ks (inferred preloaded)
3.88,TAKEOFF,TO_PREFLIGHT,0.11,80,79.89,3.61,0,-0.33,0.11,92.05,0.096,1,0,0,0,0,0,0,0,0,0,90.4,0,1,0,-0.05,0,0,0,90,0,0,0,0,0,0,0,0,0,0,0,0,0,90.4,1,0,1.46,0,0,1,0,0,0,0,0,0,0,2,2,0,0,VALID,0,0,0,0,0,1,0,0,0,0,0,0,0,0,0,0,0,0,0,0,342.13,887.78,2,0,0.06,0.06,66,15.38,0.08,0.04,3.8,LANDED,X10-G,0:/Integrated Flight Computer/aircraft/x10_g_cfg.ks (inferred preloaded)
4.14,TAKEOFF,TO_PREFLIGHT,0.11,80,79.89,3.61,0,-0.33,-0.27,92.06,0.096,1,0,0,0,0,0,0,0,0,0,90.4,0,1,0,0,0,0,0,90,0,0,0,0,0,0,0,0,0,0,0,0,0,90.4,1,0,1.46,0,0,1,0,0,0,0,0,0,0,2,2,0,0,VALID,0,0,0,0,0,1,0,0,0,0,0,0,0,0,0,0,0,0,0,0,369.83,887.78,2,0,0.06,0.06,70,15.38,0.08,0.04,4.06,LANDED,X10-G,0:/Integrated Flight Computer/aircraft/x10_g_cfg.ks (inferred preloaded)
4.4,TAKEOFF,TO_PREFLIGHT,0.12,80,79.88,3.61,0,-0.34,-0.56,92.06,0.096,1,0,0,0,0,0,0,0,0,0,90.4,0,1,0,0.03,0,0,0,90,0,0,0,0,0,0,0,0,0,0,0,0,0,90.4,1,0,1.46,0,0,1,0,0,0,0,0,0,0,2,2,0,0,VALID,0,0,0,0,0,1,0,0,0,0,0,0,0,0,0,0,0,0,0,0,396.13,887.78,2,0,0.06,0.06,74,15.38,0.08,0.04,4.32,LANDED,X10-G,0:/Integrated Flight Computer/aircraft/x10_g_cfg.ks (inferred preloaded)
4.66,TAKEOFF,TO_PREFLIGHT,0.13,80,79.87,3.61,0,-0.34,-0.15,92.06,0.096,1,0,0,0,0,0,0,0,0,0,90.4,0,1,0,-0.03,0,0,0,90,0,0,0,0,0,0,0,0,0,0,0,0,0,90.4,1,0,1.46,0,0,1,0,0,0,0,0,0,0,2,2,0,0,VALID,0,0,0,0,0,1,0,0,0,0,0,0,0,0,0,0,0,0,0,0,421.09,887.78,2,0,0.06,0.06,78,15.38,0.08,0.04,4.58,LANDED,X10-G,0:/Integrated Flight Computer/aircraft/x10_g_cfg.ks (inferred preloaded)
4.92,TAKEOFF,TO_PREFLIGHT,0.14,80,79.86,3.61,0,-0.34,-0.18,92.07,0.096,1,0,0,0,0,0,0,0,0,0,90.4,0,1,0,-0.03,0,0,0,90,0,0,0,0,0,0,0,0,0,0,0,0,0,90.4,1,0,1.46,0,0,1,0,0,0,0,0,0,0,2,2,0,0,VALID,0,0,0,0,0,1,0,0,0,0,0,0,0,0,0,0,0,0,0,0,444.78,887.77,2,0,0.06,0.06,82,15.38,0.08,0.04,4.84,LANDED,X10-G,0:/Integrated Flight Computer/aircraft/x10_g_cfg.ks (inferred preloaded)
5.18,TAKEOFF,TO_PREFLIGHT,0.15,80,79.85,3.6,0,-0.35,-0.25,92.07,0.096,1,0,0,0,0,0,0,0,0,0,90.4,0,1,0,-0.02,0,0,0,90,0,0,0,0,0,0,0,0,0,0,0,0,0,90.4,1,0,1.46,0,0,1,0,0,0,0,0,0,0,2,2,0,0,VALID,0,0,0,0,0,1,0,0,0,0,0,0,0,0,0,0,0,0,0,0,467.27,887.77,2,0,0.06,0.06,86,15.38,0.08,0.04,5.1,LANDED,X10-G,0:/Integrated Flight Computer/aircraft/x10_g_cfg.ks (inferred preloaded)
5.44,TAKEOFF,TO_PREFLIGHT,0.16,80,79.84,3.6,0,-0.35,-0.17,92.08,0.096,1,0,0,0,0,0,0,0,0,0,90.4,0,1,0,-0.03,0,0,0,90,0,0,0,0,0,0,0,0,0,0,0,0,0,90.4,1,0,1.46,0,0,1,0,0,0,0,0,0,0,2,2,0,0,VALID,0,0,0,0,0,1,0,0,0,0,0,0,0,0,0,0,0,0,0,0,488.62,887.77,2,0,0.06,0.06,90,15.38,0.08,0.04,5.36,LANDED,X10-G,0:/Integrated Flight Computer/aircraft/x10_g_cfg.ks (inferred preloaded)
5.7,TAKEOFF,TO_PREFLIGHT,0.17,80,79.83,3.6,0,-0.35,-0.21,92.08,0.096,1,0,0,0,0,0,0,0,0,0,90.4,0,1,0,-0.02,0,0,0,90,0,0,0,0,0,0,0,0,0,0,0,0,0,90.4,1,0,1.46,0,0,1,0,0,0,0,0,0,0,2,2,0,0,VALID,0,0,0,0,0,1,0,0,0,0,0,0,0,0,0,0,0,0,0,0,508.89,887.77,2,0,0.06,0.06,94,15.38,0.08,0.04,5.62,LANDED,X10-G,0:/Integrated Flight Computer/aircraft/x10_g_cfg.ks (inferred preloaded)
5.96,TAKEOFF,TO_PREFLIGHT,0.17,80,79.83,3.6,0,-0.36,-0.24,92.09,0.096,1,0,0,0,0,0,0,0,0,0,90.4,0,1,0,-0.03,0,0,0,90,0,0,0,0,0,0,0,0,0,0,0,0,0,90.4,1,0,1.46,0,0,1,0,0,0,0,0,0,0,2,2,0,0,VALID,0,0,0,0,0,1,0,0,0,0,0,0,0,0,0,0,0,0,0,0,528.12,887.77,2,0,0.06,0.06,98,15.38,0.08,0.04,5.88,LANDED,X10-G,0:/Integrated Flight Computer/aircraft/x10_g_cfg.ks (inferred preloaded)
6.22,TAKEOFF,TO_PREFLIGHT,0.18,80,79.82,3.6,0,-0.36,-0.06,92.1,0.097,1,0,0,0,0,0,0,0,0,0,90.4,0,1,0,-0.05,0,0,0,90,0,0,0,0,0,0,0,0,0,0,0,0,0,90.4,1,0,1.46,0,0,1,0,0,0,0,0,0,0,2,2,0,0,VALID,0,0,0,0,0,1,0,0,0,0,0,0,0,0,0,0,0,0,0,0,546.38,887.77,2,0,0.06,0.06,102,15.38,0.08,0.04,6.14,LANDED,X10-G,0:/Integrated Flight Computer/aircraft/x10_g_cfg.ks (inferred preloaded)
6.48,TAKEOFF,TO_PREFLIGHT,0.19,80,79.81,3.6,0,-0.36,-0.25,92.1,0.098,1,0,0,0,0,0,0,0,0,0,90.4,0,1,0,-0.02,0,0,0,90,0,0,0,0,0,0,0,0,0,0,0,0,0,90.4,1,0,1.46,0,0,1,0,0,0,0,0,0,0,2,2,0,0,VALID,0,0,0,0,0,1,0,0,0,0,0,0,0,0,0,0,0,0,0,0,563.71,887.77,2,0,0.06,0.06,106,15.38,0.08,0.04,6.4,LANDED,X10-G,0:/Integrated Flight Computer/aircraft/x10_g_cfg.ks (inferred preloaded)
6.74,TAKEOFF,TO_PREFLIGHT,0.2,80,79.8,3.6,0,-0.36,-0.02,92.12,0.094,1,0,0,0,0,0,0,0,0,0,90.4,0,1,0,-0.08,0,0,0,90,0,0,0,0,0,0,0,0,0,0,0,0,0,90.4,1,0,1.46,0,0,1,0,0,0,0,0,0,0,2,2,0,0,VALID,0,0,0,0,0,1,0,0,0,0,0,0,0,0,0,0,0,0,0,0,580.16,887.77,2,0,0.06,0.06,110,15.38,0.08,0.04,6.66,LANDED,X10-G,0:/Integrated Flight Computer/aircraft/x10_g_cfg.ks (inferred preloaded)
7,TAKEOFF,TO_PREFLIGHT,0.23,80,79.77,3.6,0,-0.36,0,92.14,0.095,1,0,0,0,0,0,0,0,0,0,90.4,0,1,0,-0.09,0,0,0,90,0,0,0,0,0,0,0,0,0,0,0,0,0,90.4,1,0,1.46,0,0,1,0,0,0,0,0,0,0,2,2,0,0,VALID,0,0,0,0,0,1,0,0,0,0,0,0,0,0,0,0,0,0,0,0,595.78,887.77,2,0,0.06,0.06,114,15.38,0.08,0.04,6.92,LANDED,X10-G,0:/Integrated Flight Computer/aircraft/x10_g_cfg.ks (inferred preloaded)
7.26,TAKEOFF,TO_PREFLIGHT,0.29,80,79.71,3.6,0,-0.36,-0.07,92.16,0.096,1,0,0,0,0,0,0,0,0,0,90.4,0,1,0,-0.09,0,0,0,90,0,0,0,0,0,0,0,0,0,0,0,0,0,90.4,1,0,1.46,0,0,1,0,0,0,0,0,0,0,2,2,0,0,VALID,0,0,0,0,0,1,0,0,0,0,0,0,0,0,0,0,0,0,0,0,610.6,887.77,2,0,0.06,0.06,118,15.38,0.08,0.04,7.18,LANDED,X10-G,0:/Integrated Flight Computer/aircraft/x10_g_cfg.ks (inferred preloaded)
7.52,TAKEOFF,TO_PREFLIGHT,0.37,80,79.63,3.6,0,-0.36,-0.04,92.18,0.095,1,0,0,0,0,0,0,0,0,0,90.4,0,1,0,-0.14,0,0,0,90,0,0,0,0,0,0,0,0,0,0,0,0,0,90.4,1,0,1.46,0,0,1,0,0,0,0,0,0,0,2,2,0,0,VALID,0,0,0,0,0,1,0,0,0,0,0,0,0,0,0,0,0,0,0,0,624.67,887.77,2,0,0.06,0.06,122,15.38,0.08,0.04,7.44,LANDED,X10-G,0:/Integrated Flight Computer/aircraft/x10_g_cfg.ks (inferred preloaded)
7.78,TAKEOFF,TO_PREFLIGHT,0.47,80,79.53,3.6,0,-0.36,-0.02,92.2,0.094,1,0,0,0,0,0,0,0,0,0,90.4,0,1,0,-0.17,0,0,0,90,0,0,0,0,0,0,0,0,0,0,0,0,0,90.4,1,0,1.46,0,0,1,0,0,0,0,0,0,0,2,2,0,0,VALID,0,0,0,0,0,1,0,0,0,0,0,0,0,0,0,0,0,0,0,0,638.03,887.76,2,0,0.06,0.06,126,15.38,0.08,0.04,7.7,LANDED,X10-G,0:/Integrated Flight Computer/aircraft/x10_g_cfg.ks (inferred preloaded)
8.04,TAKEOFF,TO_PREFLIGHT,0.59,80,79.41,3.6,0,-0.36,-0.08,92.23,0.095,1,0,0,0,0,0,0,0,0,0,90.4,0,1,0,-0.19,0,0,0,90,0,0,0,0,0,0,0,0,0,0,0,0,0,90.4,1,0,1.46,0,0,1,0,0,0,0,0,0,0,2,2,0,0,VALID,0,0,0,0,0,1,0,0,0,0,0,0,0,0,0,0,0,0,0,0,650.71,887.76,2,0,0.06,0.06,130,15.38,0.08,0.04,7.96,LANDED,X10-G,0:/Integrated Flight Computer/aircraft/x10_g_cfg.ks (inferred preloaded)
8.3,TAKEOFF,TO_PREFLIGHT,0.71,80,79.29,3.6,0,-0.37,-0.12,92.25,0.095,1,0,0,0,0,0,0,0,0,0,90.4,0,1,0,-0.18,0,0,0,90,0,0,0,0,0,0,0,0,0,0,0,0,0,90.4,1,0,1.46,0,0,1,0,0,0,0,0,0,0,2,2,0,0,VALID,0,0,0,0,0,1,0,0,0,0,0,0,0,0,0,0,0,0,0,0,662.74,887.76,2,0,0.06,0.06,134,15.38,0.08,0.04,8.22,LANDED,X10-G,0:/Integrated Flight Computer/aircraft/x10_g_cfg.ks (inferred preloaded)
8.56,TAKEOFF,TO_PREFLIGHT,0.81,80,79.19,3.6,0,-0.37,-0.11,92.27,0.094,1,0,0,0,0,0,0,0,0,0,90.4,0,1,0,-0.23,0,0,0,90,0,0,0,0,0,0,0,0,0,0,0,0,0,90.4,1,0,1.46,0,0,1,0,0,0,0,0,0,0,2,2,0,0,VALID,0,0,0,0,0,1,0,0,0,0,0,0,0,0,0,0,0,0,0,0,674.17,887.76,2,0,0.06,0.06,138,15.38,0.08,0.04,8.48,LANDED,X10-G,0:/Integrated Flight Computer/aircraft/x10_g_cfg.ks (inferred preloaded)
8.82,TAKEOFF,TO_GROUND_ROLL,0.88,80,79.12,3.6,0,-0.38,-0.11,92.29,0.094,1,0,0,0,0,0,0,0,0,0,90.4,0,1,0,-0.26,0,0,0,90,0,0,0,0,0,0,0,0,0,0,0,0,0,90.4,1,0,1.46,0,0,1,0,0,0,0,0,0,0,2,2,0,0,VALID,0,0,0,0,0,1,0,0,0,0,0,0,0,0,0,0,0,0,0,0,685.01,887.76,2,0,0.06,0.06,142,15.38,0.08,0.04,8.74,LANDED,X10-G,0:/Integrated Flight Computer/aircraft/x10_g_cfg.ks (inferred preloaded)
9.1,TAKEOFF,TO_GROUND_ROLL,1.29,80,78.71,3.64,-0.06,-0.22,1.49,92.29,0.098,1,0,0,0,0,0,0,0,0,0,90.4,0,1,0,-2.57,0,0,0,90,0,0,0,0,0,0,0,0,-0.006,0,0,0,0,90.4,1,-0.006,1.89,-0.1896,0.563,0,-0.1896,0,0,0,0,0,0,2,2,0,0,VALID,0,0,0,0,0,1,0,0,0,0,0,0,0,0,0,0,0,0,0,0,696.07,887.75,2,0,0.06,0.06,146,14.29,0.08,0.06,9.04,LANDED,X10-G,0:/Integrated Flight Computer/aircraft/x10_g_cfg.ks (inferred preloaded)
9.38,TAKEOFF,TO_GROUND_ROLL,2.42,80,77.58,3.68,0.02,-0.08,-0.34,92.24,0.129,1,0,0,0,0,0,0,0,0,0,90.44,0,1,0,0.44,0,0,0,90,0,0,0,0,0,0,0,0,-0.008,0,0,0,0,90.44,1,-0.008,1.801,-0.1772,0.574,0,-0.1772,0,0,0,0,0,0,2,2,0,0,VALID,0,0,0,0,0,1,0,0,0,0,0,0,0,0,0,0,0,0,0,0,706.51,887.73,2,0,0.06,0.06,150,14.29,0.08,0.06,9.32,LANDED,X10-G,0:/Integrated Flight Computer/aircraft/x10_g_cfg.ks (inferred preloaded)
9.66,TAKEOFF,TO_GROUND_ROLL,3.63,80,76.37,3.68,-0.04,-0.1,0.34,92.14,0.122,1,0,0,0,0,0,0,0,0,0,90.46,0,1,0,-0.6,0,0,0,90,0,0,0,0,0,0,0,0,-0.01,0,0,0,0,90.46,1,-0.01,1.683,-0.1638,0.586,0,-0.1638,0,0,0,0,0,0,2,2,0,0,VALID,0,0,0,0,0,1,0,0,0,0,0,0,0,0,0,0,0,0,0,0,716.37,887.69,2,0,0.06,0.06,154,14.29,0.08,0.06,9.6,LANDED,X10-G,0:/Integrated Flight Computer/aircraft/x10_g_cfg.ks (inferred preloaded)
9.94,TAKEOFF,TO_GROUND_ROLL,4.87,80,75.13,3.65,-0.03,-0.16,0.16,92.02,0.112,1,0,0,0,0,0,0,0,0,0,90.47,0,1,0,-0.31,0,0,0,90,0,0,0,0,0,0,0,0,-0.012,0,0,0,0,90.47,1,-0.012,1.552,-0.151,0.599,0,-0.151,0,0,0,0,0,0,2,2,0,0,VALID,0,0,0,0,0,1,0,0,0,0,0,0,0,0,0,0,0,0,0,0,725.67,887.63,2,0,0.06,0.06,158,14.29,0.08,0.06,9.88,LANDED,X10-G,0:/Integrated Flight Computer/aircraft/x10_g_cfg.ks (inferred preloaded)
10.22,TAKEOFF,TO_GROUND_ROLL,6.12,80,73.88,3.64,-0.04,-0.23,0.06,91.89,0.123,1,0,0,0,0,0,0,0,0,0,90.47,0,1,0,-0.33,0,0,0,90,0,0,0,0,0,0,0,0,-0.016,0,0,0,0,90.47,1,-0.016,1.419,-0.1385,0.611,0,-0.1385,0,0,0,0,0,0,2,2,0,0,VALID,0,0,0,0,0,1,0,0,0,0,0,0,0,0,0,0,0,0,0,0,734.45,887.56,2,0,0.06,0.06,162,14.29,0.08,0.06,10.16,LANDED,X10-G,0:/Integrated Flight Computer/aircraft/x10_g_cfg.ks (inferred preloaded)
10.5,TAKEOFF,TO_GROUND_ROLL,7.38,80,72.62,3.64,-0.05,-0.21,0.16,91.76,0.125,1,0,0,0,0,0,0,0,0,0,90.46,0,1,0,-0.42,0,0,0,90,0,0,0,0,0,0,0,0,-0.019,0,0,0,0,90.46,1,-0.019,1.302,-0.1297,0.624,0,-0.1297,0,0,0,0,0,0,2,2,0,0,VALID,0,0,0,0,0,1,0,0,0,0,0,0,0,0,0,0,0,0,0,0,742.73,887.47,2,0,0.06,0.06,166,14.29,0.08,0.06,10.44,LANDED,X10-G,0:/Integrated Flight Computer/aircraft/x10_g_cfg.ks (inferred preloaded)
10.78,TAKEOFF,TO_GROUND_ROLL,8.66,80,71.34,3.64,-0.04,-0.2,0.07,91.64,0.121,1,0,0,0,0,0,0,0,0,0,90.46,0,1,0,-0.29,0,0,0,90,0,0,0,0,0,0,0,0,-0.023,0,0,0,0,90.46,1,-0.023,1.18,-0.118,0.637,0,-0.118,0,0,0,0,0,0,2,2,0,0,VALID,0,0,0,0,0,1,0,0,0,0,0,0,0,0,0,0,0,0,0,0,750.54,887.36,2,0,0.06,0.06,170,14.29,0.08,0.06,10.72,LANDED,X10-G,0:/Integrated Flight Computer/aircraft/x10_g_cfg.ks (inferred preloaded)
11.06,TAKEOFF,TO_GROUND_ROLL,9.96,80,70.04,3.64,-0.06,-0.23,0.09,91.51,0.122,1,0,0,0,0,0,0,0,0,0,90.45,0,1,0,-0.34,0,0,0,90,0,0,0,0,0,0,0,0,-0.027,0,0,0,0,90.45,1,-0.027,1.056,-0.1058,0.65,0,-0.1058,0,0,0,0,0,0,2,2,0,0,VALID,0,0,0,0,0,1,0,0,0,0,0,0,0,0,0,0,0,0,0,0,757.9,887.24,2,0,0.06,0.06,174,14.29,0.08,0.06,11,LANDED,X10-G,0:/Integrated Flight Computer/aircraft/x10_g_cfg.ks (inferred preloaded)
11.34,TAKEOFF,TO_GROUND_ROLL,11.26,80,68.74,3.64,-0.07,-0.21,0.11,91.39,0.126,1,0,0,0,0,0,0,0,0,0,90.44,0,1,0,-0.36,0,0,0,90,0,0,0,0,0,0,0,0,-0.031,0,0,0,0,90.44,1,-0.031,0.95,-0.0971,0.663,0,-0.0971,0,0,0,0,0,0,2,2,0,0,VALID,0,0,0,0,0,1,0,0,0,0,0,0,0,0,0,0,0,0,0,0,764.85,887.11,2,0,0.06,0.06,178,14.29,0.08,0.06,11.28,LANDED,X10-G,0:/Integrated Flight Computer/aircraft/x10_g_cfg.ks (inferred preloaded)
11.62,TAKEOFF,TO_GROUND_ROLL,12.58,80,67.42,3.64,-0.07,-0.22,0.07,91.28,0.124,1,0,0,0,0,0,0,0,0,0,90.43,0,1,0,-0.31,0,0,0,90,0,0,0,0,0,0,0,0,-0.036,0,0,0,0,90.43,1,-0.036,0.847,-0.0874,0.676,0,-0.0874,0,0,0,0,0,0,2,2,0,0,VALID,0,0,0,0,0,1,0,0,0,0,0,0,0,0,0,0,0,0,0,0,771.39,886.96,2,0,0.06,0.06,182,14.29,0.08,0.06,11.56,LANDED,X10-G,0:/Integrated Flight Computer/aircraft/x10_g_cfg.ks (inferred preloaded)
11.9,TAKEOFF,TO_GROUND_ROLL,13.91,80,66.09,3.64,-0.08,-0.22,0.1,91.18,0.122,1,0,0,0,0,0,0,0,0,0,90.42,0,1,0,-0.34,0,0,0,90,0,0,0,0,0,0,0,0,-0.04,0,0,0,0,90.42,1,-0.04,0.756,-0.0793,0.689,0,-0.0793,0,0,0,0,0,0,2,2,0,0,VALID,0,0,0,0,0,1,0,0,0,0,0,0,0,0,0,0,0,0,0,0,777.55,886.79,2,0,0.06,0.06,186,14.29,0.08,0.06,11.84,LANDED,X10-G,0:/Integrated Flight Computer/aircraft/x10_g_cfg.ks (inferred preloaded)
12.18,TAKEOFF,TO_GROUND_ROLL,15.24,80,64.76,3.64,-0.09,-0.21,0.09,91.09,0.124,1,0,0,0,0,0,0,0,0,0,90.41,0,1,0,-0.33,0,0,0,90,0,0,0,0,0,0,0,0,-0.045,0,0,0,0,90.41,1,-0.045,0.676,-0.0723,0.702,0,-0.0723,0,0,0,0,0,0,2,2,0,0,VALID,0,0,0,0,0,1,0,0,0,0,0,0,0,0,0,0,0,0,0,0,783.36,886.62,2,0,0.06,0.06,190,14.29,0.08,0.06,12.12,LANDED,X10-G,0:/Integrated Flight Computer/aircraft/x10_g_cfg.ks (inferred preloaded)
12.46,TAKEOFF,TO_GROUND_ROLL,16.59,80,63.41,3.64,-0.09,-0.22,0.08,91.01,0.122,1,0,0,0,0,0,0,0,0,0,90.4,0,1,0,-0.32,0,0,0,90,0,0,0,0,0,0,0,0,-0.049,0,0,0,0,90.4,1,-0.049,0.604,-0.0659,0.716,0,-0.0659,0,0,0,0,0,0,2,2,0,0,VALID,0,0,0,0,0,1,0,0,0,0,0,0,0,0,0,0,0,0,0,0,788.83,886.43,2,0,0.06,0.06,194,14.29,0.08,0.06,12.4,LANDED,X10-G,0:/Integrated Flight Computer/aircraft/x10_g_cfg.ks (inferred preloaded)
12.74,TAKEOFF,TO_GROUND_ROLL,17.95,80,62.05,3.64,-0.1,-0.21,0.09,90.93,0.121,1,0,0,0,0,0,0,0,0,0,90.39,0,1,0,-0.33,0,0,0,90,0,0,0,0,0,0,0,0,-0.054,0,0,0,0,90.39,1,-0.054,0.544,-0.0608,0.729,0,-0.0608,0,0,0,0,0,0,2,2,0,0,VALID,0,0,0,0,0,1,0,0,0,0,0,0,0,0,0,0,0,0,0,0,793.98,886.23,2,0,0.06,0.06,198,14.29,0.08,0.06,12.68,LANDED,X10-G,0:/Integrated Flight Computer/aircraft/x10_g_cfg.ks (inferred preloaded)
13.02,TAKEOFF,TO_GROUND_ROLL,19.31,80,60.69,3.64,-0.11,-0.21,0.09,90.87,0.121,1,0,0,0,0,0,0,0,0,0,90.38,0,1,0,-0.32,0,0,0,90,0,0,0,0,0,0,0,0,-0.058,0,0,0,0,90.38,1,-0.058,0.492,-0.0565,0.743,0,-0.0565,0,0,0,0,0,0,2,2,0,0,VALID,0,0,0,0,0,1,0,0,0,0,0,0,0,0,0,0,0,0,0,0,798.82,886.02,2,0,0.06,0.06,202,14.29,0.08,0.06,12.96,LANDED,X10-G,0:/Integrated Flight Computer/aircraft/x10_g_cfg.ks (inferred preloaded)
13.3,TAKEOFF,TO_GROUND_ROLL,20.69,80,59.31,3.64,-0.12,-0.21,0.09,90.82,0.12,1,0,0,0,0,0,0,0,0,0,90.37,0,1,0,-0.32,0,0,0,90,0,0,0,0,0,0,0,0,-0.063,0,0,0,0,90.37,1,-0.063,0.449,-0.053,0.757,0,-0.053,0,0,0,0,0,0,2,2,0,0,VALID,0,0,0,0,0,1,0,0,0,0,0,0,0,0,0,0,0,0,0,0,803.38,885.79,2,0,0.06,0.06,206,14.29,0.08,0.06,13.24,LANDED,X10-G,0:/Integrated Flight Computer/aircraft/x10_g_cfg.ks (inferred preloaded)
13.58,TAKEOFF,TO_GROUND_ROLL,22.07,80,57.93,3.64,-0.12,-0.21,0.09,90.77,0.119,1,0,0,0,0,0,0,0,0,0,90.36,0,1,0,-0.32,0,0,0.01,90,0,0,0,0,0,0,0,0,-0.068,0,0,0,0,90.36,1,-0.068,0.412,-0.05,0.771,0,-0.05,0,0,0,0,0,0,2,2,0,0,VALID,0,0,0,0,0,1,0,0,0,0,0,0,0,0,0,0,0,0,0,0,807.66,885.56,2,0,0.06,0.06,210,14.29,0.08,0.06,13.52,LANDED,X10-G,0:/Integrated Flight Computer/aircraft/x10_g_cfg.ks (inferred preloaded)
13.86,TAKEOFF,TO_GROUND_ROLL,23.46,80,56.54,3.64,-0.13,-0.21,0.09,90.73,0.118,1,0,0,0,0,0,0,0,0,0,90.35,0,1,0,-0.32,0,0,0.01,90,0,0,0,0,0,0,0,0,-0.072,0,0,0,0,90.35,1,-0.072,0.381,-0.0476,0.785,0,-0.0476,0,0,0,0,0,0,2,2,0,0,VALID,0,0,0,0,0,1,0,0,0,0,0,0,0,0,0,0,0,0,0,0,811.7,885.32,2,0,0.06,0.06,214,14.29,0.08,0.06,13.8,LANDED,X10-G,0:/Integrated Flight Computer/aircraft/x10_g_cfg.ks (inferred preloaded)
14.14,TAKEOFF,TO_GROUND_ROLL,24.86,80,55.14,3.64,-0.14,-0.21,0.09,90.7,0.117,1,0,0,0,0,0,0,0,0,0,90.34,0,1,0,-0.32,0,0,0.01,90,0,0,0,0,0,0,0,0,-0.077,0,0,0,0,90.34,1,-0.077,0.356,-0.0458,0.799,0,-0.0458,0,0,0,0,0,0,2,2,0,0,VALID,0,0,0,0,0,1,0,0,0,0,0,0,0,0,0,0,0,0,0,0,815.49,885.07,2,0,0.06,0.06,218,14.29,0.08,0.06,14.08,LANDED,X10-G,0:/Integrated Flight Computer/aircraft/x10_g_cfg.ks (inferred preloaded)
14.42,TAKEOFF,TO_GROUND_ROLL,26.26,80,53.74,3.64,-0.15,-0.21,0.09,90.67,0.116,1,0,0,0,0,0,0,0,0,0,90.34,0,1,0,-0.32,0,0,0.01,90,0,0,0,0,0,0,0,0,-0.081,0,0,0,0,90.34,1,-0.081,0.335,-0.0442,0.813,0,-0.0442,0,0,0,0,0,0,2,2,0,0,VALID,0,0,0,0,0,1,0,0,0,0,0,0,0,0,0,0,0,0,0,0,819.05,884.82,2,0,0.06,0.06,222,14.29,0.08,0.06,14.36,LANDED,X10-G,0:/Integrated Flight Computer/aircraft/x10_g_cfg.ks (inferred preloaded)
14.7,TAKEOFF,TO_GROUND_ROLL,27.67,80,52.33,3.64,-0.15,-0.21,0.09,90.65,0.116,1,0,0,0,0,0,0,0,0,0,90.33,0,1,0,-0.32,0,0,0.01,90,0,0,0,0,0,0,0,0,-0.086,0,0,0,0,90.33,1,-0.086,0.317,-0.0432,0.827,0,-0.0432,0,0,0,0,0,0,2,2,0,0,VALID,0,0,0,0,0,1,0,0,0,0,0,0,0,0,0,0,0,0,0,0,822.39,884.55,2,0,0.06,0.06,226,14.29,0.08,0.06,14.64,LANDED,X10-G,0:/Integrated Flight Computer/aircraft/x10_g_cfg.ks (inferred preloaded)
14.98,TAKEOFF,TO_GROUND_ROLL,29.08,80,50.92,3.64,-0.16,-0.21,0.09,90.62,0.115,1,0,0,0,0,0,0,0,0,0,90.32,0,1,0,-0.32,0,0,0.01,90,0,0,0,0,0,0,0,0,-0.091,0,0,0,0,90.32,1,-0.091,0.303,-0.0423,0.841,0,-0.0423,0,0,0,0,0,0,2,2,0,0,VALID,0,0,0,0,0,1,0,0,0,0,0,0,0,0,0,0,0,0,0,0,825.54,884.29,2,0,0.06,0.06,230,14.29,0.08,0.06,14.92,LANDED,X10-G,0:/Integrated Flight Computer/aircraft/x10_g_cfg.ks (inferred preloaded)
15.26,TAKEOFF,TO_GROUND_ROLL,30.5,80,49.5,3.64,-0.17,-0.21,0.09,90.61,0.115,1,0,0,0,0,0,0,0,0,0,90.32,0,1,0,-0.31,0,0,0.01,90,0,0,0,0,0,0,0,0,-0.096,0,0,0,0,90.32,1,-0.096,0.291,-0.0416,0.855,0,-0.0416,0,0,0,0,0,0,2,2,0,0,VALID,0,0,0,0,0,1,0,0,0,0,0,0,0,0,0,0,0,0,0,0,828.49,884.02,2,0,0.06,0.06,234,14.29,0.08,0.06,15.2,LANDED,X10-G,0:/Integrated Flight Computer/aircraft/x10_g_cfg.ks (inferred preloaded)
15.54,TAKEOFF,TO_GROUND_ROLL,31.92,80,48.08,3.64,-0.17,-0.21,0.09,90.59,0.115,1,0,0,0,0,0,0,0,0,0,90.31,0,1,0,-0.31,0,0,0.01,90,0,0,0,0,0,0,0,0,-0.101,0,0,0,0,90.31,1,-0.101,0.28,-0.0408,0.869,0,-0.0408,0,0,0,0,0,0,2,2,0,0,VALID,0,0,0,0,0,1,0,0,0,0,0,0,0,0,0,0,0,0,0,0,831.27,883.74,2,0,0.06,0.06,238,14.29,0.08,0.06,15.48,LANDED,X10-G,0:/Integrated Flight Computer/aircraft/x10_g_cfg.ks (inferred preloaded)
15.82,TAKEOFF,TO_GROUND_ROLL,33.35,80,46.65,3.64,-0.18,-0.21,0.09,90.57,0.114,1,0,0,0,0,0,0,0,0,0,90.3,0,1,0,-0.31,0,0,0.01,90,0,0,0,0,0,0,0,0,-0.106,0,0,0,0,90.3,1,-0.106,0.271,-0.0403,0.884,0,-0.0403,0,0,0,0,0,0,2,2,0,0,VALID,0,0,0,0,0,1,0,0,0,0,0,0,0,0,0,0,0,0,0,0,833.87,883.47,2,0,0.06,0.06,242,14.29,0.08,0.06,15.76,LANDED,X10-G,0:/Integrated Flight Computer/aircraft/x10_g_cfg.ks (inferred preloaded)
16.1,TAKEOFF,TO_GROUND_ROLL,34.79,80,45.21,3.64,-0.19,-0.21,0.09,90.56,0.114,1,0,0,0,0,0,0,0,0,0,90.3,0,1,0,-0.31,0,0,0.01,90,0,0,0,0,0,0,0,0,-0.111,0,0,0,0,90.3,1,-0.111,0.263,-0.0399,0.898,0,-0.0399,0,0,0,0,0,0,2,2,0,0,VALID,0,0,0,0,0,1,0,0,0,0,0,0,0,0,0,0,0,0,0,0,836.32,883.19,2,0,0.06,0.06,246,14.29,0.08,0.06,16.04,LANDED,X10-G,0:/Integrated Flight Computer/aircraft/x10_g_cfg.ks (inferred preloaded)
16.38,TAKEOFF,TO_GROUND_ROLL,36.22,80,43.78,3.64,-0.2,-0.21,0.09,90.55,0.114,1,0,0,0,0,0,0,0,0,0,90.29,0,1,0,-0.31,0,0,0.01,90,0,0,0,0,0,0,0,0,-0.116,0,0,0,0,90.29,1,-0.116,0.256,-0.0395,0.912,0,-0.0395,0,0,0,0,0,0,2,2,0,0,VALID,0,0,0,0,0,1,0,0,0,0,0,0,0,0,0,0,0,0,0,0,838.61,882.91,2,0,0.06,0.06,250,14.29,0.08,0.06,16.32,LANDED,X10-G,0:/Integrated Flight Computer/aircraft/x10_g_cfg.ks (inferred preloaded)
16.66,TAKEOFF,TO_GROUND_ROLL,37.66,80,42.34,3.64,-0.2,-0.21,0.09,90.54,0.114,1,0,0,0,0,0,0,0,0,0,90.29,0,1,0,-0.31,0,0,0.01,90,0,0,0,0,0,0,0,0,-0.121,0,0,0,0,90.29,1,-0.121,0.249,-0.039,0.927,0,-0.039,0,0,0,0,0,0,2,2,0,0,VALID,0,0,0,0,0,1,0,0,0,0,0,0,0,0,0,0,0,0,0,0,840.77,882.64,2,0,0.06,0.06,254,14.29,0.08,0.06,16.6,LANDED,X10-G,0:/Integrated Flight Computer/aircraft/x10_g_cfg.ks (inferred preloaded)
16.94,TAKEOFF,TO_GROUND_ROLL,39.11,80,40.89,3.64,-0.21,-0.21,0.08,90.52,0.114,1,0,0,0,0,0,0,0,0,0,90.28,0,1,0,-0.31,0,0,0.02,90,0,0,0,0,0,0,0,0,-0.127,0,0,0,0,90.28,1,-0.127,0.244,-0.039,0.941,0,-0.039,0,0,0,0,0,0,2,2,0,0,VALID,0,0,0,0,0,1,0,0,0,0,0,0,0,0,0,0,0,0,0,0,842.79,882.37,2,0,0.06,0.06,258,14.29,0.08,0.06,16.88,LANDED,X10-G,0:/Integrated Flight Computer/aircraft/x10_g_cfg.ks (inferred preloaded)
17.22,TAKEOFF,TO_GROUND_ROLL,40.56,80,39.44,3.64,-0.22,-0.21,0.08,90.51,0.114,1,0,0,0,0,0,0,0,0,0,90.28,0,1,0,-0.3,0,0,0.02,90,0,0,0,0,0,0,0,0,-0.132,0,0,0,0,90.28,1,-0.132,0.238,-0.0386,0.956,0,-0.0386,0,0,0,0,0,0,2,2,0,0,VALID,0,0,0,0,0,1,0,0,0,0,0,0,0,0,0,0,0,0,0,0,844.7,882.1,2,0,0.06,0.06,262,14.29,0.08,0.06,17.16,LANDED,X10-G,0:/Integrated Flight Computer/aircraft/x10_g_cfg.ks (inferred preloaded)
17.5,TAKEOFF,TO_GROUND_ROLL,42.01,80,37.99,3.64,-0.22,-0.2,0.08,90.5,0.115,1,0,0,0,0,0,0,0,0,0,90.27,0,1,0,-0.3,0,0,0.02,90,0,0,0,0,0,0,0,0,-0.138,0,0,0,0,90.27,1,-0.138,0.232,-0.0382,0.97,0,-0.0382,0,0,0,0,0,0,2,2,0,0,VALID,0,0,0,0,0,1,0,0,0,0,0,0,0,0,0,0,0,0,0,0,846.48,881.83,2,0,0.06,0.06,266,14.29,0.08,0.06,17.44,LANDED,X10-G,0:/Integrated Flight Computer/aircraft/x10_g_cfg.ks (inferred preloaded)
17.78,TAKEOFF,TO_GROUND_ROLL,43.46,80,36.54,3.64,-0.23,-0.2,0.08,90.49,0.115,1,0,0,0,0,0,0,0,0,0,90.26,0,1,0,-0.3,0,0,0.02,90,0,0,0,0,0,0,0,0,-0.143,0,0,0,0,90.26,1,-0.143,0.227,-0.038,0.985,0,-0.038,0,0,0,0,0,0,2,2,0,0,VALID,0,0,0,0,0,1,0,0,0,0,0,0,0,0,0,0,0,0,0,0,848.16,881.57,2,0,0.06,0.06,270,14.29,0.08,0.06,17.72,LANDED,X10-G,0:/Integrated Flight Computer/aircraft/x10_g_cfg.ks (inferred preloaded)
18.06,TAKEOFF,TO_GROUND_ROLL,44.92,80,35.08,3.64,-0.24,-0.2,0.08,90.48,0.115,1,0,0,0,0,0,0,0,0,0,90.26,0,1,0,-0.3,0,0,0.02,90,0,0,0,0,0,0,0,0,-0.149,0,0,0,0,90.26,1,-0.149,0.222,-0.0376,0.999,0,-0.0376,0,0,0,0,0,0,2,2,0,0,VALID,0,0,0,0,0,1,0,0,0,0,0,0,0,0,0,0,0,0,0,0,849.74,881.32,2,0,0.06,0.06,274,14.29,0.08,0.06,18,LANDED,X10-G,0:/Integrated Flight Computer/aircraft/x10_g_cfg.ks (inferred preloaded)
18.34,TAKEOFF,TO_GROUND_ROLL,46.38,80,33.62,3.64,-0.24,-0.2,0.08,90.47,0.115,1,0,0,0,0,0,0,0,0,0,90.25,0,1,0,-0.3,0,0,0.02,90,0,0,0,0,0,0,0,0,-0.154,0,0,0,0,90.25,1,-0.154,0.218,-0.0369,1,0,-0.0369,0,0,0,0,0,0,2,2,0,0,VALID,0,0,0,0,0,1,0,0,0,0,0,0,0,0,0,0,0,0,0,0,851.23,881.07,2,0,0.06,0.06,278,14.29,0.08,0.06,18.28,LANDED,X10-G,0:/Integrated Flight Computer/aircraft/x10_g_cfg.ks (inferred preloaded)
18.62,TAKEOFF,TO_GROUND_ROLL,47.84,80,32.16,3.64,-0.25,-0.2,0.08,90.46,0.115,1,0,0,0,0,0,0,0,0,0,90.25,0,1,0,-0.3,0,0,0.02,90,0,0,0,0,0,0,0,0,-0.16,0,0,0,0,90.25,1,-0.16,0.214,-0.0365,1,0,-0.0365,0,0,0,0,0,0,2,2,0,0,VALID,0,0,0,0,0,1,0,0,0,0,0,0,0,0,0,0,0,0,0,0,852.63,880.84,2,0,0.06,0.06,282,14.29,0.08,0.06,18.56,LANDED,X10-G,0:/Integrated Flight Computer/aircraft/x10_g_cfg.ks (inferred preloaded)
18.9,TAKEOFF,TO_GROUND_ROLL,49.31,80,30.69,3.64,-0.26,-0.2,0.08,90.45,0.115,1,0,0,0,0,0,0,0,0,0,90.24,0,1,0,-0.3,0,0,0.02,90,0,0,0,0,0,0,0,0,-0.166,0,0,0,0,90.24,1,-0.166,0.209,-0.0355,1,0,-0.0355,0,0,0,0,0,0,2,2,0,0,VALID,0,0,0,0,0,1,0,0,0,0,0,0,0,0,0,0,0,0,0,0,853.95,880.61,2,0,0.06,0.06,286,14.29,0.08,0.06,18.84,LANDED,X10-G,0:/Integrated Flight Computer/aircraft/x10_g_cfg.ks (inferred preloaded)
19.18,TAKEOFF,TO_GROUND_ROLL,50.77,80,29.23,3.64,-0.26,-0.2,0.08,90.44,0.115,1,0,0,0,0,0,0,0,0,0,90.23,0,1,0,-0.29,0,0,0.03,90,0,0,0,0,0,0,0,0,-0.172,0,0,0,0,90.23,1,-0.172,0.206,-0.0352,1,0,-0.0352,0,0,0,0,0,0,2,2,0,0,VALID,0,0,0,0,0,1,0,0,0,0,0,0,0,0,0,0,0,0,0,0,855.2,880.4,2,0,0.06,0.06,290,14.29,0.08,0.06,19.12,LANDED,X10-G,0:/Integrated Flight Computer/aircraft/x10_g_cfg.ks (inferred preloaded)
19.46,TAKEOFF,TO_GROUND_ROLL,52.24,80,27.76,3.64,-0.27,-0.2,0.08,90.43,0.115,1,0,0,0,0,0,0,0,0,0,90.23,0,1,0,-0.29,0,0,0.03,90,0,0,0,0,0,0,0,0,-0.178,0,0,0,0,90.23,1,-0.178,0.204,-0.0353,1,0,-0.0353,0,0,0,0,0,0,2,2,0,0,VALID,0,0,0,0,0,1,0,0,0,0,0,0,0,0,0,0,0,0,0,0,856.37,880.19,2,0,0.06,0.06,294,14.29,0.08,0.06,19.4,LANDED,X10-G,0:/Integrated Flight Computer/aircraft/x10_g_cfg.ks (inferred preloaded)
19.74,TAKEOFF,TO_GROUND_ROLL,53.71,80,26.29,3.64,-0.27,-0.2,0.08,90.42,0.115,1,0,0,0,0,0,0,0,0,0,90.22,0,1,0,-0.29,0,0,0.03,90,0,0,0,0,0,0,0,0,-0.183,0,0,0,0,90.22,1,-0.183,0.2,-0.034,1,0,-0.034,0,0,0,0,0,0,2,2,0,0,VALID,0,0,0,0,0,1,0,0,0,0,0,0,0,0,0,0,0,0,0,0,857.49,880,2,0,0.06,0.06,298,14.29,0.08,0.06,19.68,LANDED,X10-G,0:/Integrated Flight Computer/aircraft/x10_g_cfg.ks (inferred preloaded)
20.02,TAKEOFF,TO_GROUND_ROLL,55.19,80,24.81,3.64,-0.28,-0.2,0.08,90.41,0.115,1,0,0,0,0,0,0,0,0,0,90.22,0,1,0,-0.29,0,0,0.03,90,0,0,0,0,0,0,0,0,-0.189,0,0,0,0,90.22,1,-0.189,0.199,-0.0341,1,0,-0.0341,0,0,0,0,0,0,2,2,0,0,VALID,0,0,0,0,0,1,0,0,0,0,0,0,0,0,0,0,0,0,0,0,858.55,879.83,2,0,0.06,0.06,302,14.29,0.08,0.06,19.96,LANDED,X10-G,0:/Integrated Flight Computer/aircraft/x10_g_cfg.ks (inferred preloaded)
20.3,TAKEOFF,TO_GROUND_ROLL,56.66,80,23.34,3.64,-0.28,-0.2,0.08,90.41,0.115,1,0,0,0,0,0,0,0,0,0,90.21,0,1,0,-0.29,0,0,0.03,90,0,0,0,0,0,0,0,0,-0.195,0,0,0,0,90.21,1,-0.195,0.195,-0.0328,1,0,-0.0328,0,0,0,0,0,0,2,2,0,0,VALID,0,0,0,0,0,1,0,0,0,0,0,0,0,0,0,0,0,0,0,0,859.55,879.67,2,0,0.06,0.06,306,14.29,0.08,0.06,20.24,LANDED,X10-G,0:/Integrated Flight Computer/aircraft/x10_g_cfg.ks (inferred preloaded)
20.58,TAKEOFF,TO_GROUND_ROLL,58.14,80,21.86,3.64,-0.29,-0.2,0.08,90.4,0.115,1,0,0,0,0,0,0,0,0,0,90.2,0,1,0,-0.29,0,0,0.03,90,0,0,0,0,0,0,0,0,-0.201,0,0,0,0,90.2,1,-0.201,0.195,-0.0334,1,0,-0.0334,0,0,0,0,0,0,2,2,0,0,VALID,0,0,0,0,0,1,0,0,0,0,0,0,0,0,0,0,0,0,0,0,860.51,879.53,2,0,0.06,0.06,310,14.29,0.08,0.06,20.52,LANDED,X10-G,0:/Integrated Flight Computer/aircraft/x10_g_cfg.ks (inferred preloaded)
20.86,TAKEOFF,TO_GROUND_ROLL,59.61,80,20.39,3.64,-0.3,-0.19,0.08,90.39,0.115,1,0,0,0,0,0,0,0,0,0,90.2,0,1,0,-0.28,0,0,0.04,90,0,0,0,0,0,0,0,0,-0.207,0,0,0,0,90.2,1,-0.207,0.192,-0.0326,1,0,-0.0326,0,0,0,0,0,0,2,2,0,0,VALID,0,0,0,0,0,1,0,0,0,0,0,0,0,0,0,0,0,0,0,0,861.42,879.4,2,0,0.06,0.06,314,14.29,0.08,0.06,20.8,LANDED,X10-G,0:/Integrated Flight Computer/aircraft/x10_g_cfg.ks (inferred preloaded)
21.14,TAKEOFF,TO_GROUND_ROLL,61.09,80,18.91,3.64,-0.3,-0.19,0.08,90.38,0.115,1,0,0,0,0,0,0,0,0,0,90.19,0,1,0,-0.28,0,0,0.04,90,0,0,0,0,0,0,0,0,-0.213,0,0,0,0,90.19,1,-0.213,0.192,-0.0326,1,0,-0.0326,0,0,0,0,0,0,2,2,0,0,VALID,0,0,0,0,0,1,0,0,0,0,0,0,0,0,0,0,0,0,0,0,862.3,879.3,2,0,0.06,0.06,318,14.29,0.08,0.06,21.08,LANDED,X10-G,0:/Integrated Flight Computer/aircraft/x10_g_cfg.ks (inferred preloaded)
21.42,TAKEOFF,TO_GROUND_ROLL,62.57,80,17.43,3.64,-0.31,-0.19,0.08,90.37,0.115,1,0,0,0,0,0,0,0,0,0,90.18,0,1,0,-0.28,0,0,0.04,90,0,0,0,0,0,0,0,0,-0.219,0,0,0,0,90.18,1,-0.219,0.189,-0.032,1,0,-0.032,0,0,0,0,0,0,2,2,0,0,VALID,0,0,0,0,0,1,0,0,0,0,0,0,0,0,0,0,0,0,0,0,863.14,879.21,2,0,0.06,0.06,322,14.29,0.08,0.06,21.36,LANDED,X10-G,0:/Integrated Flight Computer/aircraft/x10_g_cfg.ks (inferred preloaded)
21.7,TAKEOFF,TO_GROUND_ROLL,64.06,80,15.94,3.64,-0.31,-0.19,0.07,90.37,0.115,1,0,0,0,0,0,0,0,0,0,90.18,0,1,0,-0.28,0,0,0.04,90,0,0,0,0,0,0,0,0,-0.226,0,0,0,0,90.18,1,-0.226,0.187,-0.0309,1,0,-0.0309,0,0,0,0,0,0,2,2,0,0,VALID,0,0,0,0,0,1,0,0,0,0,0,0,0,0,0,0,0,0,0,0,863.95,879.14,2,0,0.06,0.06,326,14.29,0.08,0.06,21.64,LANDED,X10-G,0:/Integrated Flight Computer/aircraft/x10_g_cfg.ks (inferred preloaded)
21.98,TAKEOFF,TO_GROUND_ROLL,65.54,80,14.46,3.64,-0.32,-0.19,0.07,90.36,0.115,1,0,0,0,0,0,0,0,0,0,90.17,0,1,0,-0.28,0,0,0.04,90,0,0,0,0,0,0,0,0,-0.232,0,0,0,0,90.17,1,-0.232,0.184,-0.0302,1,0,-0.0302,0,0,0,0,0,0,2,2,0,0,VALID,0,0,0,0,0,1,0,0,0,0,0,0,0,0,0,0,0,0,0,0,864.74,879.1,2,0,0.06,0.06,330,14.29,0.08,0.06,21.92,LANDED,X10-G,0:/Integrated Flight Computer/aircraft/x10_g_cfg.ks (inferred preloaded)
22.26,TAKEOFF,TO_GROUND_ROLL,67.02,80,12.98,3.64,-0.32,-0.19,0.07,90.35,0.115,1,0,0,0,0,0,0,0,0,0,90.17,0,1,0,-0.27,0,0,0.04,90,0,0,0,0,0,0,0,0,-0.238,0,0,0,0,90.17,1,-0.238,0.186,-0.0313,1,0,-0.0313,0,0,0,0,0,0,2,2,0,0,VALID,0,0,0,0,0,1,0,0,0,0,0,0,0,0,0,0,0,0,0,0,865.5,879.08,2,0,0.06,0.06,334,14.29,0.08,0.06,22.2,LANDED,X10-G,0:/Integrated Flight Computer/aircraft/x10_g_cfg.ks (inferred preloaded)
22.54,TAKEOFF,TO_GROUND_ROLL,68.51,80,11.49,3.64,-0.32,-0.19,0.07,90.34,0.115,1,0,0,0,0,0,0,0,0,0,90.16,0,1,0,-0.27,0,0,0.05,90,0,0,0,0,0,0,0,0,-0.244,0,0,0,0,90.16,1,-0.244,0.184,-0.0306,1,0,-0.0306,0,0,0,0,0,0,2,2,0,0,VALID,0,0,0,0,0,1,0,0,0,0,0,0,0,0,0,0,0,0,0,0,866.26,879.11,2,0,0.06,0.06,338,14.29,0.08,0.06,22.48,LANDED,X10-G,0:/Integrated Flight Computer/aircraft/x10_g_cfg.ks (inferred preloaded)
22.82,TAKEOFF,TO_GROUND_ROLL,70,80,10,3.64,-0.24,-0.16,0.02,90.34,0.116,1,0,0,0,0,0,0,0,0,0,90.15,0,1,0,-0.2,0,0,0.05,90,0,0,0,0,0,0,0,0,-0.25,0,0,0,0,90.15,1,-0.25,0.182,-0.0303,1,0,-0.0303,0,0,0,0,0,0,2,2,0,0,VALID,0,0,0,0,0,1,0,0,0,0,0,0,0,0,0,0,0,0,0,0,867.23,879.41,2,0,0.06,0.06,342,14.29,0.08,0.06,22.76,LANDED,X10-G,0:/Integrated Flight Computer/aircraft/x10_g_cfg.ks (inferred preloaded)
23.1,TAKEOFF,TO_GROUND_ROLL,71.49,80,8.51,3.64,-0.39,-0.18,0.12,90.33,0.115,1,0,0,0,0,0,0,0,0,0,90.15,0,1,0,-0.31,0,0,0.05,90,0,0,0,0,0,0,0,0,-0.256,0,0,0,0,90.15,1,-0.256,0.181,-0.03,1,0,-0.03,0,0,0,0,0,0,2,2,0,0,VALID,0,0,0,0,0,1,0,0,0,0,0,0,0,0,0,0,0,0,0,0,868.51,880.06,2,0,0.06,0.06,346,14.29,0.08,0.06,23.04,LANDED,X10-G,0:/Integrated Flight Computer/aircraft/x10_g_cfg.ks (inferred preloaded)
23.38,TAKEOFF,TO_GROUND_ROLL,72.98,80,7.02,3.64,-0.31,-0.17,0.06,90.32,0.116,1,0,0,0,0,0,0,0,0,0,90.14,0,1,0,-0.24,0,0,0.05,90,0,0,0,0,0,0,0,0,-0.262,0,0,0,0,90.14,1,-0.262,0.179,-0.0294,1,0,-0.0294,0,0,0,0,0,0,2,2,0,0,VALID,0,0,0,0,0,1,0,0,0,0,0,0,0,0,0,0,0,0,0,0,870.09,881.05,2,0,0.06,0.06,350,14.29,0.08,0.06,23.32,LANDED,X10-G,0:/Integrated Flight Computer/aircraft/x10_g_cfg.ks (inferred preloaded)
23.66,TAKEOFF,TO_GROUND_ROLL,74.47,80,5.53,3.63,-0.36,-0.2,0.07,90.31,0.116,1,0,0,0,0,0,0,0,0,0,90.14,0,1,0,-0.27,0,0,0.05,90,0,0,0,0,0,0,0,0,-0.268,0,0,0,0,90.14,1,-0.268,0.178,-0.0294,1,0,-0.0294,0,0,0,0,0,0,2,2,0,0,VALID,0,0,0,0,0,1,0,0,0,0,0,0,0,0,0,0,0,0,0,0,871.96,882.36,2,0,0.06,0.06,354,14.29,0.08,0.06,23.6,LANDED,X10-G,0:/Integrated Flight Computer/aircraft/x10_g_cfg.ks (inferred preloaded)
23.94,TAKEOFF,TO_GROUND_ROLL,75.97,80,4.03,3.64,-0.35,-0.17,0.08,90.31,0.116,1,0,0,0,0,0,0,0,0,0,90.13,0,1,0,-0.26,0,0,0.06,90,0,0,0,0,0,0,0,0,-0.274,0,0,0,0,90.13,1,-0.274,0.176,-0.0287,1,0,-0.0287,0,0,0,0,0,0,2,2,0,0,VALID,0,0,0,0,0,1,0,0,0,0,0,0,0,0,0,0,0,0,0,0,874.11,883.99,2,0,0.06,0.06,358,14.29,0.08,0.06,23.88,LANDED,X10-G,0:/Integrated Flight Computer/aircraft/x10_g_cfg.ks (inferred preloaded)
24.22,TAKEOFF,TO_GROUND_ROLL,77.47,80,2.53,3.63,-0.34,-0.19,0.06,90.3,0.117,1,0,0,0,0,0,0,0,0,0,90.12,0,1,0,-0.25,0,0,0.06,90,0,0,0,0,0,0,0,0,-0.28,0,0,0,0,90.12,1,-0.28,0.174,-0.0285,1,0,-0.0285,0,0,0,0,0,0,2,2,0,0,VALID,0,0,0,0,0,1,0,0,0,0,0,0,0,0,0,0,0,0,0,0,876.53,885.92,2,0,0.06,0.06,362,14.29,0.08,0.06,24.16,LANDED,X10-G,0:/Integrated Flight Computer/aircraft/x10_g_cfg.ks (inferred preloaded)
24.5,TAKEOFF,TO_GROUND_ROLL,78.97,80,1.03,3.64,-0.36,-0.18,0.07,90.29,0.116,1,0,0,0,0,0,0,0,0,0,90.12,0,1,0,-0.26,0,0,0.06,90,0,0,0,0,0,0,0,0,-0.286,0,0,0,0,90.12,1,-0.286,0.173,-0.0281,1,0,-0.0281,0,0,0,0,0,0,2,2,0,0,VALID,0,0,0,0,0,1,0,0,0,0,0,0,0,0,0,0,0,0,0,0,879.23,888.15,2,0,0.06,0.06,366,14.29,0.08,0.06,24.44,LANDED,X10-G,0:/Integrated Flight Computer/aircraft/x10_g_cfg.ks (inferred preloaded)
24.78,TAKEOFF,TO_GROUND_ROLL,80.48,80,-0.48,3.64,-0.35,-0.18,0.07,90.28,0.117,1,0,0,0,0,0,0,0,0,0,90.11,0,1,0,-0.25,0,0,0.06,90,0,0,0,0,0,0,0,0,-0.292,0,0,0,0,90.11,1,-0.292,0.17,-0.0274,1,0,-0.0274,0,0,0,0,0,0,2,2,0,0,VALID,0,0,0,0,0,1,0,0,0,0,0,0,0,0,0,0,0,0,0,0,882.18,890.68,2,0,0.06,0.06,370,14.29,0.08,0.06,24.72,LANDED,X10-G,0:/Integrated Flight Computer/aircraft/x10_g_cfg.ks (inferred preloaded)
25.06,TAKEOFF,TO_GROUND_ROLL,82,80,-2,3.63,-0.36,-0.18,0.06,90.28,0.117,1,0,0,0,0,0,0,0,0,0,90.11,0,1,0,-0.25,0,0,0.06,90,0,0,0,0,0,0,0,0,-0.298,0,0,0,0,90.11,1,-0.298,0.168,-0.0271,1,0,-0.0271,0,0,0,0,0,0,2,2,0,0,VALID,0,0,0,0,0,1,0,0,0,0,0,0,0,0,0,0,0,0,0,0,885.4,893.48,2,0,0.06,0.06,374,14.29,0.08,0.06,25,LANDED,X10-G,0:/Integrated Flight Computer/aircraft/x10_g_cfg.ks (inferred preloaded)
25.34,TAKEOFF,TO_GROUND_ROLL,83.52,80,-3.52,3.64,-0.36,-0.17,0.07,90.27,0.117,1,0,0,0,0,0,0,0,0,0,90.1,0,1,0,-0.25,0,0,0.07,90,0,0,0,0,0,0,0,0,-0.304,0,0,0,0,90.1,1,-0.304,0.166,-0.0266,1,0,-0.0266,0,0,0,0,0,0,2,2,0,0,VALID,0,0,0,0,0,1,0,0,0,0,0,0,0,0,0,0,0,0,0,0,888.86,896.56,2,0,0.06,0.06,378,14.29,0.08,0.06,25.28,LANDED,X10-G,0:/Integrated Flight Computer/aircraft/x10_g_cfg.ks (inferred preloaded)
25.62,TAKEOFF,TO_GROUND_ROLL,85.05,80,-5.05,3.64,-0.36,-0.17,0.06,90.26,0.117,1,0,0,0,0,0,0,0,0,0,90.1,0,1,0,-0.25,0,0,0.07,90,0,0,0,0,0,0,0,0,-0.31,0,0,0,0,90.1,1,-0.31,0.164,-0.0261,1,0,-0.0261,0,0,0,0,0,0,2,2,0,0,VALID,0,0,0,0,0,1,0,0,0,0,0,0,0,0,0,0,0,0,0,0,892.57,899.91,2,0,0.06,0.06,382,14.29,0.08,0.06,25.56,LANDED,X10-G,0:/Integrated Flight Computer/aircraft/x10_g_cfg.ks (inferred preloaded)
25.9,TAKEOFF,TO_GROUND_ROLL,86.58,80,-6.58,3.63,-0.37,-0.17,0.06,90.25,0.117,1,0,0,0,0,0,0,0,0,0,90.09,0,1,0,-0.24,0,0,0.07,90,0,0,0,0,0,0,0,0,-0.315,0,0,0,0,90.09,1,-0.315,0.162,-0.0257,1,0,-0.0257,0,0,0,0,0,0,2,2,0,0,VALID,0,0,0,0,0,1,0,0,0,0,0,0,0,0,0,0,0,0,0,0,896.51,903.51,2,0,0.06,0.06,386,14.29,0.08,0.06,25.84,LANDED,X10-G,0:/Integrated Flight Computer/aircraft/x10_g_cfg.ks (inferred preloaded)
26.18,TAKEOFF,TO_GROUND_ROLL,88.12,80,-8.12,3.64,-0.37,-0.17,0.06,90.24,0.117,1,0,0,0,0,0,0,0,0,0,90.08,0,1,0,-0.24,0,0,0.07,90,0,0,0,0,0,0,0,0,-0.321,0,0,0,0,90.08,1,-0.321,0.159,-0.0249,1,0,-0.0249,0,0,0,0,0,0,2,2,0,0,VALID,0,0,0,0,0,1,0,0,0,0,0,0,0,0,0,0,0,0,0,0,900.69,907.36,2,0,0.06,0.06,390,14.29,0.08,0.06,26.12,LANDED,X10-G,0:/Integrated Flight Computer/aircraft/x10_g_cfg.ks (inferred preloaded)
26.46,TAKEOFF,TO_GROUND_ROLL,89.66,80,-9.66,3.63,-0.37,-0.17,0.06,90.24,0.117,1,0,0,0,0,0,0,0,0,0,90.08,0,1,0,-0.24,0,0,0.08,90,0,0,0,0,0,0,0,0,-0.326,0,0,0,0,90.08,1,-0.326,0.155,-0.0239,1,0,-0.0239,0,0,0,0,0,0,2,2,0,0,VALID,0,0,0,0,0,1,0,0,0,0,0,0,0,0,0,0,0,0,0,0,905.09,911.46,2,0,0.06,0.06,394,14.29,0.08,0.06,26.4,LANDED,X10-G,0:/Integrated Flight Computer/aircraft/x10_g_cfg.ks (inferred preloaded)
26.74,TAKEOFF,TO_GROUND_ROLL,91.22,80,-11.22,3.63,-0.38,-0.17,0.06,90.23,0.117,1,0,0,0,0,0,0,0,0,0,90.07,0,1,0,-0.24,0,0,0.08,90,0,0,0,0,0,0,0,0,-0.332,0,0,0,0,90.07,1,-0.332,0.155,-0.0244,1,0,-0.0244,0,0,0,0,0,0,2,2,0,0,VALID,0,0,0,0,0,1,0,0,0,0,0,0,0,0,0,0,0,0,0,0,909.71,915.79,2,0,0.06,0.06,398,14.29,0.08,0.06,26.68,LANDED,X10-G,0:/Integrated Flight Computer/aircraft/x10_g_cfg.ks (inferred preloaded)
27.02,TAKEOFF,TO_GROUND_ROLL,92.78,80,-12.78,3.63,-0.38,-0.17,0.06,90.22,0.118,1,0,0,0,0,0,0,0,0,0,90.07,0,1,0,-0.23,0,0,0.08,90,0,0,0,0,0,0,0,0,-0.337,0,0,0,0,90.07,1,-0.337,0.151,-0.0235,1,0,-0.0235,0,0,0,0,0,0,2,2,0,0,VALID,0,0,0,0,0,1,0,0,0,0,0,0,0,0,0,0,0,0,0,0,914.53,920.34,2,0,0.06,0.06,402,14.29,0.08,0.06,26.96,LANDED,X10-G,0:/Integrated Flight Computer/aircraft/x10_g_cfg.ks (inferred preloaded)
27.3,TAKEOFF,TO_GROUND_ROLL,94.35,80,-14.35,3.63,-0.38,-0.17,0.06,90.21,0.118,1,0,0,0,0,0,0,0,0,0,90.06,0,1,0,-0.23,0,0,0.08,90,0,0,0,0,0,0,0,0,-0.342,0,0,0,0,90.06,1,-0.342,0.148,-0.0227,1,0,-0.0227,0,0,0,0,0,0,2,2,0,0,VALID,0,0,0,0,0,1,0,0,0,0,0,0,0,0,0,0,0,0,0,0,919.56,925.12,2,0,0.06,0.06,406,14.29,0.08,0.06,27.24,LANDED,X10-G,0:/Integrated Flight Computer/aircraft/x10_g_cfg.ks (inferred preloaded)
27.58,TAKEOFF,TO_GROUND_ROLL,95.93,80,-15.93,3.63,-0.38,-0.16,0.06,90.2,0.118,1,0,0,0,0,0,0,0,0,0,90.06,0,1,0,-0.23,0,0,0.09,90,0,0,0,0,0,0,0,0,-0.347,0,0,0,0,90.06,1,-0.347,0.146,-0.0222,1,0,-0.0222,0,0,0,0,0,0,2,2,0,0,VALID,0,0,0,0,0,1,0,0,0,0,0,0,0,0,0,0,0,0,0,0,924.79,930.1,2,0,0.06,0.06,410,14.29,0.08,0.06,27.52,LANDED,X10-G,0:/Integrated Flight Computer/aircraft/x10_g_cfg.ks (inferred preloaded)
27.86,TAKEOFF,TO_GROUND_ROLL,97.52,80,-17.52,3.63,-0.38,-0.16,0.05,90.2,0.118,1,0,0,0,0,0,0,0,0,0,90.05,0,1,0,-0.22,0,0,0.09,90,0,0,0,0,0,0,0,0,-0.352,0,0,0,0,90.05,1,-0.352,0.141,-0.0208,1,0,-0.0208,0,0,0,0,0,0,2,2,0,0,VALID,0,0,0,0,0,1,0,0,0,0,0,0,0,0,0,0,0,0,0,0,930.2,935.28,2,0,0.06,0.06,414,14.29,0.08,0.06,27.8,LANDED,X10-G,0:/Integrated Flight Computer/aircraft/x10_g_cfg.ks (inferred preloaded)
28.14,TAKEOFF,TO_GROUND_ROLL,99.12,80,-19.12,3.63,-0.38,-0.16,0.05,90.19,0.118,1,0,0,0,0,0,0,0,0,0,90.05,0,1,0,-0.22,0,0,0.09,90,0,0,0,0,0,0,0,0,-0.357,0,0,0,0,90.05,1,-0.357,0.141,-0.0216,1,0,-0.0216,0,0,0,0,0,0,2,2,0,0,VALID,0,0,0,0,0,1,0,0,0,0,0,0,0,0,0,0,0,0,0,0,935.79,940.66,2,0,0.06,0.06,418,14.29,0.08,0.06,28.08,LANDED,X10-G,0:/Integrated Flight Computer/aircraft/x10_g_cfg.ks (inferred preloaded)
28.42,TAKEOFF,TO_GROUND_ROLL,100.73,80,-20.73,3.64,-0.39,-0.16,0.05,90.18,0.118,1,0,0,0,0,0,0,0,0,0,90.04,0,1,0,-0.22,0,0,0.1,90,0,0,0,0,0,0,0,0,-0.362,0,0,0,0,90.04,1,-0.362,0.137,-0.0206,1,0,-0.0206,0,0,0,0,0,0,2,2,0,0,VALID,0,0,0,0,0,1,0,0,0,0,0,0,0,0,0,0,0,0,0,0,941.56,946.21,2,0,0.06,0.06,422,14.29,0.08,0.06,28.36,LANDED,X10-G,0:/Integrated Flight Computer/aircraft/x10_g_cfg.ks (inferred preloaded)
28.7,TAKEOFF,TO_GROUND_ROLL,102.35,80,-22.35,3.63,-0.38,-0.15,0.05,90.17,0.118,1,0,0,0,0,0,0,0,0,0,90.04,0,1,0,-0.21,0,0,0.1,90,0,0,0,0,0,0,0,0,-0.367,0,0,0,0,90.04,1,-0.367,0.134,-0.0201,1,0,-0.0201,0,0,0,0,0,0,2,2,0,0,VALID,0,0,0,0,0,1,0,0,0,0,0,0,0,0,0,0,0,0,0,0,947.48,951.94,2,0,0.06,0.06,426,14.29,0.08,0.06,28.64,LANDED,X10-G,0:/Integrated Flight Computer/aircraft/x10_g_cfg.ks (inferred preloaded)
28.98,TAKEOFF,TO_GROUND_ROLL,103.98,80,-23.98,3.63,-0.39,-0.16,0.05,90.17,0.118,1,0,0,0,0,0,0,0,0,0,90.03,0,1,0,-0.21,0,0,0.1,90,0,0,0,0,0,0,0,0,-0.371,0,0,0,0,90.03,1,-0.371,0.132,-0.0197,1,0,-0.0197,0,0,0,0,0,0,2,2,0,0,VALID,0,0,0,0,0,1,0,0,0,0,0,0,0,0,0,0,0,0,0,0,953.56,957.83,2,0,0.06,0.06,430,14.29,0.08,0.06,28.92,LANDED,X10-G,0:/Integrated Flight Computer/aircraft/x10_g_cfg.ks (inferred preloaded)
29.26,TAKEOFF,TO_GROUND_ROLL,105.62,80,-25.62,3.63,-0.39,-0.15,0.05,90.16,0.117,1,0,0,0,0,0,0,0,0,0,90.03,0,1,0,-0.21,0,0,0.1,90,0,0,0,0,0,0,0,0,-0.376,0,0,0,0,90.03,1,-0.376,0.128,-0.0188,1,0,-0.0188,0,0,0,0,0,0,2,2,0,0,VALID,0,0,0,0,0,1,0,0,0,0,0,0,0,0,0,0,0,0,0,0,959.78,963.87,2,0,0.06,0.06,434,14.29,0.08,0.06,29.2,LANDED,X10-G,0:/Integrated Flight Computer/aircraft/x10_g_cfg.ks (inferred preloaded)
29.54,TAKEOFF,TO_GROUND_ROLL,107.27,80,-27.27,3.63,-0.38,-0.15,0.05,90.15,0.118,1,0,0,0,0,0,0,0,0,0,90.02,0,1,0,-0.2,0,0,0.11,90,0,0,0,0,0,0,0,0,-0.38,0,0,0,0,90.02,1,-0.38,0.126,-0.0184,1,0,-0.0184,0,0,0,0,0,0,2,2,0,0,VALID,0,0,0,0,0,1,0,0,0,0,0,0,0,0,0,0,0,0,0,0,966.13,970.06,2,0,0.06,0.06,438,14.29,0.08,0.06,29.48,LANDED,X10-G,0:/Integrated Flight Computer/aircraft/x10_g_cfg.ks (inferred preloaded)
29.82,TAKEOFF,TO_GROUND_ROLL,108.93,80,-28.93,3.63,-0.39,-0.15,0.04,90.14,0.118,1,0,0,0,0,0,0,0,0,0,90.02,0,1,0,-0.2,0,0,0.11,90,0,0,0,0,0,0,0,0,-0.384,0,0,0,0,90.02,1,-0.384,0.123,-0.0179,1,0,-0.0179,0,0,0,0,0,0,2,2,0,0,VALID,0,0,0,0,0,1,0,0,0,0,0,0,0,0,0,0,0,0,0,0,972.6,976.37,2,0,0.06,0.06,442,14.29,0.08,0.06,29.76,LANDED,X10-G,0:/Integrated Flight Computer/aircraft/x10_g_cfg.ks (inferred preloaded)
30.1,TAKEOFF,TO_GROUND_ROLL,110.6,80,-30.6,3.63,-0.39,-0.15,0.05,90.14,0.118,1,0,0,0,0,0,0,0,0,0,90.02,0,1,0,-0.2,0,0,0.11,90,0,0,0,0,0,0,0,0,-0.388,0,0,0,0,90.02,1,-0.388,0.119,-0.0171,1,0,-0.0171,0,0,0,0,0,0,2,2,0,0,VALID,0,0,0,0,0,1,0,0,0,0,0,0,0,0,0,0,0,0,0,0,979.19,982.8,2,0,0.06,0.06,446,14.29,0.08,0.06,30.04,LANDED,X10-G,0:/Integrated Flight Computer/aircraft/x10_g_cfg.ks (inferred preloaded)
30.38,TAKEOFF,TO_GROUND_ROLL,112.29,80,-32.29,3.63,-0.38,-0.15,0.04,90.13,0.118,1,0,0,0,0,0,0,0,0,0,90.01,0,1,0,-0.2,0,0,0.12,90,0,0,0,0,0,0,0,0,-0.392,0,0,0,0,90.01,1,-0.392,0.115,-0.0165,1,0,-0.0165,0,0,0,0,0,0,2,2,0,0,VALID,0,0,0,0,0,1,0,0,0,0,0,0,0,0,0,0,0,0,0,0,985.87,989.34,2,0,0.06,0.06,450,14.29,0.08,0.06,30.32,LANDED,X10-G,0:/Integrated Flight Computer/aircraft/x10_g_cfg.ks (inferred preloaded)
30.66,TAKEOFF,TO_GROUND_ROLL,113.99,80,-33.99,3.63,-0.39,-0.15,0.04,90.12,0.118,1,0,0,0,0,0,0,0,0,0,90.01,0,1,0,-0.19,0,0,0.12,90,0,0,0,0,0,0,0,0,-0.395,0,0,0,0,90.01,1,-0.395,0.112,-0.016,1,0,-0.016,0,0,0,0,0,0,2,2,0,0,VALID,0,0,0,0,0,1,0,0,0,0,0,0,0,0,0,0,0,0,0,0,992.64,995.97,2,0,0.06,0.06,454,14.29,0.08,0.06,30.6,LANDED,X10-G,0:/Integrated Flight Computer/aircraft/x10_g_cfg.ks (inferred preloaded)
30.94,TAKEOFF,TO_GROUND_ROLL,115.69,80,-35.69,3.63,-0.38,-0.14,0.04,90.11,0.118,1,0,0,0,0,0,0,0,0,0,90,0,1,0,-0.19,0,0,0.12,90,0,0,0,0,0,0,0,0,-0.399,0,0,0,0,90,1,-0.399,0.11,-0.0158,1,0,-0.0158,0,0,0,0,0,0,2,2,0,0,VALID,0,0,0,0,0,1,0,0,0,0,0,0,0,0,0,0,0,0,0,0,999.48,1002.68,2,0,0.06,0.06,458,14.29,0.08,0.06,30.88,LANDED,X10-G,0:/Integrated Flight Computer/aircraft/x10_g_cfg.ks (inferred preloaded)
31.22,TAKEOFF,TO_GROUND_ROLL,117.42,80,-37.42,3.63,-0.38,-0.14,0.04,90.11,0.118,1,0,0,0,0,0,0,0,0,0,90,0,1,0,-0.19,0,0,0.13,90,0,0,0,0,0,0,0,0,-0.402,0,0,0,0,90,1,-0.402,0.108,-0.0158,1,0,-0.0158,0,0,0,0,0,0,2,2,0,0,VALID,0,0,0,0,0,1,0,0,0,0,0,0,0,0,0,0,0,0,0,0,1006.39,1009.46,2,0,0.06,0.06,462,14.29,0.08,0.06,31.16,LANDED,X10-G,0:/Integrated Flight Computer/aircraft/x10_g_cfg.ks (inferred preloaded)
31.5,TAKEOFF,TO_GROUND_ROLL,119.15,80,-39.15,3.63,-0.38,-0.14,0.04,90.1,0.118,1,0,0,0,0,0,0,0,0,0,90,0,1,0,-0.18,0,0,0.13,90,0,0,0,0,0,0,0,0,-0.406,0,0,0,0,90,1,-0.406,0.102,-0.0141,1,0,-0.0141,0,0,0,0,0,0,2,2,0,0,VALID,0,0,0,0,0,1,0,0,0,0,0,0,0,0,0,0,0,0,0,0,1013.33,1016.29,2,0,0.06,0.06,466,14.29,0.08,0.06,31.44,LANDED,X10-G,0:/Integrated Flight Computer/aircraft/x10_g_cfg.ks (inferred preloaded)
31.78,TAKEOFF,TO_GROUND_ROLL,120.9,80,-40.9,3.63,-0.38,-0.14,0.03,90.09,0.118,1,0,0,0,0,0,0,0,0,0,89.99,0,1,0,-0.18,0,0,0.13,90,0,0,0,0,0,0,0,0,-0.409,0,0,0,0,89.99,1,-0.409,0.1,-0.0141,1,0,-0.0141,0,0,0,0,0,0,2,2,0,0,VALID,0,0,0,0,0,1,0,0,0,0,0,0,0,0,0,0,0,0,0,0,1020.31,1023.15,2,0,0.06,0.06,470,14.29,0.08,0.06,31.72,LANDED,X10-G,0:/Integrated Flight Computer/aircraft/x10_g_cfg.ks (inferred preloaded)
32.06,TAKEOFF,TO_GROUND_ROLL,122.66,80,-42.66,3.63,-0.38,-0.14,0.03,90.09,0.118,1,0,0,0,0,0,0,0,0,0,89.99,0,1,0,-0.18,0,0,0.14,90,0,0,0,0,0,0,0,0,-0.411,0,0,0,0,89.99,1,-0.411,0.095,-0.0133,1,0,-0.0133,0,0,0,0,0,0,2,2,0,0,VALID,0,0,0,0,0,1,0,0,0,0,0,0,0,0,0,0,0,0,0,0,1027.31,1030.03,2,0,0.06,0.06,474,14.29,0.08,0.06,32,LANDED,X10-G,0:/Integrated Flight Computer/aircraft/x10_g_cfg.ks (inferred preloaded)
32.34,TAKEOFF,TO_GROUND_ROLL,124.43,80,-44.43,3.63,-0.37,-0.14,0.03,90.08,0.118,1,0,0,0,0,0,0,0,0,0,89.99,0,1,0,-0.17,0,0,0.14,90,0,0,0,0,0,0,0,0,-0.414,0,0,0,0,89.99,1,-0.414,0.09,-0.012,1,0,-0.012,0,0,0,0,0,0,2,2,0,0,VALID,0,0,0,0,0,1,0,0,0,0,0,0,0,0,0,0,0,0,0,0,1034.3,1036.91,2,0,0.06,0.06,478,14.29,0.08,0.06,32.28,LANDED,X10-G,0:/Integrated Flight Computer/aircraft/x10_g_cfg.ks (inferred preloaded)
32.62,TAKEOFF,TO_GROUND_ROLL,126.21,80,-46.21,3.63,-0.37,-0.13,0.03,90.07,0.118,1,0,0,0,0,0,0,0,0,0,89.99,0,1,0,-0.17,0,0,0.14,90,0,0,0,0,0,0,0,0,-0.417,0,0,0,0,89.99,1,-0.417,0.087,-0.0115,1,0,-0.0115,0,0,0,0,0,0,2,2,0,0,VALID,0,0,0,0,0,1,0,0,0,0,0,0,0,0,0,0,0,0,0,0,1041.27,1043.78,2,0,0.06,0.06,482,14.29,0.08,0.06,32.56,LANDED,X10-G,0:/Integrated Flight Computer/aircraft/x10_g_cfg.ks (inferred preloaded)
32.9,TAKEOFF,TO_GROUND_ROLL,128.01,80,-48.01,3.66,-0.31,-0.08,0.04,90.07,0.117,1,0,0,0,0,0,0,0,0,0,89.98,0,1,0,-0.14,0,0,0.15,90,0,0,0,0,0,0,0,0,-0.419,0,0,0,0,89.98,1,-0.419,0.087,-0.0121,1,0,-0.0121,0,0,0,0,0,0,2,2,0,0,VALID,0,0,0,0,0,1,0,0,0,0,0,0,0,0,0,0,0,0,0,0,1048.21,1050.62,2,0,0.06,0.06,486,14.29,0.08,0.06,32.84,LANDED,X10-G,0:/Integrated Flight Computer/aircraft/x10_g_cfg.ks (inferred preloaded)
33.18,TAKEOFF,TO_GROUND_ROLL,129.82,80,-49.82,3.62,-0.41,-0.14,0.04,90.07,0.112,1,0,0,0,0,0,0,0,0,0,89.98,0,1,0,-0.18,0,0,0.15,90,0,0,0,0,0,0,0,0,-0.421,0,0,0,0,89.98,1,-0.421,0.086,-0.012,1,0,-0.012,0,0,0,0,0,0,2,2,0,0,VALID,0,0,0,0,0,1,0,0,0,0,0,0,0,0,0,0,0,0,0,0,1055.1,1057.42,2,0,0.06,0.06,490,14.29,0.08,0.06,33.12,LANDED,X10-G,0:/Integrated Flight Computer/aircraft/x10_g_cfg.ks (inferred preloaded)
33.48,TAKEOFF,TO_ROTATE,131.77,80,-51.77,3.64,-0.36,-0.09,0.06,90.06,0.115,1,0,0,0,0,0,0,0,0,0,89.98,0.598,1,0,-0.15,0,0,0.15,90,0,0,0,0,0,0,0,0,-0.424,0,0,0,0,89.98,1,-0.424,0.085,-0.0118,1,0,-0.0118,0,0.1697,0.598,0.69,0.08,0,2,2,0,0,VALID,0,0,0,0,0,1,0,0,0,0,0,0,0,0,0,0,0,0,0,0,1062.57,1064.8,2,0,0.06,0.06,494,13.33,0.08,0.06,33.4,LANDED,X10-G,0:/Integrated Flight Computer/aircraft/x10_g_cfg.ks (inferred preloaded)
33.76,TAKEOFF,TO_ROTATE,133.6,80,-53.6,3.63,-0.37,-0.1,0.06,90.06,0.115,1,0,0,0,0,0,0,0,0,0,89.97,1.606,1,0,-0.16,0,0,0.16,90,0,0,0,0,0,0,0,0,-0.426,0,0,0,0,89.97,1,-0.426,0.086,-0.0124,1,0,-0.0124,0,0.3014,1.606,1.703,0.08,0,2,2,0,0,VALID,0,0,0,0,0,1,0,0,0,0,0,0,0,0,0,0,0,0,0,0,1069.68,1071.84,2,0,0.06,0.06,498,14.29,0.08,0.06,33.68,LANDED,X10-G,0:/Integrated Flight Computer/aircraft/x10_g_cfg.ks (inferred preloaded)
34.04,TAKEOFF,TO_ROTATE,135.45,80,-55.45,3.67,-0.35,0,0.15,90.06,0.113,1,0,0,0,0,0,0,0,0,0,89.97,2.614,1,0,-0.15,0,0,0.16,90,0,0,0,0,0,0,0,0,-0.428,0,0,0,0,89.97,1,-0.428,0.088,-0.0126,1,0,-0.0126,0,0.4192,2.614,2.61,0.08,0,2,2,0,0,VALID,0,0,0,0,0,1,0,0,0,0,0,0,0,0,0,0,0,0,0,0,1076.9,1078.99,2,0,0.06,0.06,502,14.29,0.08,0.06,33.96,LANDED,X10-G,0:/Integrated Flight Computer/aircraft/x10_g_cfg.ks (inferred preloaded)
34.32,TAKEOFF,TO_ROTATE,137.31,80,-57.31,3.72,-0.3,0.19,0.33,90.06,0.111,1,0,0,0,0,0,0,0,0,0,89.97,3.622,1,0,-0.15,0,0,0.16,90,0,0,0,0,0,0,0,0,-0.43,0,0,0,0,89.97,1,-0.43,0.094,-0.0144,1,0,-0.0144,0,0.5264,3.622,3.434,0.08,0,2,2,0,0,VALID,0,0,0,0,0,1,0,0,0,0,0,0,0,0,0,0,0,0,0,0,1084.25,1086.27,2,0,0.06,0.06,506,14.29,0.08,0.06,34.24,LANDED,X10-G,0:/Integrated Flight Computer/aircraft/x10_g_cfg.ks (inferred preloaded)
34.6,TAKEOFF,TO_ROTATE,139.17,80,-59.17,3.88,-0.38,0.6,0.74,90.07,0.109,1,0,0,0,0,0,0,0,0,0,89.96,4.63,1,0,-0.14,0,0,0.17,90,0,0,0,0,0,0,0,0,-0.432,0,0,0,0,89.96,1,-0.432,0.103,-0.0165,1,0,-0.0165,0,0.6045,4.63,4.034,0.08,0,2,2,0,0,VALID,0,0,0,0,0,1,0,0,0,0,0,0,0,0,0,0,0,0,0,0,1091.7,1093.66,2,0,0.06,0.06,510,14.29,0.08,0.06,34.52,LANDED,X10-G,0:/Integrated Flight Computer/aircraft/x10_g_cfg.ks (inferred preloaded)
34.88,TAKEOFF,TO_ROTATE,141.04,80,-61.04,4.06,-0.29,1.23,1.35,90.07,0.112,1,0,0,0,0,0,0,0,0,0,89.96,5.638,1,0,-0.12,0,0,0.17,90,0,0,0,0,0,0,0,0,-0.435,0,0,0,0,89.96,1,-0.435,0.106,-0.0165,1,0,-0.0165,0,0.6532,5.638,4.41,0.08,0,2,2,0,0,VALID,0,0,0,0,0,1,0,0,0,0,0,0,0,0,0,0,0,0,0,0,1099.26,1101.15,2,0,0.06,0.06,514,14.29,0.08,0.06,34.8,LANDED,X10-G,0:/Integrated Flight Computer/aircraft/x10_g_cfg.ks (inferred preloaded)
35.16,TAKEOFF,TO_ROTATE,142.91,80,-62.91,4.28,-0.36,1.9,2.04,90.07,0.108,1,0,0,0,0,0,0,0,0,0,89.96,6.646,1,0,-0.14,0,0,0.18,90,0,0,0,0,0,0,0,0,-0.437,0,0,0,0,89.96,1,-0.437,0.107,-0.0161,1,0,-0.0161,0,0.6968,6.646,4.744,0.08,0,2,2,0,0,VALID,0,0,0,0,0,1,0,0,0,0,0,0,0,0,0,0,0,0,0,0,1106.92,1108.75,2,0,0.06,0.06,518,14.29,0.08,0.06,35.08,LANDED,X10-G,0:/Integrated Flight Computer/aircraft/x10_g_cfg.ks (inferred preloaded)
35.44,TAKEOFF,TO_ROTATE,144.79,80,-64.79,4.43,-0.29,2.43,2.54,90.07,0.118,1,0,0,0,0,0,0,0,0,0,89.96,7.654,1,0,-0.12,0,0,0.18,90,0,0,0,0,0,0,0,0,-0.439,0,0,0,0,89.96,1,-0.439,0.101,-0.0143,1,0,-0.0143,0,0.72,7.654,5.229,0.08,0,2,2,0,0,VALID,0,0,0,0,0,1,0,0,0,0,0,0,0,0,0,0,0,0,0,0,1114.68,1116.46,2,0,0.06,0.06,522,14.29,0.08,0.06,35.36,LANDED,X10-G,0:/Integrated Flight Computer/aircraft/x10_g_cfg.ks (inferred preloaded)
35.72,TAKEOFF,TO_ROTATE,146.68,80,-66.68,4.49,-0.34,2.66,2.78,90.06,0.114,1,0,0,0,0,0,0,0,0,0,89.96,8.662,1,0,-0.13,0,0,0.18,90,0,0,0,0,0,0,0,0,-0.442,0,0,0,0,89.96,1,-0.442,0.095,-0.013,1,0,-0.013,0,0.72,8.662,6.007,0.08,0,2,2,0,0,VALID,0,0,0,0,0,1,0,0,0,0,0,0,0,0,0,0,0,0,0,0,1122.54,1124.28,2,0,0.06,0.06,526,14.29,0.08,0.06,35.64,LANDED,X10-G,0:/Integrated Flight Computer/aircraft/x10_g_cfg.ks (inferred preloaded)
36,TAKEOFF,TO_ROTATE,148.58,80,-68.58,4.45,-0.31,2.54,2.66,90.05,0.115,1,0,0,0,0,0,0,0,0,0,89.96,9.67,1,0,-0.12,0,0,0.19,90,0,0,0,0,0,0,0,0,-0.443,0,0,0,0,89.96,1,-0.443,0.088,-0.0114,1,0,-0.0114,0,0.72,9.67,7.129,0.08,0,2,2,0,0,VALID,0,0,0,0,0,1,0,0,0,0,0,0,0,0,0,0,0,0,0,0,1130.53,1132.22,2,0,0.06,0.06,530,14.29,0.08,0.06,35.92,LANDED,X10-G,0:/Integrated Flight Computer/aircraft/x10_g_cfg.ks (inferred preloaded)
36.28,TAKEOFF,TO_ROTATE,150.5,80,-70.5,4.34,-0.42,2.19,2.34,90.04,0.114,1,0,0,0,0,0,0,0,0,0,89.96,10.678,1,0,-0.15,0,0,0.19,90,0,0,0,0,0,0,0,0,-0.445,0,0,0,0,89.96,1,-0.445,0.08,-0.01,1,0,-0.01,0,0.72,10.678,8.485,0.08,0,2,2,0,0,VALID,0,0,0,0,0,1,0,0,0,0,0,0,0,0,0,0,0,0,0,0,1138.66,1140.3,2,0,0.06,0.06,534,14.29,0.08,0.06,36.2,LANDED,X10-G,0:/Integrated Flight Computer/aircraft/x10_g_cfg.ks (inferred preloaded)
36.56,TAKEOFF,TO_ROTATE,152.43,80,-72.43,4.21,-0.24,1.8,1.89,90.03,0.115,1,0,0,0,0,0,0,0,0,0,89.96,11.5,1,0,-0.09,0,0,0.2,90,0,0,0,0,0,0,0,0,-0.446,0,0,0,0,89.96,1,-0.446,0.074,-0.0091,1,0,-0.0091,0,0.72,11.5,9.701,0.08,0,2,2,0,0,VALID,0,0,0,0,0,1,0,0,0,0,0,0,0,0,0,0,0,0,0,0,1146.94,1148.54,2,0,0.06,0.06,538,14.29,0.08,0.06,36.48,LANDED,X10-G,0:/Integrated Flight Computer/aircraft/x10_g_cfg.ks (inferred preloaded)
36.84,TAKEOFF,TO_ROTATE,154.38,80,-74.38,4.15,-0.35,1.56,1.69,90.03,0.113,1,0,0,0,0,0,0,0,0,0,89.96,11.5,1,0,-0.13,0,0,0.2,90,0,0,0,0,0,0,0,0,-0.447,0,0,0,0,89.96,1,-0.447,0.069,-0.0086,1,0,-0.0086,0,0.72,11.5,9.937,0.08,0,2,2,0,0,VALID,0,0,0,0,0,1,0,0,0,0,0,0,0,0,0,0,0,0,0,0,1155.36,1156.93,2,0,0.06,0.06,542,14.29,0.08,0.06,36.76,LANDED,X10-G,0:/Integrated Flight Computer/aircraft/x10_g_cfg.ks (inferred preloaded)
37.12,TAKEOFF,TO_ROTATE,156.34,80,-76.34,4.16,-0.24,1.58,1.67,90.02,0.113,1,0,0,0,0,0,0,0,0,0,89.95,11.5,1,0,-0.09,0,0,0.2,90,0,0,0,0,0,0,0,0,-0.448,0,0,0,0,89.95,1,-0.448,0.066,-0.0084,1,0,-0.0084,0,0.72,11.5,9.918,0.08,0,2,2,0,0,VALID,0,0,0,0,0,1,0,0,0,0,0,0,0,0,0,0,0,0,0,0,1163.94,1165.47,2,0,0.06,0.06,546,14.29,0.08,0.06,37.04,LANDED,X10-G,0:/Integrated Flight Computer/aircraft/x10_g_cfg.ks (inferred preloaded)
37.4,TAKEOFF,TO_ROTATE,158.32,80,-78.32,4.24,-0.3,1.84,1.94,90.02,0.113,1,0,0,0,0,0,0,0,0,0,89.95,11.5,1,0,-0.11,0,0,0.21,90,0,0,0,0,0,0,0,0,-0.449,0,0,0,0,89.95,1,-0.449,0.063,-0.0082,1,0,-0.0082,0,0.72,11.5,9.661,0.08,0,2,2,0,0,VALID,0,0,0,0,0,1,0,0,0,0,0,0,0,0,0,0,0,0,0,0,1172.66,1174.16,2,0,0.06,0.06,550,14.29,0.08,0.06,37.32,LANDED,X10-G,0:/Integrated Flight Computer/aircraft/x10_g_cfg.ks (inferred preloaded)
37.68,TAKEOFF,TO_ROTATE,160.31,80,-80.31,4.36,-0.24,2.21,2.29,90.01,0.116,1,0,0,0,0,0,0,0,0,0,89.95,11.5,1,0,-0.08,0,0,0.21,90,0,0,0,0,0,0,0,0,-0.449,0,0,0,0,89.95,1,-0.449,0.06,-0.0078,1,0,-0.0078,0,0.72,11.5,9.289,0.08,0,2,2,0,0,VALID,0,0,0,0,0,1,0,0,0,0,0,0,0,0,0,0,0,0,0,0,1181.52,1182.99,2,0,0.06,0.06,554,14.29,0.08,0.06,37.6,LANDED,X10-G,0:/Integrated Flight Computer/aircraft/x10_g_cfg.ks (inferred preloaded)
37.96,TAKEOFF,TO_ROTATE,162.32,80,-82.32,4.45,-0.27,2.54,2.63,90.01,0.115,1,0,0,0,0,0,0,0,0,0,89.95,11.5,1,0,-0.09,0,0,0.22,90,0,0,0,0,0,0,0,0,-0.45,0,0,0,0,89.95,1,-0.45,0.055,-0.007,1,0,-0.007,0,0.72,11.5,8.964,0.08,0,2,2,0,0,VALID,0,0,0,0,0,1,0,0,0,0,0,0,0,0,0,0,0,0,0,0,1190.51,1191.95,2,0,0.06,0.06,558,14.29,0.08,0.06,37.88,LANDED,X10-G,0:/Integrated Flight Computer/aircraft/x10_g_cfg.ks (inferred preloaded)
38.24,TAKEOFF,TO_ROTATE,164.34,80,-84.34,4.49,-0.24,2.68,2.76,90,0.116,1,0,0,0,0,0,0,0,0,0,89.95,11.5,1,0,-0.08,0,0,0.22,90,0,0,0,0,0,0,0,0,-0.45,0,0,0,0,89.95,1,-0.45,0.051,-0.0065,1,0,-0.0065,0,0.72,11.5,8.82,0.08,0,2,2,0,0,VALID,0,0,0,0,0,1,0,0,0,0,0,0,0,0,0,0,0,0,0,0,1199.64,1201.05,2,0,0.06,0.06,562,14.29,0.08,0.06,38.16,LANDED,X10-G,0:/Integrated Flight Computer/aircraft/x10_g_cfg.ks (inferred preloaded)
38.52,TAKEOFF,TO_ROTATE,166.37,80,-86.37,4.46,-0.25,2.61,2.69,90,0.115,1,0,0,0,0,0,0,0,0,0,89.95,11.5,1,0,-0.09,0,0,0.23,90,0,0,0,0,0,0,0,0,-0.45,0,0,0,0,89.95,1,-0.45,0.046,-0.0052,1,0,-0.0052,0,0.72,11.5,8.891,0.08,0,2,2,0,0,VALID,0,0,0,0,0,1,0,0,0,0,0,0,0,0,0,0,0,0,0,0,1208.92,1210.3,2,0,0.06,0.06,566,14.29,0.08,0.06,38.44,LANDED,X10-G,0:/Integrated Flight Computer/aircraft/x10_g_cfg.ks (inferred preloaded)
38.8,TAKEOFF,TO_ROTATE,168.42,80,-88.42,4.39,-0.23,2.39,2.47,90,0.116,1,0,0,0,0,0,0,0,0,0,89.95,11.5,1,0,-0.08,0,0,0.23,90,0,0,0,0,0,0,0,0,-0.45,0,0,0,0,89.95,1,-0.45,0.043,-0.0049,1,0,-0.0049,0,0.72,11.5,9.109,0.08,0,2,2,0,0,VALID,0,0,0,0,0,1,0,0,0,0,0,0,0,0,0,0,0,0,0,0,1218.35,1219.72,2,0,0.06,0.06,570,14.29,0.08,0.06,38.72,LANDED,X10-G,0:/Integrated Flight Computer/aircraft/x10_g_cfg.ks (inferred preloaded)
39.08,TAKEOFF,TO_ROTATE,170.49,80,-90.49,4.32,-0.23,2.16,2.23,89.99,0.116,1,0,0,0,0,0,0,0,0,0,89.95,11.5,1,0,-0.08,0,0,0.23,90,0,0,0,0,0,0,0,0,-0.449,0,0,0,0,89.95,1,-0.449,0.039,-0.0046,1,0,-0.0046,0,0.72,11.5,9.341,0.08,0,2,2,0,0,VALID,0,0,0,0,0,1,0,0,0,0,0,0,0,0,0,0,0,0,0,0,1227.95,1229.3,2,0,0.06,0.06,574,14.29,0.08,0.06,39,LANDED,X10-G,0:/Integrated Flight Computer/aircraft/x10_g_cfg.ks (inferred preloaded)
39.36,TAKEOFF,TO_ROTATE,172.58,80,-92.58,4.3,-0.42,2.04,2.17,89.99,0.114,1,0,0,0,0,0,0,0,0,0,89.95,11.5,1,0,-0.13,0,0,0.24,90,0,0,0,0,0,0,0,0,-0.449,0,0,0,0,89.95,1,-0.449,0.034,-0.0038,1,0,-0.0038,0,0.72,11.5,9.456,0.08,0,2,2,0,0,VALID,0,0,0,0,0,1,0,0,0,0,0,0,0,0,0,0,0,0,0,0,1237.73,1239.05,2,0,0.06,0.06,578,14.29,0.08,0.06,39.28,LANDED,X10-G,0:/Integrated Flight Computer/aircraft/x10_g_cfg.ks (inferred preloaded)
39.64,TAKEOFF,TO_ROTATE,174.69,80,-94.69,4.3,-0.03,2.09,2.1,89.98,0.117,1,0,0,0,0,0,0,0,0,0,89.95,11.5,1,0,-0.01,0,0,0.24,90,0,0,0,0,0,0,0,0,-0.448,0,0,0,0,89.95,1,-0.448,0.03,-0.0034,1,0,-0.0034,0,0.72,11.5,9.411,0.08,0,2,2,0,0,VALID,0,0,0,0,0,1,0,0,0,0,0,0,0,0,0,0,0,0,0,0,1247.67,1248.98,2,0,0.06,0.06,582,14.29,0.08,0.06,39.56,LANDED,X10-G,0:/Integrated Flight Computer/aircraft/x10_g_cfg.ks (inferred preloaded)
39.92,TAKEOFF,TO_ROTATE,176.81,80,-96.81,4.37,-0.29,2.28,2.37,89.98,0.114,1,0,0,0,0,0,0,0,0,0,89.95,11.5,1,0,-0.09,0,0,0.25,90,0,0,0,0,0,0,0,0,-0.447,0,0,0,0,89.95,1,-0.447,0.027,-0.0031,1,0,-0.0031,0,0.72,11.5,9.215,0.08,0,2,2,0,0,VALID,0,0,0,0,0,1,0,0,0,0,0,0,0,0,0,0,0,0,0,0,1257.77,1259.06,2,0,0.06,0.06,586,14.29,0.08,0.06,39.84,LANDED,X10-G,0:/Integrated Flight Computer/aircraft/x10_g_cfg.ks (inferred preloaded)
40.2,TAKEOFF,TO_ROTATE,178.95,80,-98.95,4.44,-0.08,2.53,2.56,89.98,0.118,1,0,0,0,0,0,0,0,0,0,89.95,11.5,1,0,-0.03,0,0,0.25,90,0,0,0,0,0,0,0,0,-0.446,0,0,0,0,89.95,1,-0.446,0.024,-0.0028,1,0,-0.0028,0,0.72,11.5,8.967,0.08,0,2,2,0,0,VALID,0,0,0,0,0,1,0,0,0,0,0,0,0,0,0,0,0,0,0,0,1268.03,1269.3,2,0,0.06,0.06,590,14.29,0.08,0.06,40.12,LANDED,X10-G,0:/Integrated Flight Computer/aircraft/x10_g_cfg.ks (inferred preloaded)
40.48,TAKEOFF,TO_ROTATE,181.11,80,-101.11,4.51,-0.17,2.74,2.8,89.98,0.117,1,0,0,0,0,0,0,0,0,0,89.96,11.5,1,0,-0.05,0,0,0.26,90,0,0,0,0,0,0,0,0,-0.445,0,0,0,0,89.96,1,-0.445,0.022,-0.0028,1,0,-0.0028,0,0.72,11.5,8.757,0.08,0,2,2,0,0,VALID,0,0,0,0,0,1,0,0,0,0,0,0,0,0,0,0,0,0,0,0,1278.43,1279.7,2,0,0.06,0.06,594,14.29,0.08,0.06,40.4,LANDED,X10-G,0:/Integrated Flight Computer/aircraft/x10_g_cfg.ks (inferred preloaded)
