t_s,phase,subphase,ias_ms,vapp_ms,spd_err_ms,agl_m,gear_h_m,vs_ms,pitch_deg,aoa_deg,hdg_deg,bank_deg,thr_cmd,thr_cur,thr_intg,at_gain,at_tau_s,at_a_up,at_a_dn,at_kp_thr,at_ki_spd,at_thr_slew,as_cmd_deg,as_cap_deg,as_raw_deg,as_spd_err_ms,as_active,aa_hdg_cmd_deg,aa_fpa_cmd_deg,aa_fbw,aa_dir,actual_fpa_deg,ftf_hdg_err_deg,ftf_fix_idx,kos_steer_pit_deg,kos_steer_hdg_deg,aa_dir_vx,aa_dir_vy,aa_dir_vz,aa_dir_pitch_deg,aa_dir_hdg_deg,ils_loc_m,ils_gs_m,ils_dist_km,loc_corr_deg,gs_corr_deg,gs_latched,active_gs_ang_deg,ils_intercept_alt_m,d_gs_ms,fpa_preclamped_deg,gs_nom_alt_m,flare_fpa_cmd,flare_tgt_vs,flare_frac,flare_round_blend_h,flare_round_blend_ttg,flare_round_blend,flare_mode,flare_auth_limited,flare_auth_reason,flare_vs_err,flare_fpa_err,flare_pitch_err,flare_theta_cmd_raw,flare_theta_cmd_clamped,flare_theta_clamp_active,flare_aoa_clamp_active,flare_pitch_in_cmd,elev_defl_avg_deg,elev_defl_max_deg,elev_defl_n,flare_ctrl_h_m,flare_req_up_a,flare_thr_floor,flare_tecs_et_err,flare_tecs_eb_err,flare_tecs_h_ref,flare_tecs_v_ref,flare_gamma_ref,flare_gamma_eb_term,flare_gamma_unsat,steer_hdg_deg,steer_blend,ro_loc_corr_deg,ro_hdg_err_deg,ro_yaw_tgt,ro_yaw_scale,ro_yaw_gate,yaw_cmd,roll_cmd,pitch_cmd,ro_pitch_tgt_deg,ro_pitch_err_deg,ro_pitch_ff,ro_roll_assist,flaps_cur,flaps_tgt,asc_j_ab,asc_j_rk,asc_validity,asc_q_pa,asc_q_raw_pa,asc_mach,asc_apo_m,asc_drag_n,asc_w_prop,asc_edot_aero,asc_edot_orb,asc_pitch_bias,asc_blend,asc_spooling,asc_ab_thr_ratio,asc_ab_t_now,asc_ab_t_avail,asc_ab_ign_on,asc_ab_flameouts,asc_rk_t_now,asc_rk_t_avail,asc_rk_ign_on,asc_rk_flameouts,ship_thrust,ship_avail_thrust,ship_ign_on,ship_flameouts,ifc_raw_dt_s,ifc_dt_s,ifc_loop_n,ifc_hz_est,ifc_raw_dt_max_s,ifc_raw_dt_min_s,phase_el_s,status,craft_name,cfg_file
3.34,TAKEOFF,TO_PREFLIGHT,0,80,80,3.61,11.32,0,-0.2,-16.57,90.64,0.102,0.072,0,0,0,0,0,0,0,0,0,0,0,0,0,0,90.4,0,1,0,-0.06,0,0,0,90,0,0,0,0,0,0,0,0,0,0,0,3,0,0,0,69,0,0,0,0,0,0,,0,NONE,0,0,0,0,0,0,0,0,0,0,0,11.32,0,0,0,0,0,0,0,0,0,90.4,1,0,0.238,0,0,1,0,0,0,0,0,0,0,0,1,0,0,VALID,0,0,0,0,0,1,0,0,0,0,0,0,0,0,0,0,0,0,0,0,0,482.99,2,0,0.18,0.18,1,0.29,0.18,0.02,3.16,LANDED,CF1-J,0:/Integrated Flight Computer/aircraft/cf1_j_cfg.ks (inferred preloaded)
3.62,TAKEOFF,TO_PREFLIGHT,0,80,80,3.61,11.32,0,-0.2,24.82,90.73,0.102,0.352,0,0,0,0,0,0,0,0,0,0,0,0,0,0,90.4,0,1,0,-0.02,0,0,0,90,0,0,0,0,0,0,0,0,0,0,0,3,0,0,0,69,0,0,0,0,0,0,,0,NONE,0,0,0,0,0,0,0,0,0,0,0,11.32,0,0,0,0,0,0,0,0,0,90.4,1,0,0.238,0,0,1,0,0,0,0,0,0,0,1,1,0,0,VALID,0,0,0,0,0,1,0,0,0,0,0,0,0,0,0,0,0,0,0,0,1.51,482.99,2,0,0.06,0.06,5,14.29,3.24,0.06,3.46,LANDED,CF1-J,0:/Integrated Flight Computer/aircraft/cf1_j_cfg.ks (inferred preloaded)
3.92,TAKEOFF,TO_PREFLIGHT,0,80,80,3.61,11.31,0,-0.2,-8.11,90.73,0.102,0.472,0,0,0,0,0,0,0,0,0,0,0,0,0,0,90.4,0,1,0,0.01,0,0,0,90,0,0,0,0,0,0,0,0,0,0,0,3,0,0,0,69,0,0,0,0,0,0,,0,NONE,0,0,0,0,0,0,0,0,0,0,0,11.31,0,0,0,0,0,0,0,0,0,90.4,1,0,0.238,0,0,1,0,0,0,0,0,0,0,1,1,0,0,VALID,0,0,0,0,0,1,0,0,0,0,0,0,0,0,0,0,0,0,0,0,4.78,482.99,2,0,0.06,0.06,10,16.67,0.08,0.04,3.76,LANDED,CF1-J,0:/Integrated Flight Computer/aircraft/cf1_j_cfg.ks (inferred preloaded)
4.18,TAKEOFF,TO_PREFLIGHT,0.01,80,79.99,3.61,11.31,0,-0.2,3.11,90.74,0.1,0.576,0,0,0,0,0,0,0,0,0,0,0,0,0,0,90.4,0,1,0,-0.03,0,0,0,90,0,0,0,0,0,0,0,0,0,0,0,3,0,0,0,69,0,0,0,0,0,0,,0,NONE,0,0,0,0,0,0,0,0,0,0,0,11.31,0,0,0,0,0,0,0,0,0,90.4,1,0,0.238,0,0,1,0,0,0,0,0,0,0,1,1,0,0,VALID,0,0,0,0,0,1,0,0,0,0,0,0,0,0,0,0,0,0,0,0,8.4,482.99,2,0,0.04,0.04,14,15.38,0.08,0.04,4.02,LANDED,CF1-J,0:/Integrated Flight Computer/aircraft/cf1_j_cfg.ks (inferred preloaded)
4.46,TAKEOFF,TO_PREFLIGHT,0.01,80,79.99,3.61,11.31,0,-0.21,-3.41,90.75,0.1,0.688,0,0,0,0,0,0,0,0,0,0,0,0,0,0,90.4,0,1,0,0.04,0,0,0,90,0,0,0,0,0,0,0,0,0,0,0,3,0,0,0,69,0,0,0,0,0,0,,0,NONE,0,0,0,0,0,0,0,0,0,0,0,11.31,0,0,0,0,0,0,0,0,0,90.4,1,0,0.238,0,0,1,0,0,0,0,0,0,0,1,1,0,0,VALID,0,0,0,0,0,1,0,0,0,0,0,0,0,0,0,0,0,0,0,0,13.11,482.99,2,0,0.06,0.06,18,14.29,0.08,0.04,4.3,LANDED,CF1-J,0:/Integrated Flight Computer/aircraft/cf1_j_cfg.ks (inferred preloaded)
4.76,TAKEOFF,TO_PREFLIGHT,0.01,80,79.99,3.61,11.31,0,-0.22,0.78,90.75,0.101,0.808,0,0,0,0,0,0,0,0,0,0,0,0,0,0,90.4,0,1,0,-0.03,0,0,0,90,0,0,0,0,0,0,0,0,0,0,0,3,0,0,0,69,0,0,0,0,0,0,,0,NONE,0,0,0,0,0,0,0,0,0,0,0,11.31,0,0,0,0,0,0,0,0,0,90.4,1,0,0.238,0,0,1,0,0,0,0,0,0,0,1,1,0,0,VALID,0,0,0,0,0,1,0,0,0,0,0,0,0,0,0,0,0,0,0,0,19.08,482.99,2,0,0.06,0.06,23,16.67,0.08,0.04,4.6,LANDED,CF1-J,0:/Integrated Flight Computer/aircraft/cf1_j_cfg.ks (inferred preloaded)
5.04,TAKEOFF,TO_PREFLIGHT,0.02,80,79.98,3.61,11.31,0,-0.22,-0.44,90.76,0.101,0.92,0,0,0,0,0,0,0,0,0,0,0,0,0,0,90.4,0,1,0,0.03,0,0,0,90,0,0,0,0,0,0,0,0,0,0,0,3,0,0,0,69,0,0,0,0,0,0,,0,NONE,0,0,0,0,0,0,0,0,0,0,0,11.31,0,0,0,0,0,0,0,0,0,90.4,1,0,0.238,0,0,1,0,0,0,0,0,0,0,1,1,0,0,VALID,0,0,0,0,0,1,0,0,0,0,0,0,0,0,0,0,0,0,0,0,25.48,482.99,2,0,0.04,0.04,28,17.86,0.08,0.04,4.88,LANDED,CF1-J,0:/Integrated Flight Computer/aircraft/cf1_j_cfg.ks (inferred preloaded)
5.3,TAKEOFF,TO_PREFLIGHT,0.02,80,79.98,3.61,11.31,0,-0.23,-2.77,90.77,0.101,1,0,0,0,0,0,0,0,0,0,0,0,0,0,0,90.4,0,1,0,0.08,0,0,0,90,0,0,0,0,0,0,0,0,0,0,0,3,0,0,0,69,0,0,0,0,0,0,,0,NONE,0,0,0,0,0,0,0,0,0,0,0,11.31,0,0,0,0,0,0,0,0,0,90.4,1,0,0.238,0,0,1,0,0,0,0,0,0,0,1,1,0,0,VALID,0,0,0,0,0,1,0,0,0,0,0,0,0,0,0,0,0,0,0,0,32.15,482.99,2,0,0.08,0.08,32,15.38,0.08,0.04,5.14,LANDED,CF1-J,0:/Integrated Flight Computer/aircraft/cf1_j_cfg.ks (inferred preloaded)
5.58,TAKEOFF,TO_PREFLIGHT,0.03,80,79.97,3.61,11.31,0,-0.24,0.34,90.77,0.101,1,0,0,0,0,0,0,0,0,0,0,0,0,0,0,90.4,0,1,0,-0.01,0,0,0,90,0,0,0,0,0,0,0,0,0,0,0,3,0,0,0,69,0,0,0,0,0,0,,0,NONE,0,0,0,0,0,0,0,0,0,0,0,11.31,0,0,0,0,0,0,0,0,0,90.4,1,0,0.238,0,0,1,0,0,0,0,0,0,0,1,1,0,0,VALID,0,0,0,0,0,1,0,0,0,0,0,0,0,0,0,0,0,0,0,0,39.66,482.99,2,0,0.08,0.08,36,14.29,0.08,0.06,5.42,LANDED,CF1-J,0:/Integrated Flight Computer/aircraft/cf1_j_cfg.ks (inferred preloaded)
5.86,TAKEOFF,TO_GROUND_ROLL,0.03,80,79.97,3.6,11.31,0,-0.25,-1.6,90.78,0.1,1,0,0,0,0,0,0,0,0,0,0,0,0,0,0,90.4,0,1,0,0.03,0,0,0,90,0,0,0,0,0,0,0,0,0,0,0,3,0,0,0,69,0,0,0,0,0,0,,0,NONE,0,0,0,0,0,0,0,0,0,0,0,11.31,0,0,0,0,0,0,0,0,0,90.4,1,0,0.238,0,0,1,0,0,0,0,0,0,0,1,1,0,0,VALID,0,0,0,0,0,1,0,0,0,0,0,0,0,0,0,0,0,0,0,0,47.05,482.98,2,0,0.08,0.08,40,14.29,0.08,0.06,5.7,LANDED,CF1-J,0:/Integrated Flight Computer/aircraft/cf1_j_cfg.ks (inferred preloaded)
6.16,TAKEOFF,TO_GROUND_ROLL,0.12,80,79.88,3.62,11.32,-0.01,-0.18,2.45,90.78,0.1,1,0,0,0,0,0,0,0,0,0,0,0,0,0,0,90.4,0,1,0,-0.61,0,0,0,90,0,0,0,0,0,0,0,0,0,0,0,3,0,0,0,69,0,0,0,0,0,0,,0,NONE,0,0,0,0,0,0,0,0,0,0,0,11.32,0,0,0,0,0,0,0,0,0,90.4,1,0,0.386,-0.0043,0.25,1,-0.0043,0,0,0,0,0,0,1,1,0,0,VALID,0,0,0,0,0,1,0,0,0,0,0,0,0,0,0,0,0,0,0,0,54.31,482.96,2,0,0.08,0.08,44,14.29,0.08,0.06,5.98,LANDED,CF1-J,0:/Integrated Flight Computer/aircraft/cf1_j_cfg.ks (inferred preloaded)
6.44,TAKEOFF,TO_GROUND_ROLL,0.4,80,79.6,3.62,11.32,0,-0.15,-0.42,90.79,0.101,1,0,0,0,0,0,0,0,0,0,0,0,0,0,0,90.4,0,1,0,0.15,0,0,0,90,0,0,0,0,0,0,0,0,0,0,0,3,0,0,0,69,0,0,0,0,0,0,,0,NONE,0,0,0,0,0,0,0,0,0,0,0,11.32,0,0,0,0,0,0,0,0,0,90.4,1,0,0.39,-0.0043,0.25,1,-0.0043,0,0,0,0,0,0,1,1,0,0,VALID,0,0,0,0,0,1,0,0,0,0,0,0,0,0,0,0,0,0,0,0,61.45,482.9,2,0,0.08,0.08,48,14.29,0.08,0.06,6.26,LANDED,CF1-J,0:/Integrated Flight Computer/aircraft/cf1_j_cfg.ks (inferred preloaded)
6.72,TAKEOFF,TO_GROUND_ROLL,0.72,80,79.28,3.61,11.31,-0.01,-0.19,0.28,90.79,0.101,1,0,0,0,0,0,0,0,0,0,0,0,0,0,0,90.4,0,1,0,-0.43,0,0,0,90,0,0,0,0,0,0,0,0,0,0,0,3,0,0,0,69,0,0,0,0,0,0,,0,NONE,0,0,0,0,0,0,0,0,0,0,0,11.31,0,0,0,0,0,0,0,0,0,90.4,1,0,0.394,-0.0044,0.25,1,-0.0044,0,0,0,0,0,0,1,1,0,0,VALID,0,0,0,0,0,1,0,0,0,0,0,0,0,0,0,0,0,0,0,0,68.47,482.83,2,0,0.08,0.08,52,14.29,0.08,0.06,6.54,LANDED,CF1-J,0:/Integrated Flight Computer/aircraft/cf1_j_cfg.ks (inferred preloaded)
7,TAKEOFF,TO_GROUND_ROLL,1.08,80,78.92,3.62,11.32,-0.01,-0.16,0.22,90.79,0.1,1,0,0,0,0,0,0,0,0,0,0,0,0,0,0,90.4,0,1,0,-0.45,0,0,0,90,0,0,0,0,0,0,0,0,0,0,0,3,0,0,0,69,0,0,0,0,0,0,,0,NONE,0,0,0,0,0,0,0,0,0,0,0,11.32,0,0,0,0,0,0,0,0,0,90.4,1,0,0.393,-0.0044,0.25,1,-0.0044,0,0,0,0,0,0,1,1,0,0,VALID,0,0,0,0,0,1,0,0,0,0,0,0,0,0,0,0,0,0,0,0,75.36,482.75,2,0,0.08,0.08,56,14.29,0.08,0.06,6.82,LANDED,CF1-J,0:/Integrated Flight Computer/aircraft/cf1_j_cfg.ks (inferred preloaded)
7.28,TAKEOFF,TO_GROUND_ROLL,1.48,80,78.52,3.62,11.31,-0.01,-0.17,0.06,90.79,0.099,1,0,0,0,0,0,0,0,0,0,0,0,0,0,0,90.4,0,1,0,-0.26,0,0,0,90,0,0,0,0,0,0,0,0,0,0,0,3,0,0,0,69,0,0,0,0,0,0,,0,NONE,0,0,0,0,0,0,0,0,0,0,0,11.31,0,0,0,0,0,0,0,0,0,90.4,1,0,0.389,-0.0043,0.25,1,-0.0043,0,0,0,0,0,0,1,1,0,0,VALID,0,0,0,0,0,1,0,0,0,0,0,0,0,0,0,0,0,0,0,0,82.14,482.65,2,0,0.08,0.08,60,14.29,0.08,0.06,7.1,LANDED,CF1-J,0:/Integrated Flight Computer/aircraft/cf1_j_cfg.ks (inferred preloaded)
7.56,TAKEOFF,TO_GROUND_ROLL,1.91,80,78.09,3.62,11.31,-0.01,-0.17,0.19,90.79,0.1,1,0,0,0,0,0,0,0,0,0,0,0,0,0,0,90.4,0,1,0,-0.41,0,0,0,90,0,0,0,0,0,0,0,0,0,0,0,3,0,0,0,69,0,0,0,0,0,0,,0,NONE,0,0,0,0,0,0,0,0,0,0,0,11.31,0,0,0,0,0,0,0,0,0,90.4,1,0,0.382,-0.0042,0.25,1,-0.0042,0,0,0,0,0,0,1,1,0,0,VALID,0,0,0,0,0,1,0,0,0,0,0,0,0,0,0,0,0,0,0,0,88.79,482.55,2,0,0.08,0.08,64,14.29,0.08,0.06,7.38,LANDED,CF1-J,0:/Integrated Flight Computer/aircraft/cf1_j_cfg.ks (inferred preloaded)
7.84,TAKEOFF,TO_GROUND_ROLL,2.37,80,77.63,3.62,11.31,-0.01,-0.16,0.13,90.78,0.101,1,0,0,0,0,0,0,0,0,0,0,0,0,0,0,90.41,0,1,0,-0.32,0,0,0,90,0,0,0,0,0,0,0,0,-0.001,0,0,3,0,0,0,69,0,0,0,0,0,0,,0,NONE,0,0,0,0,0,0,0,0,0,0,0,11.31,0,0,0,0,0,0,0,0,0,90.41,1,-0.001,0.37,-0.004,0.25,1,-0.004,0,0,0,0,0,0,1,1,0,0,VALID,0,0,0,0,0,1,0,0,0,0,0,0,0,0,0,0,0,0,0,0,95.34,482.44,2,0,0.08,0.08,68,14.29,0.08,0.06,7.66,LANDED,CF1-J,0:/Integrated Flight Computer/aircraft/cf1_j_cfg.ks (inferred preloaded)
8.12,TAKEOFF,TO_GROUND_ROLL,2.86,80,77.14,3.62,11.3,-0.02,-0.16,0.15,90.76,0.102,1,0,0,0,0,0,0,0,0,0,0,0,0,0,0,90.41,0,1,0,-0.35,0,0,0,90,0,0,0,0,0,0,0,0,-0.001,0,0,3,0,0,0,69,0,0,0,0,0,0,,0,NONE,0,0,0,0,0,0,0,0,0,0,0,11.3,0,0,0,0,0,0,0,0,0,90.41,1,-0.001,0.356,-0.0038,0.25,1,-0.0038,0,0,0,0,0,0,1,1,0,0,VALID,0,0,0,0,0,1,0,0,0,0,0,0,0,0,0,0,0,0,0,0,101.76,482.32,2,0,0.08,0.08,72,14.29,0.08,0.06,7.94,LANDED,CF1-J,0:/Integrated Flight Computer/aircraft/cf1_j_cfg.ks (inferred preloaded)
8.4,TAKEOFF,TO_GROUND_ROLL,3.39,80,76.61,3.62,11.3,-0.02,-0.16,0.17,90.75,0.102,1,0,0,0,0,0,0,0,0,0,0,0,0,0,0,90.41,0,1,0,-0.36,0,0,0,90,0,0,0,0,0,0,0,0,-0.001,0,0,3,0,0,0,69,0,0,0,0,0,0,,0,NONE,0,0,0,0,0,0,0,0,0,0,0,11.3,0,0,0,0,0,0,0,0,0,90.41,1,-0.001,0.338,-0.0035,0.25,1,-0.0035,0,0,0,0,0,0,1,1,0,0,VALID,0,0,0,0,0,1,0,0,0,0,0,0,0,0,0,0,0,0,0,0,108.08,482.19,2,0,0.08,0.08,76,14.29,0.08,0.06,8.22,LANDED,CF1-J,0:/Integrated Flight Computer/aircraft/cf1_j_cfg.ks (inferred preloaded)
8.68,TAKEOFF,TO_GROUND_ROLL,3.95,80,76.05,3.62,11.29,-0.02,-0.16,0.15,90.73,0.102,1,0,0,0,0,0,0,0,0,0,0,0,0,0,0,90.41,0,1,0,-0.33,0,0,0,90,0,0,0,0,0,0,0,0,-0.001,0,0,3,0,0,0,69,0,0,0,0,0,0,,0,NONE,0,0,0,0,0,0,0,0,0,0,0,11.29,0,0,0,0,0,0,0,0,0,90.41,1,-0.001,0.317,-0.0032,0.25,1,-0.0032,0,0,0,0,0,0,1,1,0,0,VALID,0,0,0,0,0,1,0,0,0,0,0,0,0,0,0,0,0,0,0,0,114.28,482.05,2,0,0.08,0.08,80,14.29,0.08,0.06,8.5,LANDED,CF1-J,0:/Integrated Flight Computer/aircraft/cf1_j_cfg.ks (inferred preloaded)
8.96,TAKEOFF,TO_GROUND_ROLL,4.54,80,75.46,3.62,11.29,-0.03,-0.16,0.16,90.71,0.102,1,0,0,0,0,0,0,0,0,0,0,0,0,0,0,90.41,0,1,0,-0.34,0,0,0,90,0,0,0,0,0,0,0,0,-0.002,0,0,3,0,0,0,69,0,0,0,0,0,0,,0,NONE,0,0,0,0,0,0,0,0,0,0,0,11.29,0,0,0,0,0,0,0,0,0,90.41,1,-0.002,0.294,-0.0029,0.25,1,-0.0029,0,0,0,0,0,0,1,1,0,0,VALID,0,0,0,0,0,1,0,0,0,0,0,0,0,0,0,0,0,0,0,0,120.37,481.89,2,0,0.08,0.08,84,14.29,0.08,0.06,8.78,LANDED,CF1-J,0:/Integrated Flight Computer/aircraft/cf1_j_cfg.ks (inferred preloaded)
9.22,TAKEOFF,TO_GROUND_ROLL,5.16,80,74.84,3.62,11.28,-0.03,-0.15,0.16,90.68,0.103,1,0,0,0,0,0,0,0,0,0,0,0,0,0,0,90.42,0,1,0,-0.34,0,0,0,90,0,0,0,0,0,0,0,0,-0.002,0,0,3,0,0,0,69,0,0,0,0,0,0,,0,NONE,0,0,0,0,0,0,0,0,0,0,0,11.28,0,0,0,0,0,0,0,0,0,90.42,1,-0.002,0.269,-0.0026,0.25,1,-0.0026,0,0,0,0,0,0,1,1,0,0,VALID,0,0,0,0,0,1,0,0,0,0,0,0,0,0,0,0,0,0,0,0,126.36,481.73,2,0,0.08,0.08,88,14.29,0.08,0.06,9.06,LANDED,CF1-J,0:/Integrated Flight Computer/aircraft/cf1_j_cfg.ks (inferred preloaded)
9.5,TAKEOFF,TO_GROUND_ROLL,5.8,80,74.2,3.62,11.27,-0.03,-0.15,0.16,90.66,0.104,1,0,0,0,0,0,0,0,0,0,0,0,0,0,0,90.42,0,1,0,-0.34,0,0,0,90,0,0,0,0,0,0,0,0,-0.002,0,0,3,0,0,0,69,0,0,0,0,0,0,,0,NONE,0,0,0,0,0,0,0,0,0,0,0,11.27,0,0,0,0,0,0,0,0,0,90.42,1,-0.002,0.244,-0.0023,0.25,1,-0.0023,0,0,0,0,0,0,1,1,0,0,VALID,0,0,0,0,0,1,0,0,0,0,0,0,0,0,0,0,0,0,0,0,132.23,481.55,2,0,0.08,0.08,92,14.29,0.08,0.06,9.34,LANDED,CF1-J,0:/Integrated Flight Computer/aircraft/cf1_j_cfg.ks (inferred preloaded)
9.78,TAKEOFF,TO_GROUND_ROLL,6.48,80,73.52,3.62,11.26,-0.04,-0.15,0.16,90.63,0.105,1,0,0,0,0,0,0,0,0,0,0,0,0,0,0,90.42,0,1,0,-0.34,0,0,0,90,0,0,0,0,0,0,0,0,-0.003,0,0,3,0,0,0,69,0,0,0,0,0,0,,0,NONE,0,0,0,0,0,0,0,0,0,0,0,11.26,0,0,0,0,0,0,0,0,0,90.42,1,-0.003,0.218,-0.002,0.25,1,-0.002,0,0,0,0,0,0,1,1,0,0,VALID,0,0,0,0,0,1,0,0,0,0,0,0,0,0,0,0,0,0,0,0,138,481.36,2,0,0.08,0.08,96,14.29,0.08,0.06,9.62,LANDED,CF1-J,0:/Integrated Flight Computer/aircraft/cf1_j_cfg.ks (inferred preloaded)
10.06,TAKEOFF,TO_GROUND_ROLL,7.19,80,72.81,3.62,11.25,-0.04,-0.15,0.16,90.61,0.106,1,0,0,0,0,0,0,0,0,0,0,0,0,0,0,90.42,0,1,0,-0.34,0,0,0,90,0,0,0,0,0,0,0,0,-0.003,0,0,3,0,0,0,69,0,0,0,0,0,0,,0,NONE,0,0,0,0,0,0,0,0,0,0,0,11.25,0,0,0,0,0,0,0,0,0,90.42,1,-0.003,0.192,-0.0017,0.25,1,-0.0017,0,0,0,0,0,0,1,1,0,0,VALID,0,0,0,0,0,1,0,0,0,0,0,0,0,0,0,0,0,0,0,0,143.67,481.16,2,0,0.08,0.08,100,14.29,0.08,0.06,9.9,LANDED,CF1-J,0:/Integrated Flight Computer/aircraft/cf1_j_cfg.ks (inferred preloaded)
10.34,TAKEOFF,TO_GROUND_ROLL,7.92,80,72.08,3.62,11.24,-0.05,-0.14,0.16,90.58,0.106,1,0,0,0,0,0,0,0,0,0,0,0,0,0,0,90.41,0,1,0,-0.33,0,0,0,90,0,0,0,0,0,0,0,0,-0.004,0,0,3,0,0,0,69,0,0,0,0,0,0,,0,NONE,0,0,0,0,0,0,0,0,0,0,0,11.24,0,0,0,0,0,0,0,0,0,90.41,1,-0.004,0.168,-0.0014,0.25,1,-0.0014,0,0,0,0,0,0,1,1,0,0,VALID,0,0,0,0,0,1,0,0,0,0,0,0,0,0,0,0,0,0,0,0,149.23,480.94,2,0,0.08,0.08,104,14.29,0.08,0.06,10.18,LANDED,CF1-J,0:/Integrated Flight Computer/aircraft/cf1_j_cfg.ks (inferred preloaded)
10.62,TAKEOFF,TO_GROUND_ROLL,8.68,80,71.32,3.62,11.22,-0.05,-0.14,0.17,90.56,0.106,1,0,0,0,0,0,0,0,0,0,0,0,0,0,0,90.41,0,1,0,-0.33,0,0,0,90,0,0,0,0,0,0,0,0,-0.004,0,0,3,0,0,0,69,0,0,0,0,0,0,,0,NONE,0,0,0,0,0,0,0,0,0,0,0,11.22,0,0,0,0,0,0,0,0,0,90.41,1,-0.004,0.145,-0.0012,0.25,1,-0.0012,0,0,0,0,0,0,1,1,0,0,VALID,0,0,0,0,0,1,0,0,0,0,0,0,0,0,0,0,0,0,0,0,154.68,480.72,2,0,0.08,0.08,108,14.29,0.08,0.06,10.46,LANDED,CF1-J,0:/Integrated Flight Computer/aircraft/cf1_j_cfg.ks (inferred preloaded)
10.9,TAKEOFF,TO_GROUND_ROLL,9.47,80,70.53,3.62,11.21,-0.05,-0.14,0.16,90.53,0.106,1,0,0,0,0,0,0,0,0,0,0,0,0,0,0,90.41,0,1,0,-0.33,0,0,0,90,0,0,0,0,0,0,0,0,-0.005,0,0,3,0,0,0,69,0,0,0,0,0,0,,0,NONE,0,0,0,0,0,0,0,0,0,0,0,11.21,0,0,0,0,0,0,0,0,0,90.41,1,-0.005,0.124,-0.001,0.25,1,-0.001,0,0,0,0,0,0,1,1,0,0,VALID,0,0,0,0,0,1,0,0,0,0,0,0,0,0,0,0,0,0,0,0,160.04,480.48,2,0,0.08,0.08,112,14.29,0.08,0.06,10.74,LANDED,CF1-J,0:/Integrated Flight Computer/aircraft/cf1_j_cfg.ks (inferred preloaded)
11.18,TAKEOFF,TO_GROUND_ROLL,10.29,80,69.71,3.62,11.19,-0.06,-0.14,0.17,90.51,0.106,1,0,0,0,0,0,0,0,0,0,0,0,0,0,0,90.41,0,1,0,-0.33,0,0,0,90,0,0,0,0,0,0,0,0,-0.005,0,0,3,0,0,0,69,0,0,0,0,0,0,,0,NONE,0,0,0,0,0,0,0,0,0,0,0,11.19,0,0,0,0,0,0,0,0,0,90.41,1,-0.005,0.106,-0.0008,0.25,1,-0.0008,0,0,0,0,0,0,1,1,0,0,VALID,0,0,0,0,0,1,0,0,0,0,0,0,0,0,0,0,0,0,0,0,165.29,480.22,2,0,0.08,0.08,116,14.29,0.08,0.06,11.02,LANDED,CF1-J,0:/Integrated Flight Computer/aircraft/cf1_j_cfg.ks (inferred preloaded)
11.46,TAKEOFF,TO_GROUND_ROLL,11.13,80,68.87,3.62,11.18,-0.06,-0.14,0.17,90.5,0.106,1,0,0,0,0,0,0,0,0,0,0,0,0,0,0,90.41,0,1,0,-0.33,0,0,0,90,0,0,0,0,0,0,0,0,-0.006,0,0,3,0,0,0,69,0,0,0,0,0,0,,0,NONE,0,0,0,0,0,0,0,0,0,0,0,11.18,0,0,0,0,0,0,0,0,0,90.41,1,-0.006,0.09,-0.0007,0.25,1,-0.0007,0,0,0,0,0,0,1,1,0,0,VALID,0,0,0,0,0,1,0,0,0,0,0,0,0,0,0,0,0,0,0,0,170.45,479.95,2,0,0.08,0.08,120,14.29,0.08,0.06,11.3,LANDED,CF1-J,0:/Integrated Flight Computer/aircraft/cf1_j_cfg.ks (inferred preloaded)
11.74,TAKEOFF,TO_GROUND_ROLL,12,80,68,3.62,11.16,-0.07,-0.13,0.17,90.48,0.106,1,0,0,0,0,0,0,0,0,0,0,0,0,0,0,90.4,0,1,0,-0.33,0,0,0,90,0,0,0,0,0,0,0,0,-0.006,0,0,3,0,0,0,69,0,0,0,0,0,0,,0,NONE,0,0,0,0,0,0,0,0,0,0,0,11.16,0,0,0,0,0,0,0,0,0,90.4,1,-0.006,0.076,-0.0005,0.25,1,-0.0005,0,0,0,0,0,0,1,1,0,0,VALID,0,0,0,0,0,1,0,0,0,0,0,0,0,0,0,0,0,0,0,0,175.5,479.67,2,0,0.08,0.08,124,14.29,0.08,0.06,11.58,LANDED,CF1-J,0:/Integrated Flight Computer/aircraft/cf1_j_cfg.ks (inferred preloaded)
12.02,TAKEOFF,TO_GROUND_ROLL,12.89,80,67.11,3.62,11.14,-0.07,-0.13,0.17,90.47,0.106,1,0,0,0,0,0,0,0,0,0,0,0,0,0,0,90.4,0,1,0,-0.33,0,0,0,90,0,0,0,0,0,0,0,0,-0.007,0,0,3,0,0,0,69,0,0,0,0,0,0,,0,NONE,0,0,0,0,0,0,0,0,0,0,0,11.14,0,0,0,0,0,0,0,0,0,90.4,1,-0.007,0.065,-0.0005,0.25,1,-0.0005,0,0,0,0,0,0,1,1,0,0,VALID,0,0,0,0,0,1,0,0,0,0,0,0,0,0,0,0,0,0,0,0,180.46,479.37,2,0,0.08,0.08,128,14.29,0.08,0.06,11.86,LANDED,CF1-J,0:/Integrated Flight Computer/aircraft/cf1_j_cfg.ks (inferred preloaded)
12.3,TAKEOFF,TO_GROUND_ROLL,13.8,80,66.2,3.62,11.12,-0.08,-0.13,0.18,90.46,0.104,1,0,0,0,0,0,0,0,0,0,0,0,0,0,0,90.4,0,1,0,-0.33,0,0,0,90,0,0,0,0,0,0,0,0,-0.008,0,0,3,0,0,0,69,0,0,0,0,0,0,,0,NONE,0,0,0,0,0,0,0,0,0,0,0,11.12,0,0,0,0,0,0,0,0,0,90.4,1,-0.008,0.057,-0.0004,0.25,1,-0.0004,0,0,0,0,0,0,1,1,0,0,VALID,0,0,0,0,0,1,0,0,0,0,0,0,0,0,0,0,0,0,0,0,185.32,479.05,2,0,0.08,0.08,132,14.29,0.08,0.06,12.14,LANDED,CF1-J,0:/Integrated Flight Computer/aircraft/cf1_j_cfg.ks (inferred preloaded)
12.58,TAKEOFF,TO_GROUND_ROLL,14.74,80,65.26,3.62,11.09,-0.08,-0.13,0.18,90.45,0.104,1,0,0,0,0,0,0,0,0,0,0,0,0,0,0,90.4,0,1,0,-0.33,0,0,0,90,0,0,0,0,0,0,0,0,-0.008,0,0,3,0,0,0,69,0,0,0,0,0,0,,0,NONE,0,0,0,0,0,0,0,0,0,0,0,11.09,0,0,0,0,0,0,0,0,0,90.4,1,-0.008,0.05,-0.0003,0.25,1,-0.0003,0,0,0,0,0,0,1,1,0,0,VALID,0,0,0,0,0,1,0,0,0,0,0,0,0,0,0,0,0,0,0,0,190.09,478.73,2,0,0.08,0.08,136,14.29,0.08,0.06,12.42,LANDED,CF1-J,0:/Integrated Flight Computer/aircraft/cf1_j_cfg.ks (inferred preloaded)
12.86,TAKEOFF,TO_GROUND_ROLL,15.7,80,64.3,3.62,11.07,-0.09,-0.13,0.18,90.44,0.104,1,0,0,0,0,0,0,0,0,0,0,0,0,0,0,90.4,0,1,0,-0.32,0,0,0,90,0,0,0,0,0,0,0,0,-0.009,0,0,3,0,0,0,69,0,0,0,0,0,0,,0,NONE,0,0,0,0,0,0,0,0,0,0,0,11.07,0,0,0,0,0,0,0,0,0,90.4,1,-0.009,0.044,-0.0003,0.25,1,-0.0003,0,0,0,0,0,0,1,1,0,0,VALID,0,0,0,0,0,1,0,0,0,0,0,0,0,0,0,0,0,0,0,0,194.76,478.38,2,0,0.08,0.08,140,14.29,0.08,0.06,12.7,LANDED,CF1-J,0:/Integrated Flight Computer/aircraft/cf1_j_cfg.ks (inferred preloaded)
13.14,TAKEOFF,TO_GROUND_ROLL,16.69,80,63.31,3.62,11.05,-0.09,-0.12,0.18,90.43,0.104,1,0,0,0,0,0,0,0,0,0,0,0,0,0,0,90.39,0,1,0,-0.32,0,0,0.01,90,0,0,0,0,0,0,0,0,-0.01,0,0,3,0,0,0,69,0,0,0,0,0,0,,0,NONE,0,0,0,0,0,0,0,0,0,0,0,11.05,0,0,0,0,0,0,0,0,0,90.39,1,-0.01,0.041,-0.0003,0.25,1,-0.0003,0,0,0,0,0,0,1,1,0,0,VALID,0,0,0,0,0,1,0,0,0,0,0,0,0,0,0,0,0,0,0,0,199.34,478.02,2,0,0.08,0.08,144,14.29,0.08,0.06,12.98,LANDED,CF1-J,0:/Integrated Flight Computer/aircraft/cf1_j_cfg.ks (inferred preloaded)
13.42,TAKEOFF,TO_GROUND_ROLL,17.69,80,62.31,3.62,11.02,-0.1,-0.12,0.18,90.43,0.104,1,0,0,0,0,0,0,0,0,0,0,0,0,0,0,90.39,0,1,0,-0.32,0,0,0.01,90,0,0,0,0,0,0,0,0,-0.011,0,0,3,0,0,0,69,0,0,0,0,0,0,,0,NONE,0,0,0,0,0,0,0,0,0,0,0,11.02,0,0,0,0,0,0,0,0,0,90.39,1,-0.011,0.038,-0.0003,0.25,1,-0.0003,0,0,0,0,0,0,1,1,0,0,VALID,0,0,0,0,0,1,0,0,0,0,0,0,0,0,0,0,0,0,0,0,203.83,477.64,2,0,0.08,0.08,148,14.29,0.08,0.06,13.26,LANDED,CF1-J,0:/Integrated Flight Computer/aircraft/cf1_j_cfg.ks (inferred preloaded)
13.7,TAKEOFF,TO_GROUND_ROLL,18.72,80,61.28,3.62,10.99,-0.1,-0.12,0.18,90.43,0.103,1,0,0,0,0,0,0,0,0,0,0,0,0,0,0,90.39,0,1,0,-0.32,0,0,0.01,90,0,0,0,0,0,0,0,0,-0.011,0,0,3,0,0,0,69,0,0,0,0,0,0,,0,NONE,0,0,0,0,0,0,0,0,0,0,0,10.99,0,0,0,0,0,0,0,0,0,90.39,1,-0.011,0.036,-0.0002,0.25,1,-0.0002,0,0,0,0,0,0,1,1,0,0,VALID,0,0,0,0,0,1,0,0,0,0,0,0,0,0,0,0,0,0,0,0,208.22,477.25,2,0,0.08,0.08,152,14.29,0.08,0.06,13.54,LANDED,CF1-J,0:/Integrated Flight Computer/aircraft/cf1_j_cfg.ks (inferred preloaded)
13.98,TAKEOFF,TO_GROUND_ROLL,19.77,80,60.23,3.62,10.96,-0.11,-0.12,0.18,90.42,0.103,1,0,0,0,0,0,0,0,0,0,0,0,0,0,0,90.39,0,1,0,-0.32,0,0,0.01,90,0,0,0,0,0,0,0,0,-0.012,0,0,3,0,0,0,69,0,0,0,0,0,0,,0,NONE,0,0,0,0,0,0,0,0,0,0,0,10.96,0,0,0,0,0,0,0,0,0,90.39,1,-0.012,0.034,-0.0002,0.25,1,-0.0002,0,0,0,0,0,0,1,1,0,0,VALID,0,0,0,0,0,1,0,0,0,0,0,0,0,0,0,0,0,0,0,0,212.52,476.84,2,0,0.08,0.08,156,14.29,0.08,0.06,13.82,LANDED,CF1-J,0:/Integrated Flight Computer/aircraft/cf1_j_cfg.ks (inferred preloaded)
14.28,TAKEOFF,TO_GROUND_ROLL,20.84,80,59.16,3.62,10.93,-0.12,-0.12,0.18,90.42,0.103,1,0,0,0,0,0,0,0,0,0,0,0,0,0,0,90.39,0,1,0,-0.32,0,0,0.01,90,0,0,0,0,0,0,0,0,-0.013,0,0,3,0,0,0,69,0,0,0,0,0,0,,0,NONE,0,0,0,0,0,0,0,0,0,0,0,10.93,0,0,0,0,0,0,0,0,0,90.39,1,-0.013,0.033,-0.0002,0.259,0,-0.0002,0,0,0,0,0,0,1,1,0,0,VALID,0,0,0,0,0,1,0,0,0,0,0,0,0,0,0,0,0,0,0,0,216.73,476.41,2,0,0.08,0.08,160,14.29,0.08,0.06,14.1,LANDED,CF1-J,0:/Integrated Flight Computer/aircraft/cf1_j_cfg.ks (inferred preloaded)
14.56,TAKEOFF,TO_GROUND_ROLL,21.93,80,58.07,3.62,10.9,-0.12,-0.11,0.19,90.42,0.103,1,0,0,0,0,0,0,0,0,0,0,0,0,0,0,90.39,0,1,0,-0.32,0,0,0.01,90,0,0,0,0,0,0,0,0,-0.014,0,0,3,0,0,0,69,0,0,0,0,0,0,,0,NONE,0,0,0,0,0,0,0,0,0,0,0,10.9,0,0,0,0,0,0,0,0,0,90.39,1,-0.014,0.033,-0.0002,0.271,0,-0.0002,0,0,0,0,0,0,1,1,0,0,VALID,0,0,0,0,0,1,0,0,0,0,0,0,0,0,0,0,0,0,0,0,220.86,475.97,2,0,0.08,0.08,164,14.29,0.08,0.06,14.38,LANDED,CF1-J,0:/Integrated Flight Computer/aircraft/cf1_j_cfg.ks (inferred preloaded)
14.84,TAKEOFF,TO_GROUND_ROLL,23.04,80,56.96,3.62,10.86,-0.13,-0.11,0.19,90.42,0.103,1,0,0,0,0,0,0,0,0,0,0,0,0,0,0,90.39,0,1,0,-0.32,0,0,0.01,90,0,0,0,0,0,0,0,0,-0.015,0,0,3,0,0,0,69,0,0,0,0,0,0,,0,NONE,0,0,0,0,0,0,0,0,0,0,0,10.86,0,0,0,0,0,0,0,0,0,90.39,1,-0.015,0.032,-0.0002,0.283,0,-0.0002,0,0,0,0,0,0,1,1,0,0,VALID,0,0,0,0,0,1,0,0,0,0,0,0,0,0,0,0,0,0,0,0,224.89,475.5,2,0,0.08,0.08,168,14.29,0.08,0.06,14.66,LANDED,CF1-J,0:/Integrated Flight Computer/aircraft/cf1_j_cfg.ks (inferred preloaded)
15.12,TAKEOFF,TO_GROUND_ROLL,24.17,80,55.83,3.62,10.82,-0.13,-0.11,0.19,90.42,0.102,1,0,0,0,0,0,0,0,0,0,0,0,0,0,0,90.38,0,1,0,-0.32,0,0,0.01,90,0,0,0,0,0,0,0,0,-0.016,0,0,3,0,0,0,69,0,0,0,0,0,0,,0,NONE,0,0,0,0,0,0,0,0,0,0,0,10.82,0,0,0,0,0,0,0,0,0,90.38,1,-0.016,0.032,-0.0003,0.295,0,-0.0003,0,0,0,0,0,0,1,1,0,0,VALID,0,0,0,0,0,1,0,0,0,0,0,0,0,0,0,0,0,0,0,0,228.84,475.02,2,0,0.08,0.08,172,14.29,0.08,0.06,14.94,LANDED,CF1-J,0:/Integrated Flight Computer/aircraft/cf1_j_cfg.ks (inferred preloaded)
15.4,TAKEOFF,TO_GROUND_ROLL,25.32,80,54.68,3.63,10.79,-0.14,-0.11,0.19,90.42,0.101,1,0,0,0,0,0,0,0,0,0,0,0,0,0,0,90.38,0,1,0,-0.31,0,0,0.01,90,0,0,0,0,0,0,0,0,-0.017,0,0,3,0,0,0,69,0,0,0,0,0,0,,0,NONE,0,0,0,0,0,0,0,0,0,0,0,10.79,0,0,0,0,0,0,0,0,0,90.38,1,-0.017,0.032,-0.0003,0.307,0,-0.0003,0,0,0,0,0,0,1,1,0,0,VALID,0,0,0,0,0,1,0,0,0,0,0,0,0,0,0,0,0,0,0,0,232.7,474.53,2,0,0.08,0.08,176,14.29,0.08,0.06,15.22,LANDED,CF1-J,0:/Integrated Flight Computer/aircraft/cf1_j_cfg.ks (inferred preloaded)
15.68,TAKEOFF,TO_GROUND_ROLL,26.49,80,53.51,3.63,10.75,-0.15,-0.11,0.19,90.42,0.102,1,0,0,0,0,0,0,0,0,0,0,0,0,0,0,90.38,0,1,0,-0.32,0,0,0.01,90,0,0,0,0,0,0,0,0,-0.018,0,0,3,0,0,0,69,0,0,0,0,0,0,,0,NONE,0,0,0,0,0,0,0,0,0,0,0,10.75,0,0,0,0,0,0,0,0,0,90.38,1,-0.018,0.032,-0.0003,0.32,0,-0.0003,0,0,0,0,0,0,1,1,0,0,VALID,0,0,0,0,0,1,0,0,0,0,0,0,0,0,0,0,0,0,0,0,236.48,474.01,2,0,0.08,0.08,180,14.29,0.08,0.06,15.5,LANDED,CF1-J,0:/Integrated Flight Computer/aircraft/cf1_j_cfg.ks (inferred preloaded)
15.96,TAKEOFF,TO_GROUND_ROLL,27.67,80,52.33,3.63,10.71,-0.15,-0.1,0.19,90.41,0.102,1,0,0,0,0,0,0,0,0,0,0,0,0,0,0,90.38,0,1,0,-0.32,0,0,0.01,90,0,0,0,0,0,0,0,0,-0.019,0,0,3,0,0,0,69,0,0,0,0,0,0,,0,NONE,0,0,0,0,0,0,0,0,0,0,0,10.71,0,0,0,0,0,0,0,0,0,90.38,1,-0.019,0.032,-0.0003,0.332,0,-0.0003,0,0,0,0,0,0,1,1,0,0,VALID,0,0,0,0,0,1,0,0,0,0,0,0,0,0,0,0,0,0,0,0,240.17,473.48,2,0,0.08,0.08,184,14.29,0.08,0.06,15.78,LANDED,CF1-J,0:/Integrated Flight Computer/aircraft/cf1_j_cfg.ks (inferred preloaded)
16.24,TAKEOFF,TO_GROUND_ROLL,28.87,80,51.13,3.63,10.66,-0.16,-0.1,0.19,90.41,0.102,1,0,0,0,0,0,0,0,0,0,0,0,0,0,0,90.38,0,1,0,-0.31,0,0,0.01,90,0,0,0,0,0,0,0,0,-0.021,0,0,3,0,0,0,69,0,0,0,0,0,0,,0,NONE,0,0,0,0,0,0,0,0,0,0,0,10.66,0,0,0,0,0,0,0,0,0,90.38,1,-0.021,0.031,-0.0003,0.345,0,-0.0003,0,0,0,0,0,0,1,1,0,0,VALID,0,0,0,0,0,1,0,0,0,0,0,0,0,0,0,0,0,0,0,0,243.78,472.93,2,0,0.08,0.08,188,14.29,0.08,0.06,16.06,LANDED,CF1-J,0:/Integrated Flight Computer/aircraft/cf1_j_cfg.ks (inferred preloaded)
16.52,TAKEOFF,TO_GROUND_ROLL,30.09,80,49.91,3.63,10.62,-0.16,-0.1,0.19,90.41,0.103,1,0,0,0,0,0,0,0,0,0,0,0,0,0,0,90.38,0,1,0,-0.31,0,0,0.01,90,0,0,0,0,0,0,0,0,-0.022,0,0,3,0,0,0,69,0,0,0,0,0,0,,0,NONE,0,0,0,0,0,0,0,0,0,0,0,10.62,0,0,0,0,0,0,0,0,0,90.38,1,-0.022,0.03,-0.0003,0.358,0,-0.0003,0,0,0,0,0,0,1,1,0,0,VALID,0,0,0,0,0,1,0,0,0,0,0,0,0,0,0,0,0,0,0,0,247.3,472.37,2,0,0.08,0.08,192,14.29,0.08,0.06,16.34,LANDED,CF1-J,0:/Integrated Flight Computer/aircraft/cf1_j_cfg.ks (inferred preloaded)
16.8,TAKEOFF,TO_GROUND_ROLL,31.32,80,48.68,3.63,10.57,-0.17,-0.1,0.2,90.41,0.103,1,0,0,0,0,0,0,0,0,0,0,0,0,0,0,90.38,0,1,0,-0.31,0,0,0.01,90,0,0,0,0,0,0,0,0,-0.023,0,0,3,0,0,0,69,0,0,0,0,0,0,,0,NONE,0,0,0,0,0,0,0,0,0,0,0,10.57,0,0,0,0,0,0,0,0,0,90.38,1,-0.023,0.029,-0.0003,0.371,0,-0.0003,0,0,0,0,0,0,1,1,0,0,VALID,0,0,0,0,0,1,0,0,0,0,0,0,0,0,0,0,0,0,0,0,250.74,471.78,2,0,0.08,0.08,196,14.29,0.08,0.06,16.62,LANDED,CF1-J,0:/Integrated Flight Computer/aircraft/cf1_j_cfg.ks (inferred preloaded)
17.08,TAKEOFF,TO_GROUND_ROLL,32.57,80,47.43,3.63,10.52,-0.18,-0.09,0.2,90.41,0.103,1,0,0,0,0,0,0,0,0,0,0,0,0,0,0,90.38,0,1,0,-0.31,0,0,0.01,90,0,0,0,0,0,0,0,0,-0.025,0,0,3,0,0,0,69,0,0,0,0,0,0,,0,NONE,0,0,0,0,0,0,0,0,0,0,0,10.52,0,0,0,0,0,0,0,0,0,90.38,1,-0.025,0.028,-0.0003,0.385,0,-0.0003,0,0,0,0,0,0,1,1,0,0,VALID,0,0,0,0,0,1,0,0,0,0,0,0,0,0,0,0,0,0,0,0,254.11,471.18,2,0,0.08,0.08,200,14.29,0.08,0.06,16.9,LANDED,CF1-J,0:/Integrated Flight Computer/aircraft/cf1_j_cfg.ks (inferred preloaded)
17.36,TAKEOFF,TO_GROUND_ROLL,33.84,80,46.16,3.63,10.47,-0.18,-0.09,0.2,90.4,0.102,1,0,0,0,0,0,0,0,0,0,0,0,0,0,0,90.38,0,1,0,-0.31,0,0,0.02,90,0,0,0,0,0,0,0,0,-0.026,0,0,3,0,0,0,69,0,0,0,0,0,0,,0,NONE,0,0,0,0,0,0,0,0,0,0,0,10.47,0,0,0,0,0,0,0,0,0,90.38,1,-0.026,0.027,-0.0003,0.398,0,-0.0003,0,0,0,0,0,0,1,1,0,0,VALID,0,0,0,0,0,1,0,0,0,0,0,0,0,0,0,0,0,0,0,0,257.39,470.56,2,0,0.08,0.08,204,14.29,0.08,0.06,17.18,LANDED,CF1-J,0:/Integrated Flight Computer/aircraft/cf1_j_cfg.ks (inferred preloaded)
17.64,TAKEOFF,TO_GROUND_ROLL,35.12,80,44.88,3.63,10.42,-0.19,-0.09,0.2,90.4,0.102,1,0,0,0,0,0,0,0,0,0,0,0,0,0,0,90.37,0,1,0,-0.31,0,0,0.02,90,0,0,0,0,0,0,0,0,-0.027,0,0,3,0,0,0,69,0,0,0,0,0,0,,0,NONE,0,0,0,0,0,0,0,0,0,0,0,10.42,0,0,0,0,0,0,0,0,0,90.37,1,-0.027,0.028,-0.0003,0.412,0,-0.0003,0,0,0,0,0,0,1,1,0,0,VALID,0,0,0,0,0,1,0,0,0,0,0,0,0,0,0,0,0,0,0,0,260.59,469.93,2,0,0.08,0.08,208,14.29,0.08,0.06,17.46,LANDED,CF1-J,0:/Integrated Flight Computer/aircraft/cf1_j_cfg.ks (inferred preloaded)
17.92,TAKEOFF,TO_GROUND_ROLL,36.41,80,43.59,3.63,10.37,-0.19,-0.09,0.2,90.4,0.102,1,0,0,0,0,0,0,0,0,0,0,0,0,0,0,90.37,0,1,0,-0.31,0,0,0.02,90,0,0,0,0,0,0,0,0,-0.029,0,0,3,0,0,0,69,0,0,0,0,0,0,,0,NONE,0,0,0,0,0,0,0,0,0,0,0,10.37,0,0,0,0,0,0,0,0,0,90.37,1,-0.029,0.029,-0.0003,0.426,0,-0.0003,0,0,0,0,0,0,1,1,0,0,VALID,0,0,0,0,0,1,0,0,0,0,0,0,0,0,0,0,0,0,0,0,263.71,469.27,2,0,0.08,0.08,212,14.29,0.08,0.06,17.74,LANDED,CF1-J,0:/Integrated Flight Computer/aircraft/cf1_j_cfg.ks (inferred preloaded)
18.2,TAKEOFF,TO_GROUND_ROLL,37.72,80,42.28,3.63,10.31,-0.2,-0.09,0.2,90.4,0.101,1,0,0,0,0,0,0,0,0,0,0,0,0,0,0,90.37,0,1,0,-0.31,0,0,0.02,90,0,0,0,0,0,0,0,0,-0.03,0,0,3,0,0,0,69,0,0,0,0,0,0,,0,NONE,0,0,0,0,0,0,0,0,0,0,0,10.31,0,0,0,0,0,0,0,0,0,90.37,1,-0.03,0.032,-0.0004,0.44,0,-0.0004,0,0,0,0,0,0,1,1,0,0,VALID,0,0,0,0,0,1,0,0,0,0,0,0,0,0,0,0,0,0,0,0,266.76,468.6,2,0,0.08,0.08,216,14.29,0.08,0.06,18.02,LANDED,CF1-J,0:/Integrated Flight Computer/aircraft/cf1_j_cfg.ks (inferred preloaded)
18.48,TAKEOFF,TO_GROUND_ROLL,39.04,80,40.96,3.63,10.26,-0.21,-0.08,0.2,90.4,0.1,1,0,0,0,0,0,0,0,0,0,0,0,0,0,0,90.37,0,1,0,-0.3,0,0,0.02,90,0,0,0,0,0,0,0,0,-0.032,0,0,3,0,0,0,69,0,0,0,0,0,0,,0,NONE,0,0,0,0,0,0,0,0,0,0,0,10.26,0,0,0,0,0,0,0,0,0,90.37,1,-0.032,0.033,-0.0004,0.454,0,-0.0004,0,0,0,0,0,0,1,1,0,0,VALID,0,0,0,0,0,1,0,0,0,0,0,0,0,0,0,0,0,0,0,0,269.73,467.91,2,0,0.08,0.08,220,14.29,0.08,0.06,18.3,LANDED,CF1-J,0:/Integrated Flight Computer/aircraft/cf1_j_cfg.ks (inferred preloaded)
18.76,TAKEOFF,TO_GROUND_ROLL,40.37,80,39.63,3.63,10.2,-0.21,-0.08,0.2,90.4,0.099,1,0,0,0,0,0,0,0,0,0,0,0,0,0,0,90.37,0,1,0,-0.3,0,0,0.02,90,0,0,0,0,0,0,0,0,-0.034,0,0,3,0,0,0,69,0,0,0,0,0,0,,0,NONE,0,0,0,0,0,0,0,0,0,0,0,10.2,0,0,0,0,0,0,0,0,0,90.37,1,-0.034,0.034,-0.0004,0.468,0,-0.0004,0,0,0,0,0,0,1,1,0,0,VALID,0,0,0,0,0,1,0,0,0,0,0,0,0,0,0,0,0,0,0,0,272.62,467.21,2,0,0.08,0.08,224,14.29,0.08,0.06,18.58,LANDED,CF1-J,0:/Integrated Flight Computer/aircraft/cf1_j_cfg.ks (inferred preloaded)
19.04,TAKEOFF,TO_GROUND_ROLL,41.72,80,38.28,3.63,10.14,-0.22,-0.08,0.21,90.4,0.1,1,0,0,0,0,0,0,0,0,0,0,0,0,0,0,90.37,0,1,0,-0.3,0,0,0.02,90,0,0,0,0,0,0,0,0,-0.035,0,0,3,0,0,0,69,0,0,0,0,0,0,,0,NONE,0,0,0,0,0,0,0,0,0,0,0,10.14,0,0,0,0,0,0,0,0,0,90.37,1,-0.035,0.035,-0.0005,0.483,0,-0.0005,0,0,0,0,0,0,1,1,0,0,VALID,0,0,0,0,0,1,0,0,0,0,0,0,0,0,0,0,0,0,0,0,275.44,466.49,2,0,0.08,0.08,228,14.29,0.08,0.06,18.86,LANDED,CF1-J,0:/Integrated Flight Computer/aircraft/cf1_j_cfg.ks (inferred preloaded)
19.32,TAKEOFF,TO_GROUND_ROLL,43.08,80,36.92,3.63,10.08,-0.23,-0.08,0.21,90.4,0.1,1,0,0,0,0,0,0,0,0,0,0,0,0,0,0,90.36,0,1,0,-0.3,0,0,0.02,90,0,0,0,0,0,0,0,0,-0.037,0,0,3,0,0,0,69,0,0,0,0,0,0,,0,NONE,0,0,0,0,0,0,0,0,0,0,0,10.08,0,0,0,0,0,0,0,0,0,90.36,1,-0.037,0.037,-0.0005,0.497,0,-0.0005,0,0,0,0,0,0,1,1,0,0,VALID,0,0,0,0,0,1,0,0,0,0,0,0,0,0,0,0,0,0,0,0,278.19,465.75,2,0,0.08,0.08,232,14.29,0.08,0.06,19.14,LANDED,CF1-J,0:/Integrated Flight Computer/aircraft/cf1_j_cfg.ks (inferred preloaded)
19.6,TAKEOFF,TO_GROUND_ROLL,44.45,80,35.55,3.63,10.01,-0.23,-0.07,0.21,90.4,0.1,1,0,0,0,0,0,0,0,0,0,0,0,0,0,0,90.36,0,1,0,-0.3,0,0,0.02,90,0,0,0,0,0,0,0,0,-0.039,0,0,3,0,0,0,69,0,0,0,0,0,0,,0,NONE,0,0,0,0,0,0,0,0,0,0,0,10.01,0,0,0,0,0,0,0,0,0,90.36,1,-0.039,0.039,-0.0005,0.512,0,-0.0005,0,0,0,0,0,0,1,1,0,0,VALID,0,0,0,0,0,1,0,0,0,0,0,0,0,0,0,0,0,0,0,0,280.86,465,2,0,0.08,0.08,236,14.29,0.08,0.06,19.42,LANDED,CF1-J,0:/Integrated Flight Computer/aircraft/cf1_j_cfg.ks (inferred preloaded)
19.88,TAKEOFF,TO_GROUND_ROLL,45.83,80,34.17,3.63,9.95,-0.24,-0.07,0.21,90.4,0.099,1,0,0,0,0,0,0,0,0,0,0,0,0,0,0,90.36,0,1,0,-0.3,0,0,0.03,90,0,0,0,0,0,0,0,0,-0.041,0,0,3,0,0,0,69,0,0,0,0,0,0,,0,NONE,0,0,0,0,0,0,0,0,0,0,0,9.95,0,0,0,0,0,0,0,0,0,90.36,1,-0.041,0.042,-0.0006,0.527,0,-0.0006,0,0,0,0,0,0,1,1,0,0,VALID,0,0,0,0,0,1,0,0,0,0,0,0,0,0,0,0,0,0,0,0,283.47,464.23,2,0,0.08,0.08,240,14.29,0.08,0.06,19.7,LANDED,CF1-J,0:/Integrated Flight Computer/aircraft/cf1_j_cfg.ks (inferred preloaded)
20.16,TAKEOFF,TO_GROUND_ROLL,47.22,80,32.78,3.63,9.88,-0.24,-0.07,0.21,90.4,0.098,1,0,0,0,0,0,0,0,0,0,0,0,0,0,0,90.36,0,1,0,-0.29,0,0,0.03,90,0,0,0,0,0,0,0,0,-0.043,0,0,3,0,0,0,69,0,0,0,0,0,0,,0,NONE,0,0,0,0,0,0,0,0,0,0,0,9.88,0,0,0,0,0,0,0,0,0,90.36,1,-0.043,0.046,-0.0007,0.542,0,-0.0007,0,0,0,0,0,0,1,1,0,0,VALID,0,0,0,0,0,1,0,0,0,0,0,0,0,0,0,0,0,0,0,0,286,463.45,2,0,0.08,0.08,244,14.29,0.08,0.06,19.98,LANDED,CF1-J,0:/Integrated Flight Computer/aircraft/cf1_j_cfg.ks (inferred preloaded)
20.44,TAKEOFF,TO_GROUND_ROLL,48.63,80,31.37,3.63,9.81,-0.25,-0.07,0.21,90.4,0.096,1,0,0,0,0,0,0,0,0,0,0,0,0,0,0,90.35,0,1,0,-0.29,0,0,0.03,90,0,0,0,0,0,0,0,0,-0.045,0,0,3,0,0,0,69,0,0,0,0,0,0,,0,NONE,0,0,0,0,0,0,0,0,0,0,0,9.81,0,0,0,0,0,0,0,0,0,90.35,1,-0.045,0.05,-0.0008,0.557,0,-0.0008,0,0,0,0,0,0,1,1,0,0,VALID,0,0,0,0,0,1,0,0,0,0,0,0,0,0,0,0,0,0,0,0,288.46,462.65,2,0,0.08,0.08,248,14.29,0.08,0.06,20.26,LANDED,CF1-J,0:/Integrated Flight Computer/aircraft/cf1_j_cfg.ks (inferred preloaded)
20.72,TAKEOFF,TO_GROUND_ROLL,50.04,80,29.96,3.63,9.74,-0.26,-0.06,0.21,90.41,0.095,1,0,0,0,0,0,0,0,0,0,0,0,0,0,0,90.35,0,1,0,-0.29,0,0,0.03,90,0,0,0,0,0,0,0,0,-0.047,0,0,3,0,0,0,69,0,0,0,0,0,0,,0,NONE,0,0,0,0,0,0,0,0,0,0,0,9.74,0,0,0,0,0,0,0,0,0,90.35,1,-0.047,0.056,-0.0009,0.572,0,-0.0009,0,0,0,0,0,0,1,1,0,0,VALID,0,0,0,0,0,1,0,0,0,0,0,0,0,0,0,0,0,0,0,0,290.85,461.84,2,0,0.08,0.08,252,14.29,0.08,0.06,20.54,LANDED,CF1-J,0:/Integrated Flight Computer/aircraft/cf1_j_cfg.ks (inferred preloaded)
21,TAKEOFF,TO_GROUND_ROLL,51.46,80,28.54,3.64,9.67,-0.26,-0.06,0.21,90.41,0.094,1,0,0,0,0,0,0,0,0,0,0,0,0,0,0,90.35,0,1,0,-0.29,0,0,0.03,90,0,0,0,0,0,0,0,0,-0.049,0,0,3,0,0,0,69,0,0,0,0,0,0,,0,NONE,0,0,0,0,0,0,0,0,0,0,0,9.67,0,0,0,0,0,0,0,0,0,90.35,1,-0.049,0.064,-0.0011,0.587,0,-0.0011,0,0,0,0,0,0,1,1,0,0,VALID,0,0,0,0,0,1,0,0,0,0,0,0,0,0,0,0,0,0,0,0,293.18,461.01,2,0,0.08,0.08,256,14.29,0.08,0.06,20.82,LANDED,CF1-J,0:/Integrated Flight Computer/aircraft/cf1_j_cfg.ks (inferred preloaded)
21.28,TAKEOFF,TO_GROUND_ROLL,52.89,80,27.11,3.64,9.6,-0.27,-0.06,0.22,90.42,0.092,1,0,0,0,0,0,0,0,0,0,0,0,0,0,0,90.34,0,1,0,-0.29,0,0,0.03,90,0,0,0,0,0,0,0,0,-0.051,0,0,3,0,0,0,69,0,0,0,0,0,0,,0,NONE,0,0,0,0,0,0,0,0,0,0,0,9.6,0,0,0,0,0,0,0,0,0,90.34,1,-0.051,0.074,-0.0013,0.602,0,-0.0013,0,0,0,0,0,0,1,1,0,0,VALID,0,0,0,0,0,1,0,0,0,0,0,0,0,0,0,0,0,0,0,0,295.44,460.17,2,0,0.08,0.08,260,14.29,0.08,0.06,21.1,LANDED,CF1-J,0:/Integrated Flight Computer/aircraft/cf1_j_cfg.ks (inferred preloaded)
21.56,TAKEOFF,TO_GROUND_ROLL,54.33,80,25.67,3.64,9.52,-0.27,-0.05,0.22,90.43,0.088,1,0,0,0,0,0,0,0,0,0,0,0,0,0,0,90.34,0,1,0,-0.29,0,0,0.03,90,0,0,0,0,0,0,0,0,-0.053,0,0,3,0,0,0,69,0,0,0,0,0,0,,0,NONE,0,0,0,0,0,0,0,0,0,0,0,9.52,0,0,0,0,0,0,0,0,0,90.34,1,-0.053,0.088,-0.0016,0.618,0,-0.0016,0,0,0,0,0,0,1,1,0,0,VALID,0,0,0,0,0,1,0,0,0,0,0,0,0,0,0,0,0,0,0,0,297.63,459.31,2,0,0.08,0.08,264,14.29,0.08,0.06,21.38,LANDED,CF1-J,0:/Integrated Flight Computer/aircraft/cf1_j_cfg.ks (inferred preloaded)
21.84,TAKEOFF,TO_GROUND_ROLL,55.78,80,24.22,3.64,9.45,-0.28,-0.04,0.23,90.44,0.084,1,0,0,0,0,0,0,0,0,0,0,0,0,0,0,90.33,0,1,0,-0.28,0,0,0.04,90,0,0,0,0,0,0,0,0,-0.056,0,0,3,0,0,0,69,0,0,0,0,0,0,,0,NONE,0,0,0,0,0,0,0,0,0,0,0,9.45,0,0,0,0,0,0,0,0,0,90.33,1,-0.056,0.105,-0.002,0.633,0,-0.002,0,0,0,0,0,0,1,1,0,0,VALID,0,0,0,0,0,1,0,0,0,0,0,0,0,0,0,0,0,0,0,0,299.76,458.45,2,0,0.08,0.08,268,14.29,0.08,0.06,21.66,LANDED,CF1-J,0:/Integrated Flight Computer/aircraft/cf1_j_cfg.ks (inferred preloaded)
22.12,TAKEOFF,TO_GROUND_ROLL,57.23,80,22.77,3.65,9.37,-0.28,-0.01,0.26,90.45,0.079,1,0,0,0,0,0,0,0,0,0,0,0,0,0,0,90.33,0,1,0,-0.28,0,0,0.04,90,0,0,0,0,0,0,0,0,-0.058,0,0,3,0,0,0,69,0,0,0,0,0,0,,0,NONE,0,0,0,0,0,0,0,0,0,0,0,9.37,0,0,0,0,0,0,0,0,0,90.33,1,-0.058,0.124,-0.0025,0.649,0,-0.0025,0,0,0,0,0,0,1,1,0,0,VALID,0,0,0,0,0,1,0,0,0,0,0,0,0,0,0,0,0,0,0,0,301.83,457.57,2,0,0.08,0.08,272,14.29,0.08,0.06,21.94,LANDED,CF1-J,0:/Integrated Flight Computer/aircraft/cf1_j_cfg.ks (inferred preloaded)
22.4,TAKEOFF,TO_GROUND_ROLL,58.69,80,21.31,3.66,9.3,-0.28,0.04,0.3,90.47,0.077,1,0,0,0,0,0,0,0,0,0,0,0,0,0,0,90.33,0,1,0,-0.28,0,0,0.04,90,0,0,0,0,0,0,0,0,-0.061,0,0,3,0,0,0,69,0,0,0,0,0,0,,0,NONE,0,0,0,0,0,0,0,0,0,0,0,9.3,0,0,0,0,0,0,0,0,0,90.33,1,-0.061,0.142,-0.003,0.665,0,-0.003,0,0,0,0,0,0,1,1,0,0,VALID,0,0,0,0,0,1,0,0,0,0,0,0,0,0,0,0,0,0,0,0,303.83,456.67,2,0,0.08,0.08,276,14.29,0.08,0.06,22.22,LANDED,CF1-J,0:/Integrated Flight Computer/aircraft/cf1_j_cfg.ks (inferred preloaded)
22.68,TAKEOFF,TO_GROUND_ROLL,60.16,80,19.84,3.68,9.24,-0.21,0.1,0.29,90.49,0.078,1,0,0,0,0,0,0,0,0,0,0,0,0,0,0,90.33,0,1,0,-0.2,0,0,0.04,90,0,0,0,0,0,0,0,0,-0.064,0,0,3,0,0,0,69,0,0,0,0,0,0,,0,NONE,0,0,0,0,0,0,0,0,0,0,0,9.24,0,0,0,0,0,0,0,0,0,90.33,1,-0.064,0.16,-0.0036,0.68,0,-0.0036,0,0,0,0,0,0,1,1,0,0,VALID,0,0,0,0,0,1,0,0,0,0,0,0,0,0,0,0,0,0,0,0,305.77,455.77,2,0,0.08,0.08,280,14.29,0.08,0.06,22.5,LANDED,CF1-J,0:/Integrated Flight Computer/aircraft/cf1_j_cfg.ks (inferred preloaded)
22.96,TAKEOFF,TO_GROUND_ROLL,61.64,80,18.36,3.7,9.18,-0.29,0.22,0.48,90.5,0.083,1,0,0,0,0,0,0,0,0,0,0,0,0,0,0,90.32,0,1,0,-0.27,0,0,0.04,90,0,0,0,0,0,0,0,0,-0.067,0,0,3,0,0,0,69,0,0,0,0,0,0,,0,NONE,0,0,0,0,0,0,0,0,0,0,0,9.18,0,0,0,0,0,0,0,0,0,90.32,1,-0.067,0.179,-0.0042,0.696,0,-0.0042,0,0,0,0,0,0,1,1,0,0,VALID,0,0,0,0,0,1,0,0,0,0,0,0,0,0,0,0,0,0,0,0,307.66,454.86,2,0,0.08,0.08,284,14.29,0.08,0.06,22.78,LANDED,CF1-J,0:/Integrated Flight Computer/aircraft/cf1_j_cfg.ks (inferred preloaded)
23.24,TAKEOFF,TO_GROUND_ROLL,63.12,80,16.88,3.72,9.12,-0.31,0.34,0.6,90.52,0.084,1,0,0,0,0,0,0,0,0,0,0,0,0,0,0,90.32,0,1,0,-0.28,0,0,0.04,90,0,0,0,0,0,0,0,0,-0.07,0,0,3,0,0,0,69,0,0,0,0,0,0,,0,NONE,0,0,0,0,0,0,0,0,0,0,0,9.12,0,0,0,0,0,0,0,0,0,90.32,1,-0.07,0.196,-0.0049,0.712,0,-0.0049,0,0,0,0,0,0,1,1,0,0,VALID,0,0,0,0,0,1,0,0,0,0,0,0,0,0,0,0,0,0,0,0,309.48,453.93,2,0,0.08,0.08,288,14.29,0.08,0.06,23.06,LANDED,CF1-J,0:/Integrated Flight Computer/aircraft/cf1_j_cfg.ks (inferred preloaded)
23.52,TAKEOFF,TO_GROUND_ROLL,64.6,80,15.4,3.74,9.05,-0.3,0.43,0.68,90.53,0.083,1,0,0,0,0,0,0,0,0,0,0,0,0,0,0,90.32,0,1,0,-0.26,0,0,0.05,90,0,0,0,0,0,0,0,0,-0.074,0,0,3,0,0,0,69,0,0,0,0,0,0,,0,NONE,0,0,0,0,0,0,0,0,0,0,0,9.05,0,0,0,0,0,0,0,0,0,90.32,1,-0.074,0.211,-0.0055,0.728,0,-0.0055,0,0,0,0,0,0,1,1,0,0,VALID,0,0,0,0,0,1,0,0,0,0,0,0,0,0,0,0,0,0,0,0,311.25,453,2,0,0.08,0.08,292,14.29,0.08,0.06,23.34,LANDED,CF1-J,0:/Integrated Flight Computer/aircraft/cf1_j_cfg.ks (inferred preloaded)
23.8,TAKEOFF,TO_GROUND_ROLL,66.09,80,13.91,3.75,8.97,-0.48,0.51,0.91,90.54,0.081,1,0,0,0,0,0,0,0,0,0,0,0,0,0,0,90.32,0,1,0,-0.42,0,0,0.05,90,0,0,0,0,0,0,0,0,-0.077,0,0,3,0,0,0,69,0,0,0,0,0,0,,0,NONE,0,0,0,0,0,0,0,0,0,0,0,8.97,0,0,0,0,0,0,0,0,0,90.32,1,-0.077,0.224,-0.006,0.744,0,-0.006,0,0,0,0,0,0,1,1,0,0,VALID,0,0,0,0,0,1,0,0,0,0,0,0,0,0,0,0,0,0,0,0,312.97,452.06,2,0,0.08,0.08,296,14.29,0.08,0.06,23.62,LANDED,CF1-J,0:/Integrated Flight Computer/aircraft/cf1_j_cfg.ks (inferred preloaded)
24.08,TAKEOFF,TO_GROUND_ROLL,67.58,80,12.42,3.76,8.88,-0.24,0.54,0.73,90.55,0.082,1,0,0,0,0,0,0,0,0,0,0,0,0,0,0,90.31,0,1,0,-0.2,0,0,0.05,90,0,0,0,0,0,0,0,0,-0.081,0,0,3,0,0,0,69,0,0,0,0,0,0,,0,NONE,0,0,0,0,0,0,0,0,0,0,0,8.88,0,0,0,0,0,0,0,0,0,90.31,1,-0.081,0.238,-0.0067,0.76,0,-0.0067,0,0,0,0,0,0,1,1,0,0,VALID,0,0,0,0,0,1,0,0,0,0,0,0,0,0,0,0,0,0,0,0,314.63,451.11,2,0,0.08,0.08,300,14.29,0.08,0.06,23.9,LANDED,CF1-J,0:/Integrated Flight Computer/aircraft/cf1_j_cfg.ks (inferred preloaded)
24.36,TAKEOFF,TO_ROTATE,69.18,80,10.82,3.76,8.78,-0.32,0.56,0.82,90.56,0.084,1,0,0,0,0,0,0,0,0,0,0,0,0,0,0,90.31,0.97,1,0,-0.27,0,0,0.05,90,0,0,0,0,0,0,0,0,-0.085,0,0,3,0,0,0,69,0,0,0,0,0,0,,0,NONE,0,0,0,0,0,0,0,0.12,0,0,0,8.78,0,0,0,0,0,0,0,0,0,90.31,1,-0.085,0.251,-0.0073,0.776,0,-0.0073,0,0.12,0.97,0.406,0.08,0,1,1,0,0,VALID,0,0,0,0,0,1,0,0,0,0,0,0,0,0,0,0,0,0,0,0,316.34,450.09,2,0,0.08,0.08,304,13.33,0.08,0.06,24.18,LANDED,CF1-J,0:/Integrated Flight Computer/aircraft/cf1_j_cfg.ks (inferred preloaded)
24.64,TAKEOFF,TO_ROTATE,70.67,80,9.33,3.77,8.7,-0.33,0.63,0.88,90.57,0.086,1,0,0,0,0,0,0,0,0,0,0,0,0,0,0,90.31,1.81,1,0,-0.27,0,0,0.05,90,0,0,0,0,0,0,0,0,-0.089,0,0,3,0,0,0,69,0,0,0,0,0,0,,0,NONE,0,0,0,0,0,0,0,0.1747,0,0,0,8.7,0,0,0,0,0,0,0,0,0,90.31,1,-0.089,0.262,-0.0079,0.792,0,-0.0079,0,0.1747,1.81,1.184,0.08,0,1,1,0,0,VALID,0,0,0,0,0,1,0,0,0,0,0,0,0,0,0,0,0,0,0,0,317.89,449.13,2,0,0.08,0.08,308,14.29,0.08,0.06,24.46,LANDED,CF1-J,0:/Integrated Flight Computer/aircraft/cf1_j_cfg.ks (inferred preloaded)
24.94,TAKEOFF,TO_ROTATE,72.28,80,7.72,3.81,8.64,-0.31,0.83,1.06,90.57,0.086,1,0,0,0,0,0,0,0,0,0,0,0,0,0,0,90.3,2.71,1,0,-0.25,0,0,0.06,90,0,0,0,0,0,0,0,0,-0.093,0,0,3,0,0,0,69,0,0,0,0,0,0,,0,NONE,0,0,0,0,0,0,0,0.2304,0,0,0,8.64,0,0,0,0,0,0,0,0,0,90.3,1,-0.093,0.273,-0.0085,0.809,0,-0.0085,0,0.2304,2.71,1.88,0.08,0,1,1,0,0,VALID,0,0,0,0,0,1,0,0,0,0,0,0,0,0,0,0,0,0,0,0,319.5,448.09,2,0,0.08,0.08,312,13.33,0.08,0.06,24.76,LANDED,CF1-J,0:/Integrated Flight Computer/aircraft/cf1_j_cfg.ks (inferred preloaded)
25.22,TAKEOFF,TO_ROTATE,73.77,80,6.23,3.87,8.61,-0.31,1.14,1.37,90.58,0.086,1,0,0,0,0,0,0,0,0,0,0,0,0,0,0,90.3,3.55,1,0,-0.24,0,0,0.06,90,0,0,0,0,0,0,0,0,-0.098,0,0,3,0,0,0,69,0,0,0,0,0,0,,0,NONE,0,0,0,0,0,0,0,0.2731,0,0,0,8.61,0,0,0,0,0,0,0,0,0,90.3,1,-0.098,0.282,-0.0091,0.825,0,-0.0091,0,0.2731,3.55,2.414,0.08,0,1,1,0,0,VALID,0,0,0,0,0,1,0,0,0,0,0,0,0,0,0,0,0,0,0,0,320.94,447.12,2,0,0.08,0.08,316,14.29,0.08,0.06,25.04,LANDED,CF1-J,0:/Integrated Flight Computer/aircraft/cf1_j_cfg.ks (inferred preloaded)
25.5,TAKEOFF,TO_ROTATE,75.26,80,4.74,3.93,8.58,-0.28,1.49,1.69,90.58,0.084,1,0,0,0,0,0,0,0,0,0,0,0,0,0,0,90.3,4.39,1,0,-0.21,0,0,0.06,90,0,0,0,0,0,0,0,0,-0.102,0,0,3,0,0,0,69,0,0,0,0,0,0,,0,NONE,0,0,0,0,0,0,0,0.3123,0,0,0,8.58,0,0,0,0,0,0,0,0,0,90.3,1,-0.102,0.286,-0.0095,0.841,0,-0.0095,0,0.3123,4.39,2.904,0.08,0,1,1,0,0,VALID,0,0,0,0,0,1,0,0,0,0,0,0,0,0,0,0,0,0,0,0,322.35,446.14,2,0,0.08,0.08,320,14.29,0.08,0.06,25.32,LANDED,CF1-J,0:/Integrated Flight Computer/aircraft/cf1_j_cfg.ks (inferred preloaded)
25.78,TAKEOFF,TO_ROTATE,76.74,80,3.26,4.04,8.59,-0.08,1.88,1.92,90.58,0.08,1,0,0,0,0,0,0,0,0,0,0,0,0,0,0,90.3,5.23,1,0,-0.04,0,0,0.06,90,0,0,0,0,0,0,0,0,-0.107,0,0,3,0,0,0,69,0,0,0,0,0,0,,0,NONE,0,0,0,0,0,0,0,0.3479,0,0,0,8.59,0,0,0,0,0,0,0,0,0,90.3,1,-0.107,0.288,-0.0097,0.857,0,-0.0097,0,0.3479,5.23,3.348,0.08,0,1,1,0,0,VALID,0,0,0,0,0,1,0,0,0,0,0,0,0,0,0,0,0,0,0,0,323.71,445.17,2,0,0.08,0.08,324,14.29,0.08,0.06,25.6,LANDED,CF1-J,0:/Integrated Flight Computer/aircraft/cf1_j_cfg.ks (inferred preloaded)
26.06,TAKEOFF,TO_ROTATE,78.2,80,1.8,4.17,8.62,-0.27,2.59,2.8,90.58,0.086,1,0,0,0,0,0,0,0,0,0,0,0,0,0,0,90.29,6.07,1,0,-0.23,0,0,0.06,90,0,0,0,0,0,0,0,0,-0.111,0,0,3,0,0,0,69,0,0,0,0,0,0,,0,NONE,0,0,0,0,0,0,0,0.3586,0,0,0,8.62,0,0,0,0,0,0,0,0,0,90.29,1,-0.111,0.293,-0.0102,0.872,0,-0.0102,0,0.3586,6.07,3.483,0.08,0,1,1,0,0,VALID,0,0,0,0,0,1,0,0,0,0,0,0,0,0,0,0,0,0,0,0,325.03,444.21,2,0,0.08,0.08,328,14.29,0.08,0.06,25.88,LANDED,CF1-J,0:/Integrated Flight Computer/aircraft/cf1_j_cfg.ks (inferred preloaded)
26.34,TAKEOFF,TO_ROTATE,79.64,80,0.36,4.36,8.72,-0.25,3.49,3.65,90.58,0.089,1,0,0,0,0,0,0,0,0,0,0,0,0,0,0,90.29,6.91,1,0,-0.17,0,0,0.07,90,0,0,0,0,0,0,0,0,-0.116,0,0,3,0,0,0,69,0,0,0,0,0,0,,0,NONE,0,0,0,0,0,0,0,0.3538,0,0,0,8.72,0,0,0,0,0,0,0,0,0,90.29,1,-0.116,0.295,-0.0104,0.888,0,-0.0104,0,0.3538,6.91,3.423,0.08,0,1,1,0,0,VALID,0,0,0,0,0,1,0,0,0,0,0,0,0,0,0,0,0,0,0,0,326.32,443.26,2,0,0.08,0.08,332,14.29,0.08,0.06,26.16,LANDED,CF1-J,0:/Integrated Flight Computer/aircraft/cf1_j_cfg.ks (inferred preloaded)
26.62,TAKEOFF,TO_ROTATE,81.02,80,-1.02,4.59,8.84,-0.16,4.64,4.75,90.58,0.082,1,0,0,0,0,0,0,0,0,0,0,0,0,0,0,90.28,7.75,1,0,-0.11,0,0,0.07,90,0,0,0,0,0,0,0,0,-0.121,0,0,3,0,0,0,69,0,0,0,0,0,0,,0,NONE,0,0,0,0,0,0,0,0.3285,0,0,0,8.84,0,0,0,0,0,0,0,0,0,90.28,1,-0.121,0.294,-0.0105,0.903,0,-0.0105,0,0.3285,7.75,3.106,0.08,0,1,1,0,0,VALID,0,0,0,0,0,1,0,0,0,0,0,0,0,0,0,0,0,0,0,0,327.59,442.35,2,0,0.08,0.08,336,14.29,0.08,0.06,26.44,LANDED,CF1-J,0:/Integrated Flight Computer/aircraft/cf1_j_cfg.ks (inferred preloaded)
26.88,TAKEOFF,TO_ROTATE,82.25,80,-2.25,4.83,9,0.04,5.84,5.76,90.57,0.047,1,0,0,0,0,0,0,0,0,0,0,0,0,0,0,90.4,8.59,1,0,0.03,0,0,0.07,90,-0.9622,-0.0068,-0.2722,8.59,90.4,0,0,0,0,0,0,3,0,0,0,69,0,0,0,0,0,0,,0,NONE,0,0,0,0,0,0,0,0,0,0,0,9,0,0,0,0,0,0,0,0,0,90.4,1,0,0.168,0,0,3,0,0,0,8.59,2.75,0,0,1,1,0,0,VALID,0,0,0,0,0,1,0,0,0,0,0,0,0,0,0,0,0,0,0,0,328.75,441.53,2,0,0.08,0.08,340,15.38,0.08,0.06,26.72,FLYING,CF1-J,0:/Integrated Flight Computer/aircraft/cf1_j_cfg.ks (inferred preloaded)
27.16,TAKEOFF,TO_ROTATE,83.5,80,-3.5,5.16,9.22,0.7,6.59,6.13,90.58,0.028,1,0,0,0,0,0,0,0,0,0,0,0,0,0,0,90.4,9.43,0,1,0.48,0,0,9.19,90.4,-0.9661,-0.0068,-0.2581,9.43,90.4,0,0,0,0,0,0,3,0,0,0,69,0,0,0,0,0,0,,0,NONE,0,0,0,0,0,0,0,0,0,0,0,9.22,0,0,0,0,0,0,0,0,0,90.4,1,0,0.175,0,0,3,0,0,0,9.43,2.842,0,0,1,1,0,0,VALID,0,0,0,0,0,1,0,0,0,0,0,0,0,0,0,0,0,0,0,0,330,440.69,2,0,0.08,0.08,344,14.29,0.08,0.06,27,FLYING,CF1-J,0:/Integrated Flight Computer/aircraft/cf1_j_cfg.ks (inferred preloaded)
27.44,TAKEOFF,TO_ROTATE,84.71,80,-4.71,5.63,9.59,1.4,7.09,6.18,90.57,-0.023,1,0,0,0,0,0,0,0,0,0,0,0,0,0,0,90.4,10,0,1,0.94,0,0,10,90.4,-0.9686,-0.0067,-0.2485,10,90.4,0,0,0,0,0,0,3,0,0,0,69,0,0,0,0,0,0,,0,NONE,0,0,0,0,0,0,0,0,0,0,0,9.59,0,0,0,0,0,0,0,0,0,90.4,1,0,0.17,0,0,3,0,0,0,10,2.914,0,0,1,1,0,0,VALID,0,0,0,0,0,1,0,0,0,0,0,0,0,0,0,0,0,0,0,0,331.23,439.87,2,0,0.08,0.08,348,14.29,0.08,0.06,27.28,FLYING,CF1-J,0:/Integrated Flight Computer/aircraft/cf1_j_cfg.ks (inferred preloaded)
27.72,TAKEOFF,TO_CLIMB,85.89,80,-5.89,6.26,10.12,2.26,7.12,5.73,90.56,-0.055,0.968,0,0,0,0,0,0,0,0,0,0,0,0,0,0,90.4,7.324,0,1,1.51,0,0,10,90.4,-0.9559,-0.0068,-0.2935,7.32,90.4,0,0,0,0,0,0,3,0,0,0,69,0,0,0,0,0,0,,0,NONE,0,0,0,0,0,0,0,0,0,0,0,10.12,0,0,0,0,0,0,0,0,0,90.4,1,0,0.164,0,0,3,0,0,0,10,2.804,0,0,1,1,0,0,VALID,0,0,0,0,0,1,0,0,0,0,0,0,0,0,0,0,0,0,0,0,332.42,439.05,2,0,0.08,0.08,352,14.29,0.08,0.06,27.56,FLYING,CF1-J,0:/Integrated Flight Computer/aircraft/cf1_j_cfg.ks (inferred preloaded)
28,TAKEOFF,TO_CLIMB,87.07,80,-7.07,7.02,10.79,2.86,6.65,4.88,90.56,-0.07,0.8793,0,0,0,0,0,0,0,0,0,0,0,0,0,0,90.4,7.772,0,1,1.88,0,0,7.64,90.4,-0.9582,-0.0068,-0.2861,7.77,90.4,0,0,0,0,0,0,3,0,0,0,69,0,0,0,0,0,0,,0,NONE,0,0,0,0,0,0,0,0,0,0,0,10.79,0,0,0,0,0,0,0,0,0,90.4,1,0,0.16,0,0,3,0,0,0,10,2.804,0,0,1,1,0,0,VALID,0,0,0,0,0,1,0,0,0,0,0,0,0,0,0,0,0,0,0,0,333.14,438.21,2,0,0.08,0.08,356,14.29,0.08,0.06,27.84,FLYING,CF1-J,0:/Integrated Flight Computer/aircraft/cf1_j_cfg.ks (inferred preloaded)
28.28,TAKEOFF,TO_CLIMB,88.28,80,-8.28,8.01,11.68,3.34,6.79,4.72,90.56,-0.076,0.8672,0,0,0,0,0,0,0,0,0,0,0,0,0,0,90.4,8,0,1,2.17,0,0,8,90.4,-0.9593,-0.0068,-0.2823,8,90.4,0,0,0,0,0,0,3,0,0,0,69,0,0,0,0,0,0,,0,NONE,0,0,0,0,0,0,0,0,0,0,0,11.68,0,0,0,0,0,0,0,0,0,90.4,1,0,0.157,0,0,3,0,0,0,10,2.804,0,0,1,1,0,0,VALID,0,0,0,0,0,1,0,0,0,0,0,0,0,0,0,0,0,0,0,0,333.34,437.35,2,0,0.08,0.08,360,14.29,0.08,0.06,28.12,FLYING,CF1-J,0:/Integrated Flight Computer/aircraft/cf1_j_cfg.ks (inferred preloaded)
28.56,TAKEOFF,TO_CLIMB,89.47,80,-9.47,9.22,12.78,3.95,7.39,4.97,90.55,-0.119,0.8553,0,0,0,0,0,0,0,0,0,0,0,0,0,0,90.4,8,0,1,2.53,0,0,8,90.4,-0.9593,-0.0068,-0.2823,8,90.4,0,0,0,0,0,0,3,0,0,0,69,0,0,0,0,0,0,,0,NONE,0,0,0,0,0,0,0,0,0,0,0,12.78,0,0,0,0,0,0,0,0,0,90.4,1,0,0.148,0,0,3,0,0,0,10,2.804,0,0,1,1,0,0,VALID,0,0,0,0,0,1,0,0,0,0,0,0,0,0,0,0,0,0,0,0,333.43,436.49,2,0,0.08,0.08,364,14.29,0.08,0.06,28.4,FLYING,CF1-J,0:/Integrated Flight Computer/aircraft/cf1_j_cfg.ks (inferred preloaded)
28.84,TAKEOFF,TO_CLIMB,90.63,80,-10.63,10.53,13.99,4.74,7.17,4.34,90.54,-0.142,0.8437,0,0,0,0,0,0,0,0,0,0,0,0,0,0,90.4,8,0,1,2.99,0,0,8,90.4,-0.9593,-0.0068,-0.2824,8,90.4,0,0,0,0,0,0,3,0,0,0,69,0,0,0,0,0,0,,0,NONE,0,0,0,0,0,0,0,0,0,0,0,13.99,0,0,0,0,0,0,0,0,0,90.4,1,0,0.142,0,0,3,0,0,0,10,2.804,0,0,1,1,0,0,VALID,0,0,0,0,0,1,0,0,0,0,0,0,0,0,0,0,0,0,0,0,333.43,435.64,2,0,0.08,0.08,368,14.29,0.08,0.06,28.68,FLYING,CF1-J,0:/Integrated Flight Computer/aircraft/cf1_j_cfg.ks (inferred preloaded)
29.12,TAKEOFF,TO_CLIMB,91.79,80,-11.79,12.07,15.43,5.25,7.49,4.35,90.53,-0.174,0.8321,0,0,0,0,0,0,0,0,0,0,0,0,0,0,90.4,8,0,1,3.27,0,0,8,90.4,-0.9593,-0.0068,-0.2824,8,90.4,0,0,0,0,0,0,3,0,0,0,69,0,0,0,0,0,0,,0,NONE,0,0,0,0,0,0,0,0,0,0,0,15.43,0,0,0,0,0,0,0,0,0,90.4,1,0,0.134,0,0,3,0,0,0,10,2.804,0,0,1,1,0,0,VALID,0,0,0,0,0,1,0,0,0,0,0,0,0,0,0,0,0,0,0,0,333.32,434.78,2,0,0.08,0.08,372,14.29,0.08,0.06,28.96,FLYING,CF1-J,0:/Integrated Flight Computer/aircraft/cf1_j_cfg.ks (inferred preloaded)
29.4,TAKEOFF,TO_CLIMB,92.93,80,-12.93,13.78,17.04,5.98,7.66,4.14,90.53,-0.201,0.8207,0,0,0,0,0,0,0,0,0,0,0,0,0,0,90.4,8,0,1,3.68,0,0,8,90.4,-0.9593,-0.0068,-0.2825,8,90.4,0,0,0,0,0,0,3,0,0,0,69,0,0,0,0,0,0,,0,NONE,0,0,0,0,0,0,0,0,0,0,0,17.04,0,0,0,0,0,0,0,0,0,90.4,1,0,0.125,0,0,3,0,0,0,10,2.804,0,0,1,1,0,0,VALID,0,0,0,0,0,1,0,0,0,0,0,0,0,0,0,0,0,0,0,0,333.11,433.92,2,0,0.08,0.08,376,14.29,0.08,0.06,29.24,FLYING,CF1-J,0:/Integrated Flight Computer/aircraft/cf1_j_cfg.ks (inferred preloaded)
29.68,TAKEOFF,TO_CLIMB,94.06,80,-14.06,15.61,18.8,6.72,7.46,3.6,90.52,-0.213,0.8094,0,0,0,0,0,0,0,0,0,0,0,0,0,0,90.4,8,0,1,4.08,0,0,8,90.4,-0.9592,-0.0068,-0.2825,8,90.4,0,0,0,0,0,0,3,0,0,0,69,0,0,0,0,0,0,,0,NONE,0,0,0,0,0,0,0,0,0,0,0,18.8,0,0,0,0,0,0,0,0,0,90.4,1,0,0.119,0,0,3,0,0,0,10,2.804,0,0,1,1,0,0,VALID,0,0,0,0,0,1,0,0,0,0,0,0,0,0,0,0,0,0,0,0,332.82,433.06,2,0,0.08,0.08,380,14.29,0.08,0.06,29.52,FLYING,CF1-J,0:/Integrated Flight Computer/aircraft/cf1_j_cfg.ks (inferred preloaded)
29.96,TAKEOFF,TO_CLIMB,95.2,80,-15.2,17.61,20.7,7.13,7.19,3.09,90.51,-0.211,0.798,0,0,0,0,0,0,0,0,0,0,0,0,0,0,90.4,8,0,1,4.28,0,0,8,90.4,-0.9592,-0.0068,-0.2825,8,90.4,0,0,0,0,0,0,3,0,0,0,69,0,0,0,0,0,0,,0,NONE,0,0,0,0,0,0,0,0,0,0,0,20.7,0,0,0,0,0,0,0,0,0,90.4,1,0,0.114,0,0,3,0,0,0,10,2.804,0,0,1,1,0,0,VALID,0,0,0,0,0,1,0,0,0,0,0,0,0,0,0,0,0,0,0,0,332.42,432.18,2,0,0.08,0.08,384,14.29,0.08,0.06,29.8,FLYING,CF1-J,0:/Integrated Flight Computer/aircraft/cf1_j_cfg.ks (inferred preloaded)
30.24,TAKEOFF,TO_CLIMB,96.35,80,-16.35,19.77,22.75,7.54,7.16,2.87,90.51,-0.209,0.7865,0,0,0,0,0,0,0,0,0,0,0,0,0,0,90.4,8,0,1,4.47,0,0,8,90.4,-0.9592,-0.0068,-0.2826,8,90.4,0,0,0,0,0,0,3,0,0,0,69,0,0,0,0,0,0,,0,NONE,0,0,0,0,0,0,0,0,0,0,0,22.75,0,0,0,0,0,0,0,0,0,90.4,1,0,0.109,0,0,3,0,0,0,10,2.804,0,0,1,1,0,0,VALID,0,0,0,0,0,1,0,0,0,0,0,0,0,0,0,0,0,0,0,0,331.92,431.28,2,0,0.08,0.08,388,14.29,0.08,0.06,30.08,FLYING,CF1-J,0:/Integrated Flight Computer/aircraft/cf1_j_cfg.ks (inferred preloaded)
30.52,TAKEOFF,TO_CLIMB,97.49,80,-17.49,22.04,24.92,7.95,7.16,2.69,90.5,-0.206,0.78,0,0,0,0,0,0,0,0,0,0,0,0,0,0,90.4,8,0,1,4.66,0,0,8,90.4,-0.9592,-0.0068,-0.2826,8,90.4,0,0,0,0,0,0,3,0,0,0,69,0,0,0,0,0,0,,0,NONE,0,0,0,0,0,0,0,0,0,0,0,24.92,0,0,0,0,0,0,0,0,0,90.4,1,0,0.103,0,0,3,0,0,0,10,2.804,0,0,1,1,0,0,VALID,0,0,0,0,0,1,0,0,0,0,0,0,0,0,0,0,0,0,0,0,331.34,430.39,2,0,0.08,0.08,392,14.29,0.08,0.06,30.36,FLYING,CF1-J,0:/Integrated Flight Computer/aircraft/cf1_j_cfg.ks (inferred preloaded)
30.8,TAKEOFF,TO_CLIMB,98.62,80,-18.62,24.43,27.21,8.36,7.17,2.52,90.5,-0.203,0.78,0,0,0,0,0,0,0,0,0,0,0,0,0,0,90.4,8,0,1,4.84,0,0,8,90.4,-0.9592,-0.0068,-0.2827,8,90.4,0,0,0,0,0,0,3,0,0,0,69,0,0,0,0,0,0,,0,NONE,0,0,0,0,0,0,0,0,0,0,0,27.21,0,0,0,0,0,0,0,0,0,90.4,1,0,0.097,0,0,3,0,0,0,10,2.804,0,0,1,1,0,0,VALID,0,0,0,0,0,1,0,0,0,0,0,0,0,0,0,0,0,0,0,0,330.72,429.49,2,0,0.08,0.08,396,14.29,0.08,0.06,30.64,FLYING,CF1-J,0:/Integrated Flight Computer/aircraft/cf1_j_cfg.ks (inferred preloaded)
31.08,TAKEOFF,TO_CLIMB,99.75,80,-19.75,26.93,29.61,8.76,7.18,2.36,90.49,-0.198,0.78,0,0,0,0,0,0,0,0,0,0,0,0,0,0,90.4,8,0,1,5.02,0,0,8,90.4,-0.9592,-0.0068,-0.2827,8,90.4,0,0,0,0,0,0,3,0,0,0,69,0,0,0,0,0,0,,0,NONE,0,0,0,0,0,0,0,0,0,0,0,29.61,0,0,0,0,0,0,0,0,0,90.4,1,0,0.092,0,0,3,0,0,0,10,2.804,0,0,1,1,0,0,VALID,0,0,0,0,0,1,0,0,0,0,0,0,0,0,0,0,0,0,0,0,330.11,428.6,2,0,0.08,0.08,400,14.29,0.08,0.06,30.92,FLYING,CF1-J,0:/Integrated Flight Computer/aircraft/cf1_j_cfg.ks (inferred preloaded)
31.36,TAKEOFF,TO_CLIMB,100.87,80,-20.87,29.55,32.13,9.16,7.18,2.2,90.49,-0.194,0.78,0,0,0,0,0,0,0,0,0,0,0,0,0,0,90.4,8,0,1,5.19,0,0,8,90.4,-0.9592,-0.0068,-0.2828,8,90.4,0,0,0,0,0,0,3,0,0,0,69,0,0,0,0,0,0,,0,NONE,0,0,0,0,0,0,0,0,0,0,0,32.13,0,0,0,0,0,0,0,0,0,90.4,1,0,0.086,0,0,3,0,0,0,10,2.804,0,0,1,1,0,0,VALID,0,0,0,0,0,1,0,0,0,0,0,0,0,0,0,0,0,0,0,0,329.49,427.71,2,0,0.08,0.08,404,14.29,0.08,0.06,31.2,FLYING,CF1-J,0:/Integrated Flight Computer/aircraft/cf1_j_cfg.ks (inferred preloaded)
31.64,TAKEOFF,TO_CLIMB,101.97,80,-21.97,32.27,34.75,9.56,7.19,2.05,90.48,-0.189,0.78,0,0,0,0,0,0,0,0,0,0,0,0,0,0,90.4,8,0,1,5.35,0,0,8,90.4,-0.9591,-0.0068,-0.2828,8,90.4,0,0,0,0,0,0,3,0,0,0,69,0,0,0,0,0,0,,0,NONE,0,0,0,0,0,0,0,0,0,0,0,34.75,0,0,0,0,0,0,0,0,0,90.4,1,0,0.081,0,0,3,0,0,0,10,2.804,0,0,1,1,0,0,VALID,0,0,0,0,0,1,0,0,0,0,0,0,0,0,0,0,0,0,0,0,328.87,426.81,2,0,0.08,0.08,408,14.29,0.08,0.06,31.48,FLYING,CF1-J,0:/Integrated Flight Computer/aircraft/cf1_j_cfg.ks (inferred preloaded)
31.92,TAKEOFF,TO_CLIMB,103.07,80,-23.07,35.11,37.49,9.94,7.2,1.91,90.48,-0.184,0.78,0,0,0,0,0,0,0,0,0,0,0,0,0,0,90.4,8,0,1,5.51,0,0,8,90.4,-0.9591,-0.0068,-0.2829,8,90.4,0,0,0,0,0,0,3,0,0,0,69,0,0,0,0,0,0,,0,NONE,0,0,0,0,0,0,0,0,0,0,0,37.49,0,0,0,0,0,0,0,0,0,90.4,1,0,0.076,0,0,3,0,0,0,10,2.804,0,0,1,1,0,0,VALID,0,0,0,0,0,1,0,0,0,0,0,0,0,0,0,0,0,0,0,0,328.25,425.92,2,0,0.08,0.08,412,14.29,0.08,0.06,31.76,FLYING,CF1-J,0:/Integrated Flight Computer/aircraft/cf1_j_cfg.ks (inferred preloaded)
32.2,TAKEOFF,TO_CLIMB,104.16,80,-24.16,38.05,40.33,10.33,7.21,1.77,90.47,-0.179,0.78,0,0,0,0,0,0,0,0,0,0,0,0,0,0,90.4,8,0,1,5.66,0,0,8,90.4,-0.9591,-0.0068,-0.2829,8,90.4,0,0,0,0,0,0,3,0,0,0,69,0,0,0,0,0,0,,0,NONE,0,0,0,0,0,0,0,0,0,0,0,40.33,0,0,0,0,0,0,0,0,0,90.4,1,0,0.072,0,0,3,0,0,0,10,2.804,0,0,1,1,0,0,VALID,0,0,0,0,0,1,0,0,0,0,0,0,0,0,0,0,0,0,0,0,327.63,425.03,2,0,0.08,0.08,416,14.29,0.08,0.06,32.04,FLYING,CF1-J,0:/Integrated Flight Computer/aircraft/cf1_j_cfg.ks (inferred preloaded)
32.48,TAKEOFF,TO_CLIMB,105.24,80,-25.24,41.09,43.28,10.7,7.22,1.63,90.47,-0.174,0.78,0,0,0,0,0,0,0,0,0,0,0,0,0,0,90.4,8,0,1,5.81,0,0,8,90.4,-0.9591,-0.0068,-0.283,8,90.4,0,0,0,0,0,0,3,0,0,0,69,0,0,0,0,0,0,,0,NONE,0,0,0,0,0,0,0,0,0,0,0,43.28,0,0,0,0,0,0,0,0,0,90.4,1,0,0.067,0,0,3,0,0,0,10,2.804,0,0,1,1,0,0,VALID,0,0,0,0,0,1,0,0,0,0,0,0,0,0,0,0,0,0,0,0,327.01,424.14,2,0,0.08,0.08,420,14.29,0.08,0.06,32.32,FLYING,CF1-J,0:/Integrated Flight Computer/aircraft/cf1_j_cfg.ks (inferred preloaded)
32.76,TAKEOFF,TO_CLIMB,106.32,80,-26.32,44.25,46.33,11.08,7.22,1.5,90.46,-0.169,0.78,0,0,0,0,0,0,0,0,0,0,0,0,0,0,90.4,8,0,1,5.95,0,0,8,90.4,-0.9591,-0.0068,-0.283,8,90.4,0,0,0,0,0,0,3,0,0,0,69,0,0,0,0,0,0,,0,NONE,0,0,0,0,0,0,0,0,0,0,0,46.33,0,0,0,0,0,0,0,0,0,90.4,1,0,0.063,0,0,3,0,0,0,10,2.804,0,0,1,1,0,0,VALID,0,0,0,0,0,1,0,0,0,0,0,0,0,0,0,0,0,0,0,0,326.39,423.26,2,0,0.08,0.08,424,14.29,0.08,0.06,32.6,FLYING,CF1-J,0:/Integrated Flight Computer/aircraft/cf1_j_cfg.ks (inferred preloaded)
33.04,TAKEOFF,TO_CLIMB,107.38,80,-27.38,47.5,49.49,11.44,7.23,1.37,90.46,-0.163,0.78,0,0,0,0,0,0,0,0,0,0,0,0,0,0,90.4,8,0,1,6.08,0,0,8,90.4,-0.9591,-0.0068,-0.2831,8,90.4,0,0,0,0,0,0,3,0,0,0,69,0,0,0,0,0,0,,0,NONE,0,0,0,0,0,0,0,0,0,0,0,49.49,0,0,0,0,0,0,0,0,0,90.4,1,0,0.058,0,0,3,0,0,0,10,2.804,0,0,1,1,0,0,VALID,0,0,0,0,0,1,0,0,0,0,0,0,0,0,0,0,0,0,0,0,325.77,422.37,2,0,0.08,0.08,428,14.29,0.08,0.06,32.88,FLYING,CF1-J,0:/Integrated Flight Computer/aircraft/cf1_j_cfg.ks (inferred preloaded)
33.32,TAKEOFF,TO_CLIMB,108.44,80,-28.44,50.85,52.75,11.8,7.23,1.25,90.45,-0.157,0.78,0,0,0,0,0,0,0,0,0,0,0,0,0,0,90.4,8,0,1,6.21,0,0,8,90.4,-0.9591,-0.0068,-0.2831,8,90.4,0,0,0,0,0,0,3,0,0,0,69,0,0,0,0,0,0,,0,NONE,0,0,0,0,0,0,0,0,0,0,0,52.75,0,0,0,0,0,0,0,0,0,90.4,1,0,0.054,0,0,3,0,0,0,10,2.804,0,0,1,1,0,0,VALID,0,0,0,0,0,1,0,0,0,0,0,0,0,0,0,0,0,0,0,0,325.15,421.49,2,0,0.08,0.08,432,14.29,0.08,0.06,33.16,FLYING,CF1-J,0:/Integrated Flight Computer/aircraft/cf1_j_cfg.ks (inferred preloaded)
33.6,TAKEOFF,TO_CLIMB,109.48,80,-29.48,54.3,56.1,12.15,7.22,1.12,90.45,-0.15,0.78,0,0,0,0,0,0,0,0,0,0,0,0,0,0,90.4,8,0,1,6.33,0,0,8,90.4,-0.959,-0.0068,-0.2832,8,90.4,0,0,0,0,0,0,3,0,0,0,69,0,0,0,0,0,0,,0,NONE,0,0,0,0,0,0,0,0,0,0,0,56.1,0,0,0,0,0,0,0,0,0,90.4,1,0,0.051,0,0,3,0,0,0,10,2.804,0,0,1,1,0,0,VALID,0,0,0,0,0,1,0,0,0,0,0,0,0,0,0,0,0,0,0,0,324.54,420.61,2,0,0.08,0.08,436,14.29,0.08,0.06,33.44,FLYING,CF1-J,0:/Integrated Flight Computer/aircraft/cf1_j_cfg.ks (inferred preloaded)
33.88,TAKEOFF,TO_CLIMB,110.52,80,-30.52,57.85,59.56,12.5,7.22,1,90.45,-0.144,0.78,0,0,0,0,0,0,0,0,0,0,0,0,0,0,90.4,8,0,1,6.45,0,0,8,90.4,-0.959,-0.0068,-0.2832,8,90.4,0,0,0,0,0,0,3,0,0,0,69,0,0,0,0,0,0,,0,NONE,0,0,0,0,0,0,0,0,0,0,0,59.56,0,0,0,0,0,0,0,0,0,90.4,1,0,0.047,0,0,3,0,0,0,10,2.804,0,0,1,1,0,0,VALID,0,0,0,0,0,1,0,0,0,0,0,0,0,0,0,0,0,0,0,0,323.92,419.73,2,0,0.08,0.08,440,14.29,0.08,0.06,33.72,FLYING,CF1-J,0:/Integrated Flight Computer/aircraft/cf1_j_cfg.ks (inferred preloaded)
34.16,TAKEOFF,TO_CLIMB,111.55,80,-31.55,61.5,63.11,12.83,7.22,0.89,90.44,-0.138,0.78,0,0,0,0,0,0,0,0,0,0,0,0,0,0,90.4,8,0,1,6.56,0,0,8,90.4,-0.959,-0.0068,-0.2833,8,90.4,0,0,0,0,0,0,3,0,0,0,69,0,0,0,0,0,0,,0,NONE,0,0,0,0,0,0,0,0,0,0,0,63.11,0,0,0,0,0,0,0,0,0,90.4,1,0,0.043,0,0,3,0,0,0,10,2.804,0,0,1,1,0,0,VALID,0,0,0,0,0,1,0,0,0,0,0,0,0,0,0,0,0,0,0,0,323.3,418.85,2,0,0.08,0.08,444,14.29,0.08,0.06,34,FLYING,CF1-J,0:/Integrated Flight Computer/aircraft/cf1_j_cfg.ks (inferred preloaded)
34.44,TAKEOFF,TO_CLIMB,112.58,80,-32.58,65.26,66.75,13.16,7.22,0.78,90.44,-0.132,0.78,0,0,0,0,0,0,0,0,0,0,0,0,0,0,90.4,8,0,1,6.67,0,0,8,90.4,-0.959,-0.0068,-0.2833,8,90.4,0,0,0,0,0,0,3,0,0,0,69,0,0,0,0,0,0,,0,NONE,0,0,0,0,0,0,0,0,0,0,0,66.75,0,0,0,0,0,0,0,0,0,90.4,1,0,0.04,0,0,3,0,0,0,10,2.804,0,0,1,1,0,0,VALID,0,0,0,0,0,1,0,0,0,0,0,0,0,0,0,0,0,0,0,0,322.68,417.97,2,0,0.08,0.08,448,14.29,0.08,0.06,34.28,FLYING,CF1-J,0:/Integrated Flight Computer/aircraft/cf1_j_cfg.ks (inferred preloaded)
34.72,TAKEOFF,TO_CLIMB,113.59,80,-33.59,69.09,70.48,13.48,7.21,0.68,90.44,-0.125,0.78,0,0,0,0,0,0,0,0,0,0,0,0,0,0,90.4,8,0,1,6.77,0,0,8,90.4,-0.959,-0.0068,-0.2834,8,90.4,0,0,0,0,0,0,3,0,0,0,69,0,0,0,0,0,0,,0,NONE,0,0,0,0,0,0,0,0,0,0,0,70.48,0,0,0,0,0,0,0,0,0,90.4,1,0,0.037,0,0,3,0,0,0,10,2.804,0,0,1,1,0,0,VALID,0,0,0,0,0,1,0,0,0,0,0,0,0,0,0,0,0,0,0,0,322.06,417.1,2,0,0.08,0.08,452,14.29,0.08,0.06,34.56,FLYING,CF1-J,0:/Integrated Flight Computer/aircraft/cf1_j_cfg.ks (inferred preloaded)
35,TAKEOFF,TO_CLIMB,114.6,80,-34.6,73,74.3,13.79,7.21,0.58,90.43,-0.118,0.78,0,0,0,0,0,0,0,0,0,0,0,0,0,0,90.4,8,0,1,6.86,0,0,8,90.4,-0.959,-0.0068,-0.2834,8,90.4,0,0,0,0,0,0,3,0,0,0,69,0,0,0,0,0,0,,0,NONE,0,0,0,0,0,0,0,0,0,0,0,74.3,0,0,0,0,0,0,0,0,0,90.4,1,0,0.034,0,0,3,0,0,0,10,2.804,0,0,1,1,0,0,VALID,0,0,0,0,0,1,0,0,0,0,0,0,0,0,0,0,0,0,0,0,321.45,416.23,2,0,0.08,0.08,456,14.29,0.08,0.06,34.84,FLYING,CF1-J,0:/Integrated Flight Computer/aircraft/cf1_j_cfg.ks (inferred preloaded)
35.28,TAKEOFF,TO_CLIMB,115.59,80,-35.59,77,78.21,14.1,7.2,0.48,90.43,-0.114,0.78,0,0,0,0,0,0,0,0,0,0,0,0,0,0,90.4,8,0,1,6.95,0,0,8,90.4,-0.959,-0.0068,-0.2835,8,90.4,0,0,0,0,0,0,3,0,0,0,69,0,0,0,0,0,0,,0,NONE,0,0,0,0,0,0,0,0,0,0,0,78.21,0,0,0,0,0,0,0,0,0,90.4,1,0,0.031,0,0,3,0,0,0,10,2.804,0,0,1,1,0,0,VALID,0,0,0,0,0,1,0,0,0,0,0,0,0,0,0,0,0,0,0,0,320.83,415.37,2,0,0.08,0.08,460,14.29,0.08,0.06,35.12,FLYING,CF1-J,0:/Integrated Flight Computer/aircraft/cf1_j_cfg.ks (inferred preloaded)
35.56,TAKEOFF,TO_CLIMB,116.58,80,-36.58,81.08,82.2,14.4,7.2,0.39,90.43,-0.106,0.78,0,0,0,0,0,0,0,0,0,0,0,0,0,0,90.4,8,0,1,7.04,0,0,8,90.4,-0.9589,-0.0068,-0.2835,8,90.4,0,0,0,0,0,0,3,0,0,0,69,0,0,0,0,0,0,,0,NONE,0,0,0,0,0,0,0,0,0,0,0,82.2,0,0,0,0,0,0,0,0,0,90.4,1,0,0.029,0,0,3,0,0,0,10,2.804,0,0,1,1,0,0,VALID,0,0,0,0,0,1,0,0,0,0,0,0,0,0,0,0,0,0,0,0,320.22,414.5,2,0,0.08,0.08,464,14.29,0.08,0.06,35.4,FLYING,CF1-J,0:/Integrated Flight Computer/aircraft/cf1_j_cfg.ks (inferred preloaded)
35.84,TAKEOFF,TO_CLIMB,117.56,80,-37.56,85.24,86.28,14.69,7.19,0.31,90.43,-0.1,0.78,0,0,0,0,0,0,0,0,0,0,0,0,0,0,90.4,8,0,1,7.12,0,0,8,90.4,-0.9589,-0.0068,-0.2836,8,90.4,0,0,0,0,0,0,3,0,0,0,69,0,0,0,0,0,0,,0,NONE,0,0,0,0,0,0,0,0,0,0,0,86.28,0,0,0,0,0,0,0,0,0,90.4,1,0,0.026,0,0,3,0,0,0,10,2.804,0,0,1,1,0,0,VALID,0,0,0,0,0,1,0,0,0,0,0,0,0,0,0,0,0,0,0,0,319.61,413.64,2,0,0.08,0.08,468,14.29,0.08,0.06,35.68,FLYING,CF1-J,0:/Integrated Flight Computer/aircraft/cf1_j_cfg.ks (inferred preloaded)
36.12,TAKEOFF,TO_CLIMB,118.54,80,-38.54,89.48,90.43,14.98,7.18,0.22,90.42,-0.095,0.78,0,0,0,0,0,0,0,0,0,0,0,0,0,0,90.4,8,0,1,7.2,0,0,8,90.4,-0.9589,-0.0068,-0.2836,8,90.4,0,0,0,0,0,0,3,0,0,0,69,0,0,0,0,0,0,,0,NONE,0,0,0,0,0,0,0,0,0,0,0,90.43,0,0,0,0,0,0,0,0,0,90.4,1,0,0.024,0,0,3,0,0,0,10,2.804,0,0,1,1,0,0,VALID,0,0,0,0,0,1,0,0,0,0,0,0,0,0,0,0,0,0,0,0,319,412.79,2,0,0.08,0.08,472,14.29,0.08,0.06,35.96,FLYING,CF1-J,0:/Integrated Flight Computer/aircraft/cf1_j_cfg.ks (inferred preloaded)
