t_s,phase,subphase,ias_ms,vapp_ms,spd_err_ms,agl_m,vs_ms,pitch_deg,aoa_deg,hdg_deg,bank_deg,thr_cmd,thr_cur,thr_intg,at_gain,at_tau_s,at_a_up,at_a_dn,at_kp_thr,at_ki_spd,at_thr_slew,aa_hdg_cmd_deg,aa_fpa_cmd_deg,aa_fbw,aa_dir,actual_fpa_deg,ftf_hdg_err_deg,ftf_fix_idx,kos_steer_pit_deg,kos_steer_hdg_deg,aa_dir_vx,aa_dir_vy,aa_dir_vz,aa_dir_pitch_deg,aa_dir_hdg_deg,ils_loc_m,ils_gs_m,ils_dist_km,loc_corr_deg,gs_corr_deg,flare_fpa_cmd,flare_tgt_vs,flare_frac,steer_hdg_deg,steer_blend,ro_loc_corr_deg,ro_hdg_err_deg,ro_yaw_tgt,ro_yaw_scale,ro_yaw_gate,yaw_cmd,roll_cmd,pitch_cmd,ro_pitch_tgt_deg,ro_pitch_err_deg,ro_pitch_ff,ro_roll_assist,flaps_cur,flaps_tgt,asc_j_ab,asc_j_rk,asc_validity,asc_q_pa,asc_q_raw_pa,asc_mach,asc_apo_m,asc_drag_n,asc_w_prop,asc_edot_aero,asc_edot_orb,asc_pitch_bias,asc_blend,asc_spooling,asc_ab_thr_ratio,asc_ab_t_now,asc_ab_t_avail,asc_ab_ign_on,asc_ab_flameouts,asc_rk_t_now,asc_rk_t_avail,asc_rk_ign_on,asc_rk_flameouts,ship_thrust,ship_avail_thrust,ship_ign_on,ship_flameouts,ifc_raw_dt_s,ifc_dt_s,ifc_loop_n,ifc_hz_est,ifc_raw_dt_max_s,ifc_raw_dt_min_s,phase_el_s,status
1.24,APPROACH,FLY_TO_FIX,241.99,140.8,-101.19,1234.71,-11.34,2.26,5.17,268.66,-4.212,0,0,0,1,0.6,0.9,0.75,0.35,0.0168,0.4,256.65,0.527,1,0,-2.68,12.02,0,-0.02,90,0.6898,-0.2308,0.6862,0.52,256.65,0,0,56.519,0,0,0,0,0,268.82,0,0,0,0,0,0,0,0,0,0,0,0,0,0,0,0,0,VALID,0,0,0,0,0,1,0,0,0,0,0,0,0,0,0,0,0,0,0,0,281.46,3870.3,6,0,0.94,0.5,1,1.89,0.94,0.02,1.28,FLYING
2,APPROACH,FLY_TO_FIX,241.85,141.6,-100.25,1224.96,-11.76,1.72,3.41,268.17,-4.162,0,0,0,1,0.6,1.403,0.75,0.35,0.0168,0.4,256.56,0.574,0,1,-2.5,11.62,0,0.54,256.65,0.6892,-0.2323,0.6864,0.57,256.56,0,0,56.328,0,0,0,0,0,268.82,0,0,0,0,0,0,0,0,0,0,0,0,0,0,0,0,0,VALID,0,0,0,0,0,1,0,0,0,0,0,0,0,0,0,0,0,0,0,0,213.66,3869.23,6,0,0.72,0.5,2,1.32,0.94,0.72,2.04,FLYING
2.76,APPROACH,FLY_TO_FIX,242.27,142.4,-99.87,1214.6,-13.87,0.33,3.5,266.46,-4.133,0,0,0,1,0.6,2.022,0.75,0.35,0.0168,0.4,256.47,0.624,0,1,-3.07,9.99,0,0.59,256.56,0.6885,-0.2338,0.6865,0.62,256.47,0,0,56.132,0,0,0,0,0,268.82,0,0,0,0,0,0,0,0,0,0,0,0,0,0,0,0,0,VALID,0,0,0,0,0,1,0,0,0,0,0,0,0,0,0,0,0,0,0,0,162.52,3874.92,6,0,0.78,0.5,3,1.28,0.78,0.72,2.82,FLYING
3.52,APPROACH,FLY_TO_FIX,242.68,143.2,-99.48,1203.5,-15.3,0.14,3.99,264.83,-4.2,0,0,0,1,0.6,2.593,0.75,0.35,0.0168,0.4,256.38,0.679,0,1,-3.48,8.45,0,0.64,256.47,0.6878,-0.2353,0.6867,0.68,256.38,0,0,55.941,0,0,0,0,0,268.82,0,0,0,0,0,0,0,0,0,0,0,0,0,0,0,0,0,VALID,0,0,0,0,0,1,0,0,0,0,0,0,0,0,0,0,0,0,0,0,123.66,3880.86,6,0,0.76,0.5,4,1.32,0.78,0.76,3.58,FLYING
4.28,APPROACH,FLY_TO_FIX,242.92,144,-98.92,1191.6,-16.02,0.27,4.25,263.59,-4.131,0,0,0,1,0.6,3.119,0.75,0.35,0.0168,0.4,256.3,0.738,0,1,-3.71,7.29,0,0.69,256.38,0.687,-0.2367,0.687,0.73,256.3,0,0,55.749,0,0,0,0,0,268.82,0,0,0,0,0,0,0,0,0,0,0,0,0,0,0,0,0,VALID,0,0,0,0,0,1,0,0,0,0,0,0,0,0,0,0,0,0,0,0,94.07,3884.93,6,0,0.76,0.5,5,1.32,0.76,0.76,4.34,FLYING
5.04,APPROACH,FLY_TO_FIX,243.02,144.8,-98.22,1179.31,-16.42,0.31,4.48,262.7,-4.146,0,0,0,1,0.6,3.604,0.75,0.35,0.0168,0.4,256.21,0.799,0,1,-3.84,6.49,0,0.75,256.3,0.6862,-0.2381,0.6873,0.8,256.21,0,0,55.558,0,0,0,0,0,268.82,0,0,0,0,0,0,0,0,0,0,0,0,0,0,0,0,0,VALID,0,0,0,0,0,1,0,0,0,0,0,0,0,0,0,0,0,0,0,0,71.55,3887.42,6,0,0.76,0.5,6,1.32,0.76,0.76,5.1,FLYING
5.8,APPROACH,FLY_TO_FIX,243.02,145.6,-97.42,1166.98,-16.38,0.49,4.71,262.21,-4.164,0,0,0,1,0.6,4.05,0.75,0.35,0.0168,0.4,256.13,0.861,0,1,-3.87,6.08,0,0.81,256.21,0.6854,-0.2395,0.6876,0.86,256.13,0,0,55.367,0,0,0,0,0,268.82,0,0,0,0,0,0,0,0,0,0,0,0,0,0,0,0,0,VALID,0,0,0,0,0,1,0,0,0,0,0,0,0,0,0,0,0,0,0,0,54.42,3888.83,6,0,0.76,0.5,7,1.32,0.76,0.76,5.86,FLYING
6.56,APPROACH,FLY_TO_FIX,242.91,146.4,-96.51,1154.87,-16.02,0.79,4.95,261.8,-4.139,0,0,0,1,0.6,4.46,0.75,0.35,0.0168,0.4,256.05,0.921,0,1,-3.82,5.76,0,0.87,256.13,0.6846,-0.2409,0.6879,0.92,256.05,0,0,55.177,0,0,0,0,0,268.82,0,0,0,0,0,0,0,0,0,0,0,0,0,0,0,0,0,VALID,0,0,0,0,0,1,0,0,0,0,0,0,0,0,0,0,0,0,0,0,41.39,3889.01,6,0,0.76,0.5,8,1.32,0.76,0.76,6.62,FLYING
7.32,APPROACH,FLY_TO_FIX,242.68,147.2,-95.48,1143.21,-15.26,1.13,5.11,261.4,-4.097,0,0,0,1,0.6,4.5,0.75,0.35,0.0168,0.4,255.97,0.98,0,1,-3.68,5.44,0,0.94,256.05,0.6839,-0.2423,0.6882,0.98,255.97,0,0,54.986,0,0,0,0,0,268.82,0,0,0,0,0,0,0,0,0,0,0,0,0,0,0,0,0,VALID,0,0,0,0,0,1,0,0,0,0,0,0,0,0,0,0,0,0,0,0,31.47,3887.77,6,0,0.76,0.5,9,1.32,0.76,0.76,7.38,FLYING
8.12,APPROACH,FLY_TO_FIX,242.36,148,-94.36,1131.83,-14.36,1.43,5.14,261,-4.119,0,0,0,1,0.6,4.5,0.75,0.35,0.0168,0.4,255.89,1.038,0,1,-3.49,5.11,0,0.99,255.97,0.6832,-0.2436,0.6884,1.03,255.89,0,0,54.791,0,0,0,0,0,268.82,0,0,0,0,0,0,0,0,0,0,0,0,0,0,0,0,0,VALID,0,0,0,0,0,1,0,0,0,0,0,0,0,0,0,0,0,0,0,0,23.75,3885.38,6,0,0.78,0.5,10,1.28,0.78,0.76,8.16,FLYING
8.88,APPROACH,FLY_TO_FIX,241.99,148.8,-93.19,1121.06,-13.62,1.62,4.96,260.68,-2.727,0,0,0,1,0.6,4.5,0.75,0.35,0.0168,0.4,255.81,1.092,0,1,-3.29,4.87,0,1.05,255.89,0.6825,-0.2449,0.6887,1.09,255.81,0,0,54.596,0,0,0,0,0,268.82,0,0,0,0,0,0,0,0,0,0,0,0,0,0,0,0,0,VALID,0,0,0,0,0,1,0,0,0,0,0,0,0,0,0,0,0,0,0,0,17.93,3882.39,6,0,0.78,0.5,11,1.28,0.78,0.78,8.94,FLYING
9.64,APPROACH,FLY_TO_FIX,241.65,149,-92.65,1110.96,-13.1,1.73,4.79,260.49,-1.261,0,0,0,1,0.6,4.5,0.75,0.35,0.0168,0.4,255.74,1.143,0,1,-3.14,4.76,0,1.11,255.81,0.6818,-0.2461,0.6889,1.14,255.74,0,0,54.407,0,0,0,0,0,268.82,0,0,0,0,0,0,0,0,0,0,0,0,0,0,0,0,0,VALID,0,0,0,0,0,1,0,0,0,0,0,0,0,0,0,0,0,0,0,0,13.64,3879.61,6,0,0.76,0.5,12,1.32,0.78,0.76,9.7,FLYING
10.4,APPROACH,FLY_TO_FIX,241.34,149,-92.34,1101.13,-12.84,1.74,4.68,260.31,-0.242,0,0,0,1,0.6,4.5,0.75,0.35,0.0168,0.4,255.66,1.193,0,1,-3.07,4.65,0,1.16,255.74,0.6812,-0.2474,0.689,1.19,255.66,0,0,54.218,0,0,0,0,0,268.82,0,0,0,0,0,0,0,0,0,0,0,0,0,0,0,0,0,VALID,0,0,0,0,0,1,0,0,0,0,0,0,0,0,0,0,0,0,0,0,10.37,3877.14,6,0,0.76,0.5,13,1.32,0.76,0.76,10.46,FLYING
11.16,APPROACH,FLY_TO_FIX,241.05,149,-92.05,1091.33,-12.81,1.71,4.52,260.12,0.396,0,0,0,1,0.6,4.5,0.75,0.35,0.0168,0.4,255.59,1.242,0,1,-3.03,4.53,0,1.21,255.66,0.6806,-0.2486,0.6892,1.24,255.59,0,0,54.03,0,0,0,0,0,268.82,0,0,0,0,0,0,0,0,0,0,0,0,0,0,0,0,0,VALID,0,0,0,0,0,1,0,0,0,0,0,0,0,0,0,0,0,0,0,0,7.89,3874.97,6,0,0.76,0.5,14,1.32,0.76,0.76,11.22,FLYING
11.94,APPROACH,FLY_TO_FIX,240.8,149,-91.8,1081.26,-12.95,1.58,4.49,259.9,0.681,0,0,0,1,0.6,4.5,0.75,0.35,0.0168,0.4,255.52,1.292,0,1,-3.06,4.38,0,1.26,255.59,0.6799,-0.2498,0.6894,1.29,255.52,0,0,53.837,0,0,0,0,0,268.82,0,0,0,0,0,0,0,0,0,0,0,0,0,0,0,0,0,VALID,0,0,0,0,0,1,0,0,0,0,0,0,0,0,0,0,0,0,0,0,5.96,3873.2,6,0,0.78,0.5,15,1.28,0.78,0.76,12,FLYING
12.72,APPROACH,FLY_TO_FIX,240.55,149,-91.55,1071.06,-13.13,1.53,4.47,259.65,0.625,0,0,0,1,0.6,4.5,0.75,0.35,0.0168,0.4,255.44,1.343,0,1,-3.1,4.2,0,1.31,255.52,0.6793,-0.251,0.6896,1.34,255.44,0,0,53.644,0,0,0,0,0,268.82,0,0,0,0,0,0,0,0,0,0,0,0,0,0,0,0,0,VALID,0,0,0,0,0,1,0,0,0,0,0,0,0,0,0,0,0,0,0,0,4.51,3871.44,6,0,0.78,0.5,16,1.28,0.78,0.78,12.78,FLYING
13.48,APPROACH,FLY_TO_FIX,240.32,149,-91.32,1060.92,-13.37,1.46,4.44,259.39,0.509,0,0,0,1,0.6,4.5,0.75,0.35,0.0168,0.4,255.37,1.393,0,1,-3.15,4.02,0,1.36,255.44,0.6787,-0.2522,0.6898,1.39,255.37,0,0,53.456,0,0,0,0,0,268.82,0,0,0,0,0,0,0,0,0,0,0,0,0,0,0,0,0,VALID,0,0,0,0,0,1,0,0,0,0,0,0,0,0,0,0,0,0,0,0,3.43,3869.97,6,0,0.76,0.5,17,1.32,0.78,0.76,13.54,FLYING
14.24,APPROACH,FLY_TO_FIX,240.1,149,-91.1,1050.64,-13.63,1.37,4.49,259.13,0.365,0,0,0,1,0.6,4.5,0.75,0.35,0.0168,0.4,255.31,1.445,0,1,-3.23,3.82,0,1.41,255.37,0.678,-0.2533,0.69,1.44,255.31,0,0,53.269,0,0,0,0,0,268.82,0,0,0,0,0,0,0,0,0,0,0,0,0,0,0,0,0,VALID,0,0,0,0,0,1,0,0,0,0,0,0,0,0,0,0,0,0,0,0,2.61,3868.71,6,0,0.76,0.5,18,1.32,0.76,0.76,14.3,FLYING
15.02,APPROACH,FLY_TO_FIX,239.88,149,-90.88,1039.94,-13.79,1.37,4.53,258.86,0.258,0,0,0,1,0.6,4.5,0.75,0.35,0.0168,0.4,255.24,1.498,0,1,-3.27,3.62,0,1.46,255.31,0.6774,-0.2545,0.6902,1.49,255.24,0,0,53.077,0,0,0,0,0,268.82,0,0,0,0,0,0,0,0,0,0,0,0,0,0,0,0,0,VALID,0,0,0,0,0,1,0,0,0,0,0,0,0,0,0,0,0,0,0,0,1.98,3867.41,6,0,0.78,0.5,19,1.28,0.78,0.76,15.08,FLYING
15.78,APPROACH,FLY_TO_FIX,239.66,149,-90.66,1029.5,-13.93,1.42,4.71,258.6,0.216,0,0,0,1,0.6,4.5,0.75,0.35,0.0168,0.4,255.17,1.55,0,1,-3.31,3.43,0,1.51,255.24,0.6767,-0.2556,0.6904,1.55,255.17,0,0,52.891,0,0,0,0,0,268.82,0,0,0,0,0,0,0,0,0,0,0,0,0,0,0,0,0,VALID,0,0,0,0,0,1,0,0,0,0,0,0,0,0,0,0,0,0,0,0,1.51,3866.15,6,0,0.76,0.5,20,1.32,0.78,0.76,15.84,FLYING
16.54,APPROACH,FLY_TO_FIX,239.39,149,-90.39,1019.02,-13.8,1.53,4.74,258.34,0.173,0,0,0,1,0.6,4.5,0.75,0.35,0.0168,0.4,255.1,1.603,0,1,-3.31,3.24,0,1.56,255.17,0.6761,-0.2567,0.6907,1.6,255.1,0,0,52.705,0,0,0,0,0,268.82,0,0,0,0,0,0,0,0,0,0,0,0,0,0,0,0,0,VALID,0,0,0,0,0,1,0,0,0,0,0,0,0,0,0,0,0,0,0,0,1.15,3864.3,6,0,0.76,0.5,21,1.32,0.76,0.76,16.6,FLYING
17.3,APPROACH,FLY_TO_FIX,239.11,149,-90.11,1008.65,-13.63,1.6,4.78,258.09,0.157,0,0,0,1,0.6,4.5,0.75,0.35,0.0168,0.4,255.04,1.654,0,1,-3.28,3.05,0,1.62,255.1,0.6754,-0.2578,0.6909,1.65,255.04,0,0,52.519,0,0,0,0,0,268.82,0,0,0,0,0,0,0,0,0,0,0,0,0,0,0,0,0,VALID,0,0,0,0,0,1,0,0,0,0,0,0,0,0,0,0,0,0,0,0,0.78,3862.31,6,0,0.76,0.5,22,1.32,0.76,0.76,17.36,FLYING
18.08,APPROACH,FLY_TO_FIX,238.8,149,-89.8,998.16,-13.39,1.7,4.79,257.82,0.093,0,0,0,1,0.6,4.5,0.75,0.35,0.0168,0.4,254.97,1.707,0,1,-3.23,2.85,0,1.67,255.04,0.6748,-0.2588,0.6911,1.7,254.97,0,0,52.329,0,0,0,0,0,268.82,0,0,0,0,0,0,0,0,0,0,0,0,0,0,0,0,0,VALID,0,0,0,0,0,1,0,0,0,0,0,0,0,0,0,0,0,0,0,0,0.59,3860.01,6,0,0.78,0.5,23,1.28,0.78,0.76,18.14,FLYING
18.84,APPROACH,FLY_TO_FIX,238.5,149,-89.5,988.08,-13.18,1.7,4.78,257.57,0.123,0,0,0,1,0.6,4.5,0.75,0.35,0.0168,0.4,254.91,1.758,0,1,-3.18,2.66,0,1.72,254.97,0.6742,-0.2599,0.6913,1.75,254.91,0,0,52.144,0,0,0,0,0,268.82,0,0,0,0,0,0,0,0,0,0,0,0,0,0,0,0,0,VALID,0,0,0,0,0,1,0,0,0,0,0,0,0,0,0,0,0,0,0,0,0.45,3857.86,6,0,0.76,0.5,24,1.32,0.78,0.76,18.9,FLYING
19.6,APPROACH,FLY_TO_FIX,238.2,149,-89.2,978.16,-13,1.7,4.77,257.32,0.13,0,0,0,1,0.6,4.5,0.75,0.35,0.0168,0.4,254.85,1.808,0,1,-3.14,2.47,0,1.77,254.91,0.6736,-0.2609,0.6916,1.8,254.85,0,0,51.96,0,0,0,0,0,268.82,0,0,0,0,0,0,0,0,0,0,0,0,0,0,0,0,0,VALID,0,0,0,0,0,1,0,0,0,0,0,0,0,0,0,0,0,0,0,0,0.35,3855.62,6,0,0.76,0.5,25,1.32,0.76,0.76,19.66,FLYING
20.38,APPROACH,FLY_TO_FIX,237.86,149,-88.86,968.14,-12.84,1.82,4.84,257.06,0.074,0,0,0,1,0.6,4.5,0.75,0.35,0.0168,0.4,254.79,1.858,0,1,-3.1,2.27,0,1.82,254.85,0.673,-0.2619,0.6918,1.85,254.79,0,0,51.771,0,0,0,0,0,268.82,0,0,0,0,0,0,0,0,0,0,0,0,0,0,0,0,0,VALID,0,0,0,0,0,1,0,0,0,0,0,0,0,0,0,0,0,0,0,0,0,3852.96,6,0,0.78,0.5,26,1.28,0.78,0.76,20.44,FLYING
21.14,APPROACH,FLY_TO_FIX,237.53,149,-88.53,958.51,-12.6,1.87,4.85,256.8,0.082,0,0,0,1,0.6,4.5,0.75,0.35,0.0168,0.4,254.73,1.906,0,1,-3.06,2.07,0,1.87,254.79,0.6724,-0.2629,0.692,1.9,254.73,0,0,51.587,0,0,0,0,0,268.82,0,0,0,0,0,0,0,0,0,0,0,0,0,0,0,0,0,VALID,0,0,0,0,0,1,0,0,0,0,0,0,0,0,0,0,0,0,0,0,0,3850.43,6,0,0.76,0.5,27,1.32,0.78,0.76,21.2,FLYING
21.9,APPROACH,FLY_TO_FIX,237.18,149,-88.18,949.05,-12.33,1.92,4.83,256.55,0.066,0,0,0,1,0.6,4.5,0.75,0.35,0.0168,0.4,254.67,1.954,0,1,-3,1.88,0,1.92,254.73,0.6718,-0.2638,0.6921,1.95,254.67,0,0,51.404,0,0,0,0,0,268.82,0,0,0,0,0,0,0,0,0,0,0,0,0,0,0,0,0,VALID,0,0,0,0,0,1,0,0,0,0,0,0,0,0,0,0,0,0,0,0,0,3847.61,6,0,0.76,0.5,28,1.32,0.76,0.76,21.96,FLYING
22.66,APPROACH,FLY_TO_FIX,236.83,149,-87.83,939.78,-12.15,1.96,4.87,256.29,0.037,0,0,0,1,0.6,4.5,0.75,0.35,0.0168,0.4,254.62,2,0,1,-2.96,1.68,0,1.97,254.67,0.6713,-0.2648,0.6923,2,254.62,0,0,51.221,0,0,0,0,0,268.82,0,0,0,0,0,0,0,0,0,0,0,0,0,0,0,0,0,VALID,0,0,0,0,0,1,0,0,0,0,0,0,0,0,0,0,0,0,0,0,0,3844.76,6,0,0.76,0.5,29,1.32,0.76,0.76,22.72,FLYING
23.42,APPROACH,FLY_TO_FIX,236.45,149,-87.45,930.65,-11.92,2.03,4.84,256.05,0.065,0,0,0,1,0.6,4.5,0.75,0.35,0.0168,0.4,254.56,2.046,0,1,-2.9,1.48,0,2.01,254.62,0.6707,-0.2657,0.6925,2.04,254.56,0,0,51.039,0,0,0,0,0,268.82,0,0,0,0,0,0,0,0,0,0,0,0,0,0,0,0,0,VALID,0,0,0,0,0,1,0,0,0,0,0,0,0,0,0,0,0,0,0,0,0,3841.61,6,0,0.76,0.5,30,1.32,0.76,0.76,23.48,FLYING
24.2,APPROACH,FLY_TO_FIX,236.07,149,-87.07,921.43,-11.74,2.06,4.81,255.78,0.033,0,0,0,1,0.6,4.5,0.75,0.35,0.0168,0.4,254.51,2.092,0,1,-2.86,1.28,0,2.06,254.56,0.6702,-0.2666,0.6927,2.09,254.51,0,0,50.852,0,0,0,0,0,268.82,0,0,0,0,0,0,0,0,0,0,0,0,0,0,0,0,0,VALID,0,0,0,0,0,1,0,0,0,0,0,0,0,0,0,0,0,0,0,0,0,3838.34,6,0,0.78,0.5,31,1.28,0.78,0.76,24.26,FLYING
24.98,APPROACH,FLY_TO_FIX,235.72,149,-86.72,912.32,-11.73,2.03,4.86,255.53,0.064,0,0,0,1,0.6,4.5,0.75,0.35,0.0168,0.4,254.45,2.138,0,1,-2.85,1.07,0,2.11,254.51,0.6696,-0.2675,0.6928,2.13,254.45,0,0,50.666,0,0,0,0,0,268.82,0,0,0,0,0,0,0,0,0,0,0,0,0,0,0,0,0,VALID,0,0,0,0,0,1,0,0,0,0,0,0,0,0,0,0,0,0,0,0,0,3835.4,6,0,0.78,0.5,32,1.28,0.78,0.78,25.04,FLYING
25.74,APPROACH,FLY_TO_FIX,235.35,149,-86.35,903.57,-11.53,2.19,4.96,255.28,0.077,0,0,0,1,0.6,4.5,0.75,0.35,0.0168,0.4,254.4,2.182,0,1,-2.83,0.88,0,2.15,254.45,0.6691,-0.2683,0.693,2.18,254.4,0,0,50.485,0,0,0,0,0,268.82,0,0,0,0,0,0,0,0,0,0,0,0,0,0,0,0,0,VALID,0,0,0,0,0,1,0,0,0,0,0,0,0,0,0,0,0,0,0,0,0,3832.19,6,0,0.76,0.5,33,1.32,0.78,0.76,25.8,FLYING
26.5,APPROACH,FLY_TO_FIX,234.95,149,-85.95,894.93,-11.31,2.28,4.96,255.03,0.061,0,0,0,1,0.6,4.5,0.75,0.35,0.0168,0.4,254.35,2.225,0,1,-2.77,0.68,0,2.2,254.4,0.6686,-0.2692,0.6932,2.22,254.35,0,0,50.305,0,0,0,0,0,268.82,0,0,0,0,0,0,0,0,0,0,0,0,0,0,0,0,0,VALID,0,0,0,0,0,1,0,0,0,0,0,0,0,0,0,0,0,0,0,0,0,3828.61,6,0,0.76,0.5,34,1.32,0.76,0.76,26.56,FLYING
27.28,APPROACH,FLY_TO_FIX,234.53,149,-85.53,886.21,-11.15,2.32,4.97,254.77,-0.063,0,0,0,1,0.6,4.5,0.75,0.35,0.0168,0.4,254.3,2.269,0,1,-2.73,0.46,0,2.24,254.35,0.6681,-0.27,0.6933,2.27,254.3,0,0,50.12,0,0,0,0,0,268.82,0,0,0,0,0,0,0,0,0,0,0,0,0,0,0,0,0,VALID,0,0,0,0,0,1,0,0,0,0,0,0,0,0,0,0,0,0,0,0,0,3824.8,6,0,0.78,0.5,35,1.28,0.78,0.76,27.34,FLYING
28.06,APPROACH,FLY_TO_FIX,234.12,149,-85.12,877.82,-10.94,2.36,4.96,254.52,0.013,0,0,-20,1,0.6,4.5,0.75,0.35,0.0168,0.4,254.26,2.311,0,1,-2.71,0.27,0,2.28,254.3,0.6677,-0.2707,0.6935,2.31,254.26,0,0,49.941,0,0,0,0,0,268.82,0,0,0,0,0,0,0,0,0,0,0,0,0,0,0,0,0,VALID,0,0,0,0,0,1,0,0,0,0,0,0,0,0,0,0,0,0,0,0,0,3821.04,6,0,0.76,0.5,36,1.32,0.78,0.76,28.1,FLYING
28.82,APPROACH,FLY_TO_FIX,233.71,149,-84.71,869.41,-10.81,2.33,5.04,254.26,-0.005,0,0,-19.9,1,0.6,4.5,0.75,0.35,0.0168,0.4,254.21,2.353,0,1,-2.66,0.05,0,2.32,254.26,0.6672,-0.2715,0.6936,2.35,254.21,0,0,49.757,0,0,0,0,0,268.82,0,0,0,0,0,0,0,0,0,0,0,0,0,0,0,0,0,VALID,0,0,0,0,0,1,0,0,0,0,0,0,0,0,0,0,0,0,0,0,0,3817.26,6,0,0.78,0.5,37,1.28,0.78,0.76,28.88,FLYING
29.58,APPROACH,FLY_TO_FIX,233.28,149,-84.28,861.26,-10.59,2.46,4.95,254.01,-0.04,0,0,-19.8,1,0.6,4.5,0.75,0.35,0.0168,0.4,254.17,2.394,0,1,-2.61,0.15,0,2.37,254.21,0.6668,-0.2722,0.6938,2.39,254.17,0,0,49.579,0,0,0,0,0,268.82,0,0,0,0,0,0,0,0,0,0,0,0,0,0,0,0,0,VALID,0,0,0,0,0,1,0,0,0,0,0,0,0,0,0,0,0,0,0,0,0,3813.11,6,0,0.76,0.5,38,1.32,0.78,0.76,29.64,FLYING
30.34,APPROACH,FLY_TO_FIX,232.85,149,-83.85,853.35,-10.42,2.47,5.03,253.77,-0.033,0,0,-19.701,1,0.6,4.5,0.75,0.35,0.0168,0.4,254.13,2.434,0,1,-2.58,0.36,0,2.41,254.17,0.6663,-0.2729,0.6939,2.43,254.13,0,0,49.401,0,0,0,0,0,268.82,0,0,0,0,0,0,0,0,0,0,0,0,0,0,0,0,0,VALID,0,0,0,0,0,1,0,0,0,0,0,0,0,0,0,0,0,0,0,0,0,3808.99,6,0,0.76,0.5,39,1.32,0.76,0.76,30.4,FLYING
31.1,APPROACH,FLY_TO_FIX,232.4,149,-83.4,845.55,-10.21,2.59,5.05,253.52,-0.054,0,0,-19.603,1,0.6,4.5,0.75,0.35,0.0168,0.4,254.09,2.473,0,1,-2.54,0.57,0,2.45,254.13,0.6659,-0.2736,0.6941,2.47,254.09,0,0,49.223,0,0,0,0,0,268.82,0,0,0,0,0,0,0,0,0,0,0,0,0,0,0,0,0,VALID,0,0,0,0,0,1,0,0,0,0,0,0,0,0,0,0,0,0,0,0,0,3804.72,6,0,0.76,0.5,40,1.32,0.76,0.76,31.16,FLYING
31.86,APPROACH,FLY_TO_FIX,231.94,149,-82.94,837.89,-9.97,2.61,4.99,253.27,-0.028,0,0,-19.505,1,0.6,4.5,0.75,0.35,0.0168,0.4,254.05,2.512,0,1,-2.49,0.78,0,2.49,254.08,0.6655,-0.2742,0.6942,2.51,254.05,0,0,49.047,0,0,0,0,0,268.82,0,0,0,0,0,0,0,0,0,0,0,0,0,0,0,0,0,VALID,0,0,0,0,0,1,0,0,0,0,0,0,0,0,0,0,0,0,0,0,0,3800.17,6,0,0.76,0.5,41,1.32,0.76,0.76,31.92,FLYING
32.62,APPROACH,FLY_TO_FIX,231.52,149,-82.52,830.17,-10.07,2.43,4.83,253.03,-0.047,0,0,-19.407,1,0.6,4.5,0.75,0.35,0.0168,0.4,254.01,2.55,0,1,-2.47,0.98,0,2.53,254.05,0.6651,-0.2748,0.6943,2.55,254.01,0,0,48.87,0,0,0,0,0,268.82,0,0,0,0,0,0,0,0,0,0,0,0,0,0,0,0,0,VALID,0,0,0,0,0,1,0,0,0,0,0,0,0,0,0,0,0,0,0,0,0,3795.94,6,0,0.76,0.5,42,1.32,0.76,0.76,32.68,FLYING
33.38,APPROACH,FLY_TO_FIX,231.13,149,-82.13,822.42,-10.25,2.38,4.84,252.77,-0.038,0,0,-19.31,1,0.6,4.5,0.75,0.35,0.0168,0.4,253.97,2.589,0,1,-2.52,1.2,0,2.56,254.01,0.6647,-0.2754,0.6945,2.58,253.97,0,0,48.694,0,0,0,0,0,268.82,0,0,0,0,0,0,0,0,0,0,0,0,0,0,0,0,0,VALID,0,0,0,0,0,1,0,0,0,0,0,0,0,0,0,0,0,0,0,0,0,3792.25,6,0,0.76,0.5,43,1.32,0.76,0.76,33.44,FLYING
34.14,APPROACH,FLY_TO_FIX,230.73,149,-81.73,814.63,-10.34,2.42,4.97,252.52,-0.027,0,0,-19.214,1,0.6,4.5,0.75,0.35,0.0168,0.4,253.94,2.627,0,1,-2.57,1.42,0,2.6,253.97,0.6643,-0.276,0.6946,2.62,253.94,0,0,48.519,0,0,0,0,0,268.82,0,0,0,0,0,0,0,0,0,0,0,0,0,0,0,0,0,VALID,0,0,0,0,0,1,0,0,0,0,0,0,0,0,0,0,0,0,0,0,0,3788.36,6,0,0.76,0.5,44,1.32,0.76,0.76,34.2,FLYING
34.9,APPROACH,FLY_TO_FIX,230.26,149,-81.26,807.27,-10.35,2.56,5.67,252.35,-0.007,0,0,-19.118,1,0.6,4.5,0.75,0.35,0.0168,0.4,253.91,2.666,0,1,-2.57,1.56,0,2.64,253.94,0.6639,-0.2765,0.6948,2.66,253.91,0,0,48.344,0,0,0,0,0,268.82,0,0,0,0,0,0,0,0,0,0,0,0,0,0,0,0,0,VALID,0,0,0,0,0,1,0,0,0,0,0,0,0,0,0,0,0,0,0,0,0,3783.78,6,0,0.76,0.5,45,1.32,0.76,0.76,34.96,FLYING
35.66,APPROACH,FLY_TO_FIX,229.32,149,-80.32,801.73,-7.85,4.8,7.2,252.11,0.163,0,0,-19.022,1,0.6,4.5,0.75,0.35,0.0168,0.4,253.88,2.694,0,1,-2.31,1.77,0,2.68,253.91,0.6637,-0.277,0.6948,2.69,253.88,0,0,48.17,0,0,0,0,0,268.82,0,0,0,0,0,0,0,0,0,0,0,0,0,0,0,0,0,VALID,0,0,0,0,0,1,0,0,0,0,0,0,0,0,0,0,0,0,0,0,0,3773.72,6,0,0.76,0.5,46,1.32,0.76,0.76,35.72,FLYING
36.42,APPROACH,FLY_TO_FIX,228.24,149,-79.24,795.52,-6.17,4.62,5.3,252.13,0.585,0,0,-18.927,1,0.6,4.5,0.75,0.35,0.0168,0.4,253.85,2.725,0,1,-1.63,1.72,0,2.71,253.88,0.6634,-0.2775,0.6949,2.72,253.85,0,0,47.997,0,0,0,0,0,268.82,0,0,0,0,0,0,0,0,0,0,0,0,0,0,0,0,0,VALID,0,0,0,0,0,1,0,0,0,0,0,0,0,0,0,0,0,0,0,0,0,3761.02,6,0,0.76,0.5,47,1.32,0.76,0.76,36.48,FLYING
37.18,APPROACH,FLY_TO_FIX,227.73,149,-78.73,790.28,-6.58,3.25,4.82,252.27,0.017,0,0,-18.832,1,0.6,4.5,0.755,0.35,0.0168,0.4,253.82,2.753,0,1,-1.6,1.55,0,2.74,253.85,0.6632,-0.2779,0.6949,2.75,253.82,0,0,47.825,0,0,0,0,0,268.82,0,0,0,0,0,0,0,0,0,0,0,0,0,0,0,0,0,VALID,0,0,0,0,0,1,0,0,0,0,0,0,0,0,0,0,0,0,0,0,0,3755.26,6,0,0.76,0.5,48,1.32,0.76,0.76,37.24,FLYING
37.94,APPROACH,FLY_TO_FIX,227.3,149,-78.3,784.93,-7.09,3.14,4.74,252.38,-0.3,0,0,-18.738,1,0.6,4.5,0.776,0.35,0.0168,0.4,253.79,2.779,0,1,-1.72,1.41,0,2.77,253.82,0.663,-0.2784,0.695,2.78,253.79,0,0,47.653,0,0,0,0,0,268.82,0,0,0,0,0,0,0,0,0,0,0,0,0,0,0,0,0,VALID,0,0,0,0,0,1,0,0,0,0,0,0,0,0,0,0,0,0,0,0,0,3750.6,6,0,0.76,0.5,49,1.32,0.76,0.76,38,FLYING
38.7,APPROACH,FLY_TO_FIX,226.96,149,-77.96,779.01,-7.91,2.75,4.62,252.6,-0.222,0,0,-18.645,1,0.6,4.5,0.792,0.35,0.0168,0.4,253.77,2.808,0,1,-1.9,1.17,0,2.79,253.79,0.6627,-0.2788,0.695,2.8,253.77,0,0,47.481,0,0,0,0,0,268.82,0,0,0,0,0,0,0,0,0,0,0,0,0,0,0,0,0,VALID,0,0,0,0,0,1,0,0,0,0,0,0,0,0,0,0,0,0,0,0,0,3747.13,6,0,0.76,0.5,50,1.32,0.76,0.76,38.76,FLYING
39.46,APPROACH,FLY_TO_FIX,226.68,149,-77.68,772.66,-8.69,2.64,4.78,252.75,-0.198,0,0,-18.551,1,0.6,4.5,0.802,0.35,0.0168,0.4,253.75,2.839,0,1,-2.11,1,0,2.82,253.77,0.6625,-0.2792,0.6951,2.84,253.75,0,0,47.31,0,0,0,0,0,268.82,0,0,0,0,0,0,0,0,0,0,0,0,0,0,0,0,0,VALID,0,0,0,0,0,1,0,0,0,0,0,0,0,0,0,0,0,0,0,0,0,3744.42,6,0,0.76,0.5,51,1.32,0.76,0.76,39.52,FLYING
40.22,APPROACH,FLY_TO_FIX,226.41,149,-77.41,765.79,-9.3,2.62,4.9,252.9,-0.127,0,0,-18.459,1,0.6,4.5,0.809,0.35,0.0168,0.4,253.72,2.873,0,1,-2.29,0.83,0,2.85,253.75,0.6622,-0.2795,0.6953,2.87,253.72,0,0,47.139,0,0,0,0,0,268.82,0,0,0,0,0,0,0,0,0,0,0,0,0,0,0,0,0,VALID,0,0,0,0,0,1,0,0,0,0,0,0,0,0,0,0,0,0,0,0,0,3741.86,6,0,0.76,0.5,52,1.32,0.76,0.76,40.28,FLYING
40.98,APPROACH,FLY_TO_FIX,226.14,149,-77.14,758.55,-9.77,2.62,5.05,253.03,-0.049,0,0,-18.366,1,0.6,4.5,0.813,0.35,0.0168,0.4,253.7,2.909,0,1,-2.42,0.67,0,2.89,253.72,0.6619,-0.2799,0.6954,2.9,253.7,0,0,46.969,0,0,0,0,0,268.82,0,0,0,0,0,0,0,0,0,0,0,0,0,0,0,0,0,VALID,0,0,0,0,0,1,0,0,0,0,0,0,0,0,0,0,0,0,0,0,0,3739.42,6,0,0.76,0.5,53,1.32,0.76,0.76,41.04,FLYING
41.74,APPROACH,FLY_TO_FIX,225.86,149,-76.86,751.04,-10.07,2.67,5.18,253.12,-0.025,0,0,-18.274,1,0.6,4.5,0.814,0.35,0.0168,0.4,253.68,2.946,0,1,-2.52,0.56,0,2.92,253.7,0.6615,-0.2802,0.6956,2.94,253.68,0,0,46.799,0,0,0,0,0,268.82,0,0,0,0,0,0,0,0,0,0,0,0,0,0,0,0,0,VALID,0,0,0,0,0,1,0,0,0,0,0,0,0,0,0,0,0,0,0,0,0,3736.89,6,0,0.76,0.5,54,1.32,0.76,0.76,41.8,FLYING
42.5,APPROACH,FLY_TO_FIX,225.57,149,-76.57,743.36,-10.24,2.73,5.28,253.21,-0.016,0,0,-18.183,1,0.6,4.5,0.813,0.35,0.0168,0.4,253.66,2.984,0,1,-2.58,0.45,0,2.96,253.68,0.6612,-0.2806,0.6958,2.98,253.66,0,0,46.629,0,0,0,0,0,268.82,0,0,0,0,0,0,0,0,0,0,0,0,0,0,0,0,0,VALID,0,0,0,0,0,1,0,0,0,0,0,0,0,0,0,0,0,0,0,0,0,3734.21,6,0,0.76,0.5,55,1.32,0.76,0.76,42.56,FLYING
43.26,APPROACH,FLY_TO_FIX,225.27,149,-76.27,735.59,-10.31,2.79,5.38,253.28,0.006,0,0,-18.092,1,0.6,4.5,0.811,0.35,0.0168,0.4,253.64,3.023,0,1,-2.61,0.36,0,3,253.66,0.6608,-0.2809,0.696,3.02,253.64,0,0,46.459,0,0,0,0,0,268.82,0,0,0,0,0,0,0,0,0,0,0,0,0,0,0,0,0,VALID,0,0,0,0,0,1,0,0,0,0,0,0,0,0,0,0,0,0,0,0,0,3731.39,6,0,0.76,0.5,56,1.32,0.76,0.76,43.32,FLYING
44.02,APPROACH,FLY_TO_FIX,224.95,149,-75.95,727.81,-10.3,2.86,5.45,253.32,0.001,0,0,-18.002,1,0.6,4.5,0.809,0.35,0.0168,0.4,253.62,3.062,0,1,-2.62,0.3,0,3.04,253.64,0.6605,-0.2812,0.6962,3.06,253.62,0,0,46.29,0,0,0,0,0,268.82,0,0,0,0,0,0,0,0,0,0,0,0,0,0,0,0,0,VALID,0,0,0,0,0,1,0,0,0,0,0,0,0,0,0,0,0,0,0,0,0,3728.36,6,0,0.76,0.5,57,1.32,0.76,0.76,44.08,FLYING
44.78,APPROACH,FLY_TO_FIX,224.61,149,-75.61,720.05,-10.23,2.93,5.5,253.36,-0.009,0,0,-17.912,1,0.6,4.5,0.807,0.35,0.0168,0.4,253.6,3.101,0,1,-2.62,0.24,0,3.07,253.62,0.6601,-0.2815,0.6964,3.1,253.6,0,0,46.122,0,0,0,0,0,268.82,0,0,0,0,0,0,0,0,0,0,0,0,0,0,0,0,0,VALID,0,0,0,0,0,1,0,0,0,0,0,0,0,0,0,0,0,0,0,0,0,3725.16,6,0,0.76,0.5,58,1.32,0.76,0.76,44.84,FLYING
45.54,APPROACH,FLY_TO_FIX,224.27,149,-75.27,712.29,-10.04,2.99,5.44,253.39,-0.004,0,0,-17.822,1,0.6,4.5,0.805,0.35,0.0168,0.4,253.58,3.139,0,1,-2.6,0.19,0,3.11,253.6,0.6598,-0.2818,0.6966,3.14,253.58,0,0,45.953,0,0,0,0,0,268.82,0,0,0,0,0,0,0,0,0,0,0,0,0,0,0,0,0,VALID,0,0,0,0,0,1,0,0,0,0,0,0,0,0,0,0,0,0,0,0,0,3721.78,6,0,0.76,0.5,59,1.32,0.76,0.76,45.6,FLYING
46.3,APPROACH,FLY_TO_FIX,223.88,149,-74.88,703.56,-11.03,1.96,4.53,253.45,-0.056,0,0,-17.733,1,0.6,4.5,0.804,0.35,0.0168,0.4,253.56,3.182,0,1,-2.68,0.11,0,3.15,253.58,0.6594,-0.2821,0.6969,3.18,253.56,0,0,45.785,0,0,0,0,0,268.82,0,0,0,0,0,0,0,0,0,0,0,0,0,0,0,0,0,VALID,0,0,0,0,0,1,0,0,0,0,0,0,0,0,0,0,0,0,0,0,0,3717.72,6,0,0.76,0.5,60,1.32,0.76,0.76,46.36,FLYING
47.06,APPROACH,FLY_TO_FIX,223.75,149,-74.75,694.85,-12.07,1.83,4.95,253.45,-0.105,0,0,-17.644,1,0.6,4.5,0.799,0.35,0.0168,0.4,253.54,3.225,0,1,-2.98,0.09,0,3.2,253.56,0.659,-0.2824,0.6971,3.22,253.54,0,0,45.618,0,0,0,0,0,268.82,0,0,0,0,0,0,0,0,0,0,0,0,0,0,0,0,0,VALID,0,0,0,0,0,1,0,0,0,0,0,0,0,0,0,0,0,0,0,0,0,3717.11,6,0,0.76,0.5,61,1.32,0.76,0.76,47.12,FLYING
47.82,APPROACH,FLY_TO_FIX,223.57,149,-74.57,685.73,-12.48,2.15,5.41,253.45,-0.065,0,0,-17.556,1,0.6,4.5,0.792,0.35,0.0168,0.4,253.53,3.271,0,1,-3.15,0.08,0,3.24,253.54,0.6585,-0.2827,0.6974,3.27,253.53,0,0,45.45,0,0,0,0,0,268.82,0,0,0,0,0,0,0,0,0,0,0,0,0,0,0,0,0,VALID,0,0,0,0,0,1,0,0,0,0,0,0,0,0,0,0,0,0,0,0,0,3716,6,0,0.76,0.5,62,1.32,0.76,0.76,47.88,FLYING
48.58,APPROACH,FLY_TO_FIX,223.31,149,-74.31,676.58,-12.34,2.52,5.83,253.43,-0.045,0,0,-17.468,1,0.6,4.5,0.785,0.35,0.0168,0.4,253.51,3.316,0,1,-3.19,0.08,0,3.28,253.53,0.6581,-0.283,0.6977,3.31,253.51,0,0,45.283,0,0,0,0,0,268.82,0,0,0,0,0,0,0,0,0,0,0,0,0,0,0,0,0,VALID,0,0,0,0,0,1,0,0,0,0,0,0,0,0,0,0,0,0,0,0,0,3714,6,0,0.76,0.5,63,1.32,0.76,0.76,48.64,FLYING
49.34,APPROACH,FLY_TO_FIX,222.94,149,-73.94,667.62,-11.8,2.94,6.03,253.43,0.003,0,0,-17.381,1,0.6,4.5,0.779,0.35,0.0168,0.4,253.49,3.361,0,1,-3.1,0.06,0,3.33,253.51,0.6577,-0.2833,0.698,3.36,253.49,0,0,45.116,0,0,0,0,0,268.82,0,0,0,0,0,0,0,0,0,0,0,0,0,0,0,0,0,VALID,0,0,0,0,0,1,0,0,0,0,0,0,0,0,0,0,0,0,0,0,0,3710.53,6,0,0.76,0.5,64,1.32,0.76,0.76,49.4,FLYING
50.1,APPROACH,FLY_TO_FIX,222.51,149,-73.51,659.11,-11.09,3.22,6.14,253.41,0.05,0,0,-17.294,1,0.6,4.5,0.776,0.35,0.0168,0.4,253.47,3.405,0,1,-2.94,0.06,0,3.37,253.49,0.6573,-0.2836,0.6982,3.4,253.47,0,0,44.95,0,0,0,0,0,268.82,0,0,0,0,0,0,0,0,0,0,0,0,0,0,0,0,0,VALID,0,0,0,0,0,1,0,0,0,0,0,0,0,0,0,0,0,0,0,0,0,3706.2,6,0,0.76,0.5,65,1.32,0.76,0.76,50.16,FLYING
50.88,APPROACH,FLY_TO_FIX,221.98,149,-72.98,651.14,-10.26,3.46,6.13,253.4,0.044,0,0,-17.208,1,0.6,4.5,0.777,0.35,0.0168,0.4,253.45,3.445,0,1,-2.73,0.05,0,3.42,253.47,0.6569,-0.2839,0.6985,3.44,253.45,0,0,44.779,0,0,0,0,0,268.82,0,0,0,0,0,0,0,0,0,0,0,0,0,1,1,0,0,VALID,0,0,0,0,0,1,0,0,0,0,0,0,0,0,0,0,0,0,0,0,0,3700.62,6,0,0.76,0.5,66,1.28,0.76,0.76,50.94,FLYING
51.68,APPROACH,FLY_TO_FIX,221.39,149,-72.39,643.19,-9.25,3.6,5.97,253.39,-0.041,0,0,-17.122,1,0.6,4.5,0.781,0.35,0.0168,0.4,253.43,3.486,0,1,-2.5,0.04,0,3.46,253.45,0.6566,-0.2842,0.6987,3.48,253.43,0,0,44.605,0,0,0,0,0,268.82,0,0,0,0,0,0,0,0,0,0,0,0,0,1,1,0,0,VALID,0,0,0,0,0,1,0,0,0,0,0,0,0,0,0,0,0,0,0,0,0,3694.2,6,0,0.82,0.5,67,1.25,0.82,0.76,51.74,FLYING
52.42,APPROACH,FLY_TO_FIX,220.8,149,-71.8,636.75,-8.26,3.63,5.75,253.39,0.005,0,0,-17.036,1,0.6,4.5,0.789,0.35,0.0168,0.4,253.42,3.519,0,1,-2.25,0.03,0,3.5,253.43,0.6563,-0.2845,0.6988,3.52,253.42,0,0,44.444,0,0,0,0,0,268.82,0,0,0,0,0,0,0,0,0,0,0,0,0,1,1,0,0,VALID,0,0,0,0,0,1,0,0,0,0,0,0,0,0,0,0,0,0,0,0,0,3687.48,6,0,0.74,0.5,68,1.35,0.82,0.74,52.48,FLYING
53.16,APPROACH,FLY_TO_FIX,220.13,149,-71.13,631.24,-7.09,3.83,5.74,253.38,0.017,0,0,-16.951,1,0.6,4.5,0.8,0.35,0.0168,0.4,253.4,3.547,0,1,-2,0.02,0,3.53,253.42,0.6561,-0.2847,0.6989,3.54,253.4,0,0,44.284,0,0,0,0,0,268.82,0,0,0,0,0,0,0,0,0,0,0,0,0,1,1,0,0,VALID,0,0,0,0,0,1,0,0,0,0,0,0,0,0,0,0,0,0,0,0,0,3679.84,6,0,0.74,0.5,69,1.35,0.74,0.74,53.22,FLYING
53.9,APPROACH,FLY_TO_FIX,219.33,149,-70.33,626.59,-5.72,3.99,5.49,253.37,0.006,0,0,-16.866,1,0.6,4.5,0.816,0.35,0.0168,0.4,253.38,3.572,0,1,-1.65,0.02,0,3.56,253.4,0.6559,-0.285,0.699,3.57,253.38,0,0,44.124,0,0,0,0,0,268.82,0,0,0,0,0,0,0,0,0,0,0,0,0,1,1,0,0,VALID,0,0,0,0,0,1,0,0,0,0,0,0,0,0,0,0,0,0,0,0,0,3670.24,6,0,0.74,0.5,70,1.35,0.74,0.74,53.96,FLYING
54.64,APPROACH,FLY_TO_FIX,218.48,149,-69.48,622.82,-4.54,4.06,5.2,253.36,-0.035,0,0,-16.782,1,0.6,4.5,0.836,0.35,0.0168,0.4,253.37,3.592,0,1,-1.32,0.01,0,3.58,253.38,0.6558,-0.2853,0.699,3.59,253.37,0,0,43.964,0,0,0,0,0,268.82,0,0,0,0,0,0,0,0,0,0,0,0,0,1,1,0,0,VALID,0,0,0,0,0,1,0,0,0,0,0,0,0,0,0,0,0,0,0,0,0,3659.94,6,0,0.74,0.5,71,1.35,0.74,0.74,54.7,FLYING
55.38,APPROACH,FLY_TO_FIX,217.67,149,-68.67,619.68,-3.83,4.03,4.92,253.34,-0.075,0,0,-16.698,1,0.6,4.5,0.86,0.35,0.0168,0.4,253.35,3.608,0,1,-1.08,0.01,0,3.6,253.37,0.6557,-0.2856,0.6989,3.6,253.35,0,0,43.806,0,0,0,0,0,268.82,0,0,0,0,0,0,0,0,0,0,0,0,0,1,1,0,0,VALID,0,0,0,0,0,1,0,0,0,0,0,0,0,0,0,0,0,0,0,0,0,3650.09,6,0,0.74,0.5,72,1.35,0.74,0.74,55.44,FLYING
56.12,APPROACH,FLY_TO_FIX,216.92,149,-67.92,616.97,-3.43,3.95,4.79,253.32,-0.085,0,0,-16.614,1,0.6,4.5,0.884,0.35,0.0168,0.4,253.33,3.622,0,1,-0.96,0.01,0,3.62,253.35,0.6557,-0.2858,0.6989,3.62,253.33,0,0,43.648,0,0,0,0,0,268.82,0,0,0,0,0,0,0,0,0,0,0,0,0,1,1,0,0,VALID,0,0,0,0,0,1,0,0,0,0,0,0,0,0,0,0,0,0,0,0,0,3640.86,6,0,0.74,0.5,73,1.35,0.74,0.74,56.18,FLYING
56.9,APPROACH,FLY_TO_FIX,216.15,149,-67.15,614.3,-3.25,3.8,4.62,253.32,-0.047,0,0,-16.531,1,0.6,4.5,0.91,0.35,0.0168,0.4,253.32,3.636,0,1,-0.86,0,0,3.63,253.33,0.6556,-0.2861,0.6988,3.63,253.32,0,0,43.482,0,0,0,0,0,268.82,0,0,0,0,0,0,0,0,0,0,0,0,0,1,1,0,0,VALID,0,0,0,0,0,1,0,0,0,0,0,0,0,0,0,0,0,0,0,0,0,3631.34,6,0,0.78,0.5,74,1.28,0.78,0.74,56.96,FLYING
57.66,APPROACH,FLY_TO_FIX,215.44,149,-66.44,611.89,-3.19,3.79,4.65,253.3,-0.023,0,0,-16.449,1,0.6,4.5,0.935,0.35,0.0168,0.4,253.3,3.648,0,1,-0.86,0,0,3.65,253.32,0.6556,-0.2864,0.6987,3.64,253.3,0,0,43.32,0,0,0,0,0,268.82,0,0,0,0,0,0,0,0,0,0,0,0,0,1,1,0,0,VALID,0,0,0,0,0,1,0,0,0,0,0,0,0,0,0,0,0,0,0,0,0,3622.52,6,0,0.76,0.5,75,1.32,0.78,0.76,57.72,FLYING
58.44,APPROACH,FLY_TO_FIX,214.71,149,-65.71,609.46,-3.17,3.81,4.63,253.29,-0.017,0,0,-16.366,1,0.6,4.5,0.959,0.35,0.0168,0.4,253.28,3.66,0,1,-0.84,0,0,3.66,253.3,0.6556,-0.2867,0.6986,3.66,253.28,0,0,43.16,0,0,0,0,0,268.82,0,0,0,0,0,0,0,0,0,0,0,0,0,1,1,0,0,VALID,0,0,0,0,0,1,0,0,0,0,0,0,0,0,0,0,0,0,0,0,0,3613.53,6,0,0.76,0.5,76,1.32,0.76,0.76,58.48,FLYING
59.2,APPROACH,FLY_TO_FIX,214,149,-65,607.02,-3.22,3.8,4.63,253.27,-0.017,0,0,-16.285,1,0.6,4.5,0.982,0.35,0.0168,0.4,253.27,3.672,0,1,-0.86,0.01,0,3.67,253.28,0.6556,-0.287,0.6985,3.67,253.27,0,0,42.999,0,0,0,0,0,268.82,0,0,0,0,0,0,0,0,0,0,0,0,0,1,1,0,0,VALID,0,0,0,0,0,1,0,0,0,0,0,0,0,0,0,0,0,0,0,0,0,3604.77,6,0,0.76,0.5,77,1.32,0.76,0.76,59.24,FLYING
59.94,APPROACH,FLY_TO_FIX,213.31,149,-64.31,604.5,-3.35,3.75,4.63,253.25,-0.021,0,0,-16.203,1,0.6,4.5,1.005,0.35,0.0168,0.4,253.25,3.684,0,1,-0.88,0,0,3.68,253.27,0.6556,-0.2872,0.6984,3.68,253.25,0,0,42.84,0,0,0,0,0,268.82,0,0,0,0,0,0,0,0,0,0,0,0,0,1,1,0,0,VALID,0,0,0,0,0,1,0,0,0,0,0,0,0,0,0,0,0,0,0,0,0,3596.12,6,0,0.76,0.5,78,1.32,0.76,0.76,60,FLYING
60.72,APPROACH,FLY_TO_FIX,212.63,149,-63.63,601.91,-3.5,3.74,4.69,253.24,-0.017,0,0,-16.122,1,0.6,4.5,1.026,0.35,0.0168,0.4,253.23,3.697,0,1,-0.93,0.01,0,3.7,253.25,0.6556,-0.2875,0.6983,3.69,253.23,0,0,42.681,0,0,0,0,0,268.82,0,0,0,0,0,0,0,0,0,0,0,0,0,1,1,0,0,VALID,0,0,0,0,0,1,0,0,0,0,0,0,0,0,0,0,0,0,0,0,0,3587.66,6,0,0.76,0.5,79,1.32,0.76,0.76,60.76,FLYING
61.48,APPROACH,FLY_TO_FIX,211.93,149,-62.93,599.18,-3.62,3.75,4.68,253.22,-0.036,0,0,-16.042,1,0.6,4.5,1.046,0.35,0.0168,0.4,253.22,3.711,0,1,-0.96,0.01,0,3.71,253.23,0.6555,-0.2878,0.6982,3.71,253.22,0,0,42.522,0,0,0,0,0,268.82,0,0,0,0,0,0,0,0,0,0,0,0,0,1,1,0,0,VALID,0,0,0,0,0,1,0,0,0,0,0,0,0,0,0,0,0,0,0,0,0,3579.06,6,0,0.76,0.5,80,1.32,0.76,0.76,61.52,FLYING
62.24,APPROACH,FLY_TO_FIX,211.28,149,-62.28,596.37,-3.8,3.74,4.78,253.21,-0.017,0,0,-15.961,1,0.6,4.5,1.065,0.35,0.0168,0.4,253.2,3.725,0,1,-1.02,0,0,3.72,253.22,0.6555,-0.288,0.6981,3.72,253.2,0,0,42.364,0,0,0,0,0,268.82,0,0,0,0,0,0,0,0,0,0,0,0,0,1,1,0,0,VALID,0,0,0,0,0,1,0,0,0,0,0,0,0,0,0,0,0,0,0,0,0,3570.94,6,0,0.76,0.5,81,1.32,0.76,0.76,62.28,FLYING
63,APPROACH,FLY_TO_FIX,210.57,149,-61.57,593.34,-3.9,3.69,4.63,253.2,-0.042,0,0,-15.882,1,0.6,4.5,1.083,0.35,0.0168,0.4,253.19,3.74,0,1,-1.03,0.01,0,3.74,253.2,0.6554,-0.2883,0.6981,3.74,253.19,0,0,42.206,0,0,0,0,0,268.82,0,0,0,0,0,0,0,0,0,0,0,0,0,1,1,0,0,VALID,0,0,0,0,0,1,0,0,0,0,0,0,0,0,0,0,0,0,0,0,0,3562.17,6,0,0.76,0.5,82,1.32,0.76,0.76,63.04,FLYING
63.76,APPROACH,FLY_TO_FIX,209.96,149,-60.96,590.28,-4.26,3.59,4.79,253.18,-0.007,0,0,-15.802,1,0.6,4.5,1.1,0.35,0.0168,0.4,253.17,3.755,0,1,-1.12,0.01,0,3.75,253.19,0.6554,-0.2886,0.698,3.75,253.17,0,0,42.049,0,0,0,0,0,268.82,0,0,0,0,0,0,0,0,0,0,0,0,0,1,1,0,0,VALID,0,0,0,0,0,1,0,0,0,0,0,0,0,0,0,0,0,0,0,0,0,3554.59,6,0,0.76,0.5,83,1.32,0.76,0.76,63.8,FLYING
64.52,APPROACH,FLY_TO_FIX,209.29,149,-60.29,587.14,-4.29,3.77,4.96,253.17,-0.001,0,0,-15.723,1,0.6,4.5,1.115,0.35,0.0168,0.4,253.15,3.771,0,1,-1.18,0.01,0,3.77,253.17,0.6553,-0.2888,0.6979,3.77,253.15,0,0,41.892,0,0,0,0,0,268.82,0,0,0,0,0,0,0,0,0,0,0,0,0,1,1,0,0,VALID,0,0,0,0,0,1,0,0,0,0,0,0,0,0,0,0,0,0,0,0,0,3546.38,6,0,0.76,0.5,84,1.32,0.76,0.76,64.56,FLYING
65.28,APPROACH,FLY_TO_FIX,208.59,149,-59.59,583.88,-4.26,3.83,4.92,253.15,-0.007,0,0,-15.644,1,0.6,4.5,1.13,0.35,0.0168,0.4,253.14,3.787,0,1,-1.16,0.01,0,3.78,253.15,0.6553,-0.2891,0.6979,3.78,253.14,0,0,41.736,0,0,0,0,0,268.82,0,0,0,0,0,0,0,0,0,0,0,0,0,1,1,0,0,VALID,0,0,0,0,0,1,0,0,0,0,0,0,0,0,0,0,0,0,0,0,0,3537.58,6,0,0.76,0.5,85,1.32,0.76,0.76,65.32,FLYING
66.04,APPROACH,FLY_TO_FIX,207.92,149,-58.92,580.56,-4.38,3.71,4.88,253.14,0.005,0,0,-15.566,1,0.6,4.5,1.145,0.35,0.0168,0.4,253.12,3.803,0,1,-1.18,0.01,0,3.8,253.14,0.6552,-0.2894,0.6979,3.8,253.12,0,0,41.581,0,0,0,0,0,268.82,0,0,0,0,0,0,0,0,0,0,0,0,0,1,1,0,0,VALID,0,0,0,0,0,1,0,0,0,0,0,0,0,0,0,0,0,0,0,0,0,3529.24,6,0,0.76,0.5,86,1.32,0.76,0.76,66.08,FLYING
66.8,APPROACH,FLY_TO_FIX,207.26,149,-58.26,577.18,-4.59,3.74,4.96,253.11,-0.013,0,0,-15.488,1,0.6,4.5,1.158,0.35,0.0168,0.4,253.1,3.82,0,1,-1.24,0.01,0,3.82,253.12,0.6551,-0.2896,0.6978,3.82,253.1,0,0,41.426,0,0,0,0,0,268.82,0,0,0,0,0,0,0,0,0,0,0,0,0,1,1,0,0,VALID,0,0,0,0,0,1,0,0,0,0,0,0,0,0,0,0,0,0,0,0,0,3521.06,6,0,0.76,0.5,87,1.32,0.76,0.76,66.84,FLYING
67.56,APPROACH,FLY_TO_FIX,206.58,149,-57.58,573.82,-4.55,3.87,5.15,253.11,-0.059,0,0,-15.411,1,0.6,4.5,1.171,0.35,0.0168,0.4,253.09,3.837,0,1,-1.27,0.02,0,3.83,253.1,0.655,-0.2899,0.6978,3.83,253.09,0,0,41.271,0,0,0,0,0,268.82,0,0,0,0,0,0,0,0,0,0,0,0,0,1,1,0,0,VALID,0,0,0,0,0,1,0,0,0,0,0,0,0,0,0,0,0,0,0,0,0,3512.71,6,0,0.76,0.5,88,1.32,0.76,0.76,67.6,FLYING
68.32,APPROACH,FLY_TO_FIX,205.88,149,-56.88,570.4,-4.53,3.94,5.17,253.08,-0.014,0,0,-15.334,1,0.6,4.5,1.184,0.35,0.0168,0.4,253.07,3.854,0,1,-1.26,0.01,0,3.85,253.09,0.6549,-0.2902,0.6977,3.85,253.07,0,0,41.117,0,0,0,0,0,268.82,0,0,0,0,0,0,0,0,0,0,0,0,0,1,1,0,0,VALID,0,0,0,0,0,1,0,0,0,0,0,0,0,0,0,0,0,0,0,0,0,3503.93,6,0,0.76,0.5,89,1.32,0.76,0.76,68.36,FLYING
69.08,APPROACH,FLY_TO_FIX,205.19,149,-56.19,566.95,-4.55,3.94,5.18,253.07,-0.005,0,0,-15.257,1,0.6,4.5,1.197,0.35,0.0168,0.4,253.06,3.871,0,1,-1.26,0.02,0,3.87,253.07,0.6549,-0.2904,0.6977,3.87,253.06,0,0,40.963,0,0,0,0,0,268.82,0,0,0,0,0,0,0,0,0,0,0,0,0,1,1,0,0,VALID,0,0,0,0,0,1,0,0,0,0,0,0,0,0,0,0,0,0,0,0,0,3495.38,6,0,0.76,0.5,90,1.32,0.76,0.76,69.12,FLYING
69.84,APPROACH,FLY_TO_FIX,204.5,149,-55.5,563.48,-4.57,3.94,5.19,253.06,-0.012,0,0,-15.181,1,0.6,4.5,1.209,0.35,0.0168,0.4,253.04,3.888,0,1,-1.28,0.01,0,3.88,253.06,0.6548,-0.2907,0.6977,3.89,253.04,0,0,40.81,0,0,0,0,0,268.82,0,0,0,0,0,0,0,0,0,0,0,0,0,1,1,0,0,VALID,0,0,0,0,0,1,0,0,0,0,0,0,0,0,0,0,0,0,0,0,0,3486.76,6,0,0.76,0.5,91,1.32,0.76,0.76,69.88,FLYING
70.6,APPROACH,FLY_TO_FIX,203.81,149,-54.81,559.99,-4.64,3.95,5.21,253.04,-0.018,0,0,-15.105,1,0.6,4.5,1.221,0.35,0.0168,0.4,253.02,3.906,0,1,-1.29,0.01,0,3.9,253.04,0.6547,-0.291,0.6977,3.9,253.02,0,0,40.658,0,0,0,0,0,268.82,0,0,0,0,0,0,0,0,0,0,0,0,0,1,1,0,0,VALID,0,0,0,0,0,1,0,0,0,0,0,0,0,0,0,0,0,0,0,0,0,3478.16,6,0,0.76,0.5,92,1.32,0.76,0.76,70.64,FLYING
71.36,APPROACH,FLY_TO_FIX,203.13,149,-54.13,556.44,-4.7,3.94,5.23,253.02,-0.019,0,0,-15.03,1,0.6,4.5,1.233,0.35,0.0168,0.4,253.01,3.924,0,1,-1.31,0.01,0,3.92,253.02,0.6546,-0.2912,0.6976,3.92,253.01,0,0,40.506,0,0,0,0,0,268.82,0,0,0,0,0,0,0,0,0,0,0,0,0,1,1,0,0,VALID,0,0,0,0,0,1,0,0,0,0,0,0,0,0,0,0,0,0,0,0,0,3469.62,6,0,0.76,0.5,93,1.32,0.76,0.76,71.4,FLYING
72.12,APPROACH,FLY_TO_FIX,202.44,149,-53.44,552.83,-4.8,3.94,5.27,253.01,-0.005,0,0,-14.954,1,0.6,4.5,1.243,0.35,0.0168,0.4,252.99,3.942,0,1,-1.35,0.02,0,3.94,253.01,0.6545,-0.2915,0.6976,3.94,252.99,0,0,40.354,0,0,0,0,0,268.82,0,0,0,0,0,0,0,0,0,0,0,0,0,1,1,0,0,VALID,0,0,0,0,0,1,0,0,0,0,0,0,0,0,0,0,0,0,0,0,0,3461.09,6,0,0.76,0.5,94,1.32,0.76,0.76,72.16,FLYING
72.88,APPROACH,FLY_TO_FIX,201.76,149,-52.76,549.16,-4.88,3.95,5.3,252.99,0.037,0,0,-14.88,1,0.6,4.5,1.254,0.35,0.0168,0.4,252.98,3.96,0,1,-1.37,0.01,0,3.95,252.99,0.6544,-0.2918,0.6976,3.96,252.98,0,0,40.203,0,0,0,0,0,268.82,0,0,0,0,0,0,0,0,0,0,0,0,0,1,1,0,0,VALID,0,0,0,0,0,1,0,0,0,0,0,0,0,0,0,0,0,0,0,0,0,3452.56,6,0,0.76,0.5,95,1.32,0.76,0.76,72.92,FLYING
73.64,APPROACH,FLY_TO_FIX,201.08,149,-52.08,545.43,-4.97,3.96,5.35,252.98,-0.029,0,0,-14.805,1,0.6,4.5,1.264,0.35,0.0168,0.4,252.96,3.978,0,1,-1.4,0.02,0,3.97,252.98,0.6543,-0.2921,0.6976,3.98,252.96,0,0,40.053,0,0,0,0,0,268.82,0,0,0,0,0,0,0,0,0,0,0,0,0,1,1,0,0,VALID,0,0,0,0,0,1,0,0,0,0,0,0,0,0,0,0,0,0,0,0,0,3444.06,6,0,0.76,0.5,96,1.32,0.76,0.76,73.68,FLYING
74.4,APPROACH,FLY_TO_FIX,200.42,149,-51.42,541.62,-5.09,3.98,5.41,252.96,-0.011,0,0,-14.731,1,0.6,4.5,1.273,0.35,0.0168,0.4,252.94,3.997,0,1,-1.44,0.01,0,3.99,252.96,0.6542,-0.2923,0.6976,3.99,252.94,0,0,39.903,0,0,0,0,0,268.82,0,0,0,0,0,0,0,0,0,0,0,0,0,1,1,0,0,VALID,0,0,0,0,0,1,0,0,0,0,0,0,0,0,0,0,0,0,0,0,0,3435.81,6,0,0.76,0.5,97,1.32,0.76,0.76,74.44,FLYING
75.16,APPROACH,FLY_TO_FIX,199.75,149,-50.75,537.72,-5.18,4,5.45,252.94,-0.033,0,0,-14.658,1,0.6,4.5,1.282,0.35,0.0168,0.4,252.93,4.017,0,1,-1.47,0.01,0,4.01,252.94,0.654,-0.2926,0.6976,4.01,252.93,0,0,39.754,0,0,0,0,0,268.82,0,0,0,0,0,0,0,0,0,0,0,0,0,1,1,0,0,VALID,0,0,0,0,0,1,0,0,0,0,0,0,0,0,0,0,0,0,0,0,0,3427.46,6,0,0.76,0.5,98,1.32,0.76,0.76,75.2,FLYING
75.92,APPROACH,FLY_TO_FIX,199.09,149,-50.09,533.85,-5.42,4,5.68,252.92,-0.027,0,0,-14.584,1,0.6,4.5,1.29,0.35,0.0168,0.4,252.91,4.037,0,1,-1.51,0.01,0,4.03,252.93,0.6539,-0.2929,0.6976,4.03,252.91,0,0,39.605,0,0,0,0,0,268.82,0,0,0,0,0,0,0,0,0,0,0,0,0,1,1,0,0,VALID,0,0,0,0,0,1,0,0,0,0,0,0,0,0,0,0,0,0,0,0,0,3419.34,6,0,0.76,0.5,99,1.32,0.76,0.76,75.96,FLYING
76.68,APPROACH,FLY_TO_FIX,198.3,149,-49.3,530.08,-5.04,4.41,5.84,252.9,-0.004,0,0,-14.511,1,0.6,4.5,1.299,0.35,0.0168,0.4,252.89,4.055,0,1,-1.5,0.01,0,4.05,252.91,0.6538,-0.2931,0.6976,4.05,252.89,0,0,39.456,0,0,0,0,0,268.82,0,0,0,0,0,0,0,0,0,0,0,0,0,1,1,0,0,VALID,0,0,0,0,0,1,0,0,0,0,0,0,0,0,0,0,0,0,0,0,0,3409.44,6,0,0.76,0.5,100,1.32,0.76,0.76,76.72,FLYING
77.44,APPROACH,FLY_TO_FIX,197.53,149,-48.53,526.31,-4.85,4.42,5.77,252.9,0.017,0,0,-14.439,1,0.6,4.5,1.31,0.35,0.0168,0.4,252.88,4.074,0,1,-1.42,0.02,0,4.07,252.89,0.6537,-0.2934,0.6976,4.07,252.88,0,0,39.308,0,0,0,0,0,268.82,0,0,0,0,0,0,0,0,0,0,0,0,0,1,1,0,0,VALID,0,0,0,0,0,1,0,0,0,0,0,0,0,0,0,0,0,0,0,0,0,3399.78,6,0,0.76,0.5,101,1.32,0.76,0.76,77.48,FLYING
78.2,APPROACH,FLY_TO_FIX,196.79,149,-47.79,522.6,-4.81,4.36,5.69,252.87,0.056,0,0,-14.367,1,0.6,4.5,1.32,0.35,0.0168,0.4,252.86,4.093,0,1,-1.4,0.01,0,4.09,252.88,0.6536,-0.2937,0.6976,4.09,252.86,0,0,39.161,0,0,0,0,0,268.82,0,0,0,0,0,0,0,0,0,0,0,0,0,1,1,0,0,VALID,0,0,0,0,0,1,0,0,0,0,0,0,0,0,0,0,0,0,0,0,0,3390.38,6,0,0.76,0.5,102,1.32,0.76,0.76,78.24,FLYING
78.96,APPROACH,FLY_TO_FIX,196.07,149,-47.07,518.85,-4.91,4.28,5.64,252.86,0.001,0,0,-14.295,1,0.6,4.5,1.331,0.35,0.0168,0.4,252.84,4.111,0,1,-1.42,0.02,0,4.1,252.86,0.6535,-0.294,0.6975,4.11,252.84,0,0,39.015,0,0,0,0,0,268.82,0,0,0,0,0,0,0,0,0,0,0,0,0,1,1,0,0,VALID,0,0,0,0,0,1,0,0,0,0,0,0,0,0,0,0,0,0,0,0,0,3381.35,6,0,0.76,0.5,103,1.32,0.76,0.76,79,FLYING
79.72,APPROACH,FLY_TO_FIX,195.38,149,-46.38,515.01,-5.08,4.2,5.63,252.84,-0.029,0,0,-14.223,1,0.6,4.5,1.34,0.35,0.0168,0.4,252.82,4.13,0,1,-1.47,0.02,0,4.12,252.84,0.6533,-0.2943,0.6975,4.13,252.82,0,0,38.868,0,0,0,0,0,268.82,0,0,0,0,0,0,0,0,0,0,0,0,0,1,1,0,0,VALID,0,0,0,0,0,1,0,0,0,0,0,0,0,0,0,0,0,0,0,0,0,3372.7,6,0,0.76,0.5,104,1.32,0.76,0.76,79.76,FLYING
80.48,APPROACH,FLY_TO_FIX,194.71,149,-45.71,511.04,-5.31,4.15,5.66,252.82,-0.015,0,0,-14.152,1,0.6,4.5,1.349,0.35,0.0168,0.4,252.81,4.15,0,1,-1.53,0.01,0,4.14,252.82,0.6532,-0.2946,0.6975,4.15,252.81,0,0,38.723,0,0,0,0,0,268.82,0,0,0,0,0,0,0,0,0,0,0,0,0,1,1,0,0,VALID,0,0,0,0,0,1,0,0,0,0,0,0,0,0,0,0,0,0,0,0,0,3364.27,6,0,0.76,0.5,105,1.32,0.76,0.76,80.52,FLYING
81.24,APPROACH,FLY_TO_FIX,194.04,149,-45.04,506.9,-5.52,4.13,5.7,252.81,-0.042,0,0,-14.081,1,0.6,4.5,1.356,0.35,0.0168,0.4,252.79,4.171,0,1,-1.6,0.02,0,4.16,252.81,0.6531,-0.2948,0.6976,4.17,252.79,0,0,38.578,0,0,0,0,0,268.82,0,0,0,0,0,0,0,0,0,0,0,0,0,1,1,0,0,VALID,0,0,0,0,0,1,0,0,0,0,0,0,0,0,0,0,0,0,0,0,0,3355.94,6,0,0.76,0.5,106,1.32,0.76,0.76,81.28,FLYING
82,APPROACH,FLY_TO_FIX,193.38,149,-44.38,502.62,-5.72,4.11,5.76,252.79,0.004,0,0,-14.011,1,0.6,4.5,1.363,0.35,0.0168,0.4,252.77,4.192,0,1,-1.66,0.01,0,4.18,252.79,0.6529,-0.2951,0.6976,4.19,252.77,0,0,38.433,0,0,0,0,0,268.82,0,0,0,0,0,0,0,0,0,0,0,0,0,1,1,0,0,VALID,0,0,0,0,0,1,0,0,0,0,0,0,0,0,0,0,0,0,0,0,0,3347.7,6,0,0.76,0.5,107,1.32,0.76,0.76,82.04,FLYING
82.76,APPROACH,FLY_TO_FIX,192.72,149,-43.72,498.2,-5.87,4.11,5.8,252.78,0.01,0,0,-13.941,1,0.6,4.5,1.368,0.35,0.0168,0.4,252.75,4.214,0,1,-1.73,0.03,0,4.2,252.77,0.6527,-0.2954,0.6976,4.21,252.75,0,0,38.289,0,0,0,0,0,268.82,0,0,0,0,0,0,0,0,0,0,0,0,0,1,1,0,0,VALID,0,0,0,0,0,1,0,0,0,0,0,0,0,0,0,0,0,0,0,0,0,3339.41,6,0,0.76,0.5,108,1.32,0.76,0.76,82.8,FLYING
83.52,APPROACH,FLY_TO_FIX,192.06,149,-43.06,493.66,-6.1,4.09,5.9,252.75,0.012,0,0,-13.871,1,0.6,4.5,1.373,0.35,0.0168,0.4,252.74,4.236,0,1,-1.8,0.02,0,4.22,252.75,0.6526,-0.2957,0.6976,4.23,252.74,0,0,38.145,0,0,0,0,0,268.82,0,0,0,0,0,0,0,0,0,0,0,0,0,1,1,0,0,VALID,0,0,0,0,0,1,0,0,0,0,0,0,0,0,0,0,0,0,0,0,0,3331.26,6,0,0.76,0.5,109,1.32,0.76,0.76,83.56,FLYING
84.28,APPROACH,FLY_TO_FIX,191.4,149,-42.4,489,-6.24,4.15,5.98,252.73,-0.021,0,0,-13.802,1,0.6,4.5,1.378,0.35,0.0168,0.4,252.72,4.259,0,1,-1.84,0.02,0,4.25,252.74,0.6524,-0.296,0.6977,4.26,252.72,0,0,38.002,0,0,0,0,0,268.82,0,0,0,0,0,0,0,0,0,0,0,0,0,1,1,0,0,VALID,0,0,0,0,0,1,0,0,0,0,0,0,0,0,0,0,0,0,0,0,0,3323.08,6,0,0.76,0.5,110,1.32,0.76,0.76,84.32,FLYING
85.04,APPROACH,FLY_TO_FIX,190.72,149,-41.72,484.15,-6.37,4.14,5.93,252.72,-0.037,0,0,-13.733,1,0.6,4.5,1.382,0.35,0.0168,0.4,252.7,4.283,0,1,-1.89,0.02,0,4.27,252.72,0.6522,-0.2963,0.6977,4.28,252.7,0,0,37.86,0,0,0,0,0,268.82,0,0,0,0,0,0,0,0,0,0,0,0,0,1,1,0,0,VALID,0,0,0,0,0,1,0,0,0,0,0,0,0,0,0,0,0,0,0,0,0,3314.74,6,0,0.76,0.5,111,1.32,0.76,0.76,85.08,FLYING
85.8,APPROACH,FLY_TO_FIX,190.1,149,-41.1,479.29,-6.59,4.08,6.1,252.7,-0.044,0,0,-13.664,1,0.6,4.5,1.386,0.35,0.0168,0.4,252.68,4.308,0,1,-1.96,0.02,0,4.29,252.7,0.652,-0.2966,0.6978,4.3,252.68,0,0,37.718,0,0,0,0,0,268.82,0,0,0,0,0,0,0,0,0,0,0,0,0,1,1,0,0,VALID,0,0,0,0,0,1,0,0,0,0,0,0,0,0,0,0,0,0,0,0,0,3307.05,6,0,0.76,0.5,112,1.32,0.76,0.76,85.84,FLYING
86.56,APPROACH,FLY_TO_FIX,189.42,149,-40.42,474.18,-6.72,4.11,6.02,252.68,0.015,0,0,-13.596,1,0.6,4.5,1.389,0.35,0.0168,0.4,252.66,4.333,0,1,-1.99,0.02,0,4.32,252.68,0.6518,-0.2969,0.6979,4.33,252.66,0,0,37.576,0,0,0,0,0,268.82,0,0,0,0,0,0,0,0,0,0,0,0,0,1,1,0,0,VALID,0,0,0,0,0,1,0,0,0,0,0,0,0,0,0,0,0,0,0,0,0,3298.72,6,0,0.76,0.5,113,1.32,0.76,0.76,86.6,FLYING
87.32,APPROACH,FLY_TO_FIX,188.76,149,-39.76,469.14,-6.68,4.27,6.19,252.66,0.029,0,0,-13.528,1,0.6,4.5,1.392,0.35,0.0168,0.4,252.64,4.358,0,1,-2.06,0.02,0,4.34,252.66,0.6516,-0.2972,0.6979,4.35,252.64,0,0,37.435,0,0,0,0,0,268.82,0,0,0,0,0,0,0,0,0,0,0,0,0,1,1,0,0,VALID,0,0,0,0,0,1,0,0,0,0,0,0,0,0,0,0,0,0,0,0,0,3290.55,6,0,0.76,0.5,114,1.32,0.76,0.76,87.36,FLYING
88.08,APPROACH,FLY_TO_FIX,188.11,149,-39.11,463.84,-6.97,4.06,6.13,252.65,0.004,0,0,-13.46,1,0.6,4.5,1.395,0.35,0.0168,0.4,252.62,4.385,0,1,-2.09,0.02,0,4.37,252.64,0.6513,-0.2976,0.698,4.38,252.62,0,0,37.294,0,0,0,0,0,268.82,0,0,0,0,0,0,0,0,0,0,0,0,0,1,1,0,0,VALID,0,0,0,0,0,1,0,0,0,0,0,0,0,0,0,0,0,0,0,0,0,3282.53,6,0,0.76,0.5,115,1.32,0.76,0.76,88.12,FLYING
88.84,APPROACH,FLY_TO_FIX,187.48,149,-38.48,458.47,-7.22,4.05,6.23,252.62,-0.019,0,0,-13.393,1,0.6,4.5,1.397,0.35,0.0168,0.4,252.6,4.411,0,1,-2.16,0.01,0,4.4,252.62,0.6511,-0.2979,0.6981,4.41,252.6,0,0,37.154,0,0,0,0,0,268.82,0,0,0,0,0,0,0,0,0,0,0,0,0,1,1,0,0,VALID,0,0,0,0,0,1,0,0,0,0,0,0,0,0,0,0,0,0,0,0,0,3274.88,6,0,0.76,0.5,116,1.32,0.76,0.76,88.88,FLYING
89.6,APPROACH,FLY_TO_FIX,186.73,149,-37.73,453.41,-6.99,4.59,6.77,252.6,0.002,0,0,-13.326,1,0.6,4.5,1.4,0.35,0.0168,0.4,252.58,4.437,0,1,-2.2,0.02,0,4.42,252.6,0.6509,-0.2982,0.6982,4.43,252.58,0,0,37.015,0,0,0,0,0,268.82,0,0,0,0,0,0,0,0,0,0,0,0,0,1,1,0,0,VALID,0,0,0,0,0,1,0,0,0,0,0,0,0,0,0,0,0,0,0,0,0,3265.73,6,0,0.76,0.5,117,1.32,0.76,0.76,89.64,FLYING
90.36,APPROACH,FLY_TO_FIX,185.96,149,-36.96,448.16,-6.87,4.6,6.74,252.59,-0.017,0,0,-13.259,1,0.6,4.5,1.405,0.35,0.0168,0.4,252.56,4.463,0,1,-2.13,0.03,0,4.45,252.58,0.6506,-0.2985,0.6982,4.46,252.56,0,0,36.876,0,0,0,0,0,268.82,0,0,0,0,0,0,0,0,0,0,0,0,0,1,1,0,0,VALID,0,0,0,0,0,1,0,0,0,0,0,0,0,0,0,0,0,0,0,0,0,3256.19,6,0,0.76,0.5,118,1.32,0.76,0.76,90.4,FLYING
91.12,APPROACH,FLY_TO_FIX,185.19,149,-36.19,443,-6.65,4.73,6.64,252.56,0.011,0,0,-13.193,1,0.6,4.5,1.411,0.35,0.0168,0.4,252.54,4.489,0,1,-2.08,0.02,0,4.47,252.56,0.6504,-0.2989,0.6983,4.49,252.54,0,0,36.738,0,0,0,0,0,268.82,0,0,0,0,0,0,0,0,0,0,0,0,0,1,1,0,0,VALID,0,0,0,0,0,1,0,0,0,0,0,0,0,0,0,0,0,0,0,0,0,3246.58,6,0,0.76,0.5,119,1.32,0.76,0.76,91.16,FLYING
91.88,APPROACH,FLY_TO_FIX,184.48,149,-35.48,437.73,-6.76,4.45,6.41,252.54,0.013,0,0,-13.127,1,0.6,4.5,1.417,0.35,0.0168,0.4,252.52,4.515,0,1,-2.06,0.02,0,4.5,252.54,0.6502,-0.2992,0.6984,4.51,252.52,0,0,36.6,0,0,0,0,0,268.82,0,0,0,0,0,0,0,0,0,0,0,0,0,1,1,0,0,VALID,0,0,0,0,0,1,0,0,0,0,0,0,0,0,0,0,0,0,0,0,0,3237.86,6,0,0.76,0.5,120,1.32,0.76,0.76,91.92,FLYING
92.64,APPROACH,FLY_TO_FIX,183.81,149,-34.81,432.46,-6.98,4.35,6.39,252.52,0.01,0,0,-13.061,1,0.6,4.5,1.422,0.35,0.0168,0.4,252.5,4.541,0,1,-2.12,0.02,0,4.53,252.52,0.6499,-0.2996,0.6985,4.54,252.5,0,0,36.463,0,0,0,0,0,268.82,0,0,0,0,0,0,0,0,0,0,0,0,0,1,1,0,0,VALID,0,0,0,0,0,1,0,0,0,0,0,0,0,0,0,0,0,0,0,0,0,3229.54,6,0,0.76,0.5,121,1.32,0.76,0.76,92.68,FLYING
93.4,APPROACH,FLY_TO_FIX,183.17,149,-34.17,427.21,-7.21,4.35,6.68,252.5,-0.011,0,0,-12.996,1,0.6,4.5,1.426,0.35,0.0168,0.4,252.48,4.568,0,1,-2.23,0.02,0,4.55,252.5,0.6497,-0.2999,0.6985,4.56,252.48,0,0,36.326,0,0,0,0,0,268.82,0,0,0,0,0,0,0,0,0,0,0,0,0,1,1,0,0,VALID,0,0,0,0,0,1,0,0,0,0,0,0,0,0,0,0,0,0,0,0,0,3221.83,6,0,0.76,0.5,122,1.32,0.76,0.76,93.44,FLYING
94.16,APPROACH,FLY_TO_FIX,182.43,149,-33.43,421.98,-7.04,4.76,6.96,252.48,0.006,0,0,-12.931,1,0.6,4.5,1.43,0.35,0.0168,0.4,252.45,4.594,0,1,-2.25,0.03,0,4.58,252.48,0.6494,-0.3003,0.6986,4.59,252.45,0,0,36.19,0,0,0,0,0,268.82,0,0,0,0,0,0,0,0,0,0,0,0,0,1,1,0,0,VALID,0,0,0,0,0,1,0,0,0,0,0,0,0,0,0,0,0,0,0,0,0,3212.78,6,0,0.76,0.5,123,1.32,0.76,0.76,94.2,FLYING
94.92,APPROACH,FLY_TO_FIX,181.7,149,-32.7,416.64,-7.04,4.68,6.97,252.45,0.016,0,0,-12.867,1,0.6,4.5,1.435,0.35,0.0168,0.4,252.43,4.621,0,1,-2.22,0.02,0,4.6,252.45,0.6492,-0.3007,0.6987,4.62,252.43,0,0,36.054,0,0,0,0,0,268.82,0,0,0,0,0,0,0,0,0,0,0,0,0,1,1,0,0,VALID,0,0,0,0,0,1,0,0,0,0,0,0,0,0,0,0,0,0,0,0,0,3203.75,6,0,0.76,0.5,124,1.32,0.76,0.76,94.96,FLYING
95.68,APPROACH,FLY_TO_FIX,180.91,149,-31.91,411.34,-6.95,4.86,6.97,252.43,-0.01,0,0,-12.802,1,0.6,4.5,1.441,0.35,0.0168,0.4,252.41,4.647,0,1,-2.2,0.02,0,4.63,252.43,0.6489,-0.3011,0.6988,4.64,252.41,0,0,35.919,0,0,0,0,0,268.82,0,0,0,0,0,0,0,0,0,0,0,0,0,1,1,0,0,VALID,0,0,0,0,0,1,0,0,0,0,0,0,0,0,0,0,0,0,0,0,0,3194.04,6,0,0.76,0.5,125,1.32,0.76,0.76,95.72,FLYING
96.44,APPROACH,FLY_TO_FIX,180.17,149,-31.17,405.98,-6.97,4.78,6.87,252.41,0.039,0,0,-12.738,1,0.6,4.5,1.448,0.35,0.0168,0.4,252.38,4.674,0,1,-2.2,0.03,0,4.66,252.41,0.6487,-0.3015,0.6988,4.67,252.38,0,0,35.785,0,0,0,0,0,268.82,0,0,0,0,0,0,0,0,0,0,0,0,0,1,1,0,0,VALID,0,0,0,0,0,1,0,0,0,0,0,0,0,0,0,0,0,0,0,0,0,3184.91,6,0,0.76,0.5,126,1.32,0.76,0.76,96.48,FLYING
97.2,APPROACH,FLY_TO_FIX,179.48,149,-30.48,400.57,-7.19,4.64,6.89,252.38,-0.025,0,0,-12.674,1,0.6,4.5,1.453,0.35,0.0168,0.4,252.36,4.701,0,1,-2.25,0.02,0,4.68,252.38,0.6484,-0.3019,0.6989,4.7,252.36,0,0,35.651,0,0,0,0,0,268.82,0,0,0,0,0,0,0,0,0,0,0,0,0,1,1,0,0,VALID,0,0,0,0,0,1,0,0,0,0,0,0,0,0,0,0,0,0,0,0,0,3176.55,6,0,0.76,0.5,127,1.32,0.76,0.76,97.24,FLYING
97.96,APPROACH,FLY_TO_FIX,178.78,149,-29.78,395.19,-7.24,4.78,7.09,252.36,-0.002,0,0,-12.611,1,0.6,4.5,1.458,0.35,0.0168,0.4,252.33,4.728,0,1,-2.31,0.03,0,4.71,252.36,0.6481,-0.3023,0.699,4.72,252.33,0,0,35.517,0,0,0,0,0,268.82,0,0,0,0,0,0,0,0,0,0,0,0,0,1,1,0,0,VALID,0,0,0,0,0,1,0,0,0,0,0,0,0,0,0,0,0,0,0,0,0,3167.98,6,0,0.76,0.5,128,1.32,0.76,0.76,98,FLYING
98.72,APPROACH,FLY_TO_FIX,178.04,149,-29.04,389.49,-7.41,4.68,6.89,252.33,-0.026,0,0,-12.548,1,0.6,4.5,1.463,0.35,0.0168,0.4,252.31,4.756,0,1,-2.32,0.02,0,4.74,252.33,0.6478,-0.3027,0.6991,4.75,252.31,0,0,35.385,0,0,0,0,0,268.82,0,0,0,0,0,0,0,0,0,0,0,0,0,1,1,0,0,VALID,0,0,0,0,0,1,0,0,0,0,0,0,0,0,0,0,0,0,0,0,0,3159.01,6,0,0.76,0.5,129,1.32,0.76,0.76,98.76,FLYING
99.48,APPROACH,FLY_TO_FIX,177.37,149,-28.37,383.98,-7.53,4.75,7.21,252.31,-0.004,0,0,-12.485,1,0.6,4.5,1.467,0.35,0.0168,0.4,252.28,4.783,0,1,-2.42,0.03,0,4.77,252.31,0.6475,-0.3031,0.6992,4.78,252.28,0,0,35.252,0,0,0,0,0,268.82,0,0,0,0,0,0,0,0,0,0,0,0,0,1,1,0,0,VALID,0,0,0,0,0,1,0,0,0,0,0,0,0,0,0,0,0,0,0,0,0,3150.87,6,0,0.76,0.5,130,1.32,0.76,0.76,99.52,FLYING
100.24,APPROACH,FLY_TO_FIX,176.63,149,-27.63,378.29,-7.55,4.88,7.28,252.28,-0.001,0,0,-12.423,1,0.6,4.5,1.471,0.35,0.0168,0.4,252.25,4.812,0,1,-2.44,0.03,0,4.79,252.28,0.6472,-0.3036,0.6992,4.81,252.25,0,0,35.121,0,0,0,0,0,268.82,0,0,0,0,0,0,0,0,0,0,0,0,0,1,1,0,0,VALID,0,0,0,0,0,1,0,0,0,0,0,0,0,0,0,0,0,0,0,0,0,3141.88,6,0,0.76,0.5,131,1.32,0.76,0.76,100.28,FLYING
101,APPROACH,FLY_TO_FIX,175.9,149,-26.9,372.53,-7.6,4.9,7.31,252.25,0.014,0,0,-12.361,1,0.6,4.5,1.476,0.35,0.0168,0.4,252.23,4.84,0,1,-2.46,0.03,0,4.82,252.25,0.6469,-0.304,0.6993,4.84,252.23,0,0,34.989,0,0,0,0,0,268.82,0,0,0,0,0,0,0,0,0,0,0,0,0,1,1,0,0,VALID,0,0,0,0,0,1,0,0,0,0,0,0,0,0,0,0,0,0,0,0,0,3133.09,6,0,0.76,0.5,132,1.32,0.76,0.76,101.04,FLYING
101.76,APPROACH,FLY_TO_FIX,175.17,149,-26.17,366.72,-7.69,4.89,7.35,252.23,0.012,0,0,-12.299,1,0.6,4.5,1.48,0.35,0.0168,0.4,252.2,4.869,0,1,-2.49,0.04,0,4.85,252.23,0.6466,-0.3045,0.6994,4.87,252.2,0,0,34.859,0,0,0,0,0,268.82,0,0,0,0,0,0,0,0,0,0,0,0,0,1,1,0,0,VALID,0,0,0,0,0,1,0,0,0,0,0,0,0,0,0,0,0,0,0,0,0,3124.31,6,0,0.76,0.5,133,1.32,0.76,0.76,101.8,FLYING
102.52,APPROACH,FLY_TO_FIX,174.43,149,-25.43,360.81,-7.77,4.91,7.34,252.2,-0.011,0,0,-12.237,1,0.6,4.5,1.484,0.35,0.0168,0.4,252.17,4.899,0,1,-2.54,0.03,0,4.88,252.2,0.6463,-0.305,0.6995,4.9,252.17,0,0,34.729,0,0,0,0,0,268.82,0,0,0,0,0,0,0,0,0,0,0,0,0,1,1,0,0,VALID,0,0,0,0,0,1,0,0,0,0,0,0,0,0,0,0,0,0,0,0,0,3115.42,6,0,0.76,0.5,134,1.32,0.76,0.76,102.56,FLYING
103.28,APPROACH,FLY_TO_FIX,173.73,149,-24.73,354.88,-7.92,4.88,7.45,252.17,0,0,0,-12.176,1,0.6,4.5,1.488,0.35,0.0168,0.4,252.14,4.929,0,1,-2.59,0.03,0,4.91,252.17,0.6459,-0.3055,0.6996,4.93,252.14,0,0,34.599,0,0,0,0,0,268.82,0,0,0,0,0,0,0,0,0,0,0,0,0,1,1,0,0,VALID,0,0,0,0,0,1,0,0,0,0,0,0,0,0,0,0,0,0,0,0,0,3107.03,6,0,0.76,0.5,135,1.32,0.76,0.76,103.32,FLYING
104.04,APPROACH,FLY_TO_FIX,173.02,149,-24.02,348.84,-8.05,4.92,7.54,252.14,0.018,0,0,-12.115,1,0.6,4.5,1.492,0.35,0.0168,0.4,252.1,4.959,0,1,-2.64,0.03,0,4.94,252.14,0.6456,-0.306,0.6997,4.96,252.1,0,0,34.47,0,0,0,0,0,268.82,0,0,0,0,0,0,0,0,0,0,0,0,0,1,1,0,0,VALID,0,0,0,0,0,1,0,0,0,0,0,0,0,0,0,0,0,0,0,0,0,3098.51,6,0,0.76,0.5,136,1.32,0.76,0.76,104.08,FLYING
104.8,APPROACH,FLY_TO_FIX,172.31,149,-23.31,342.69,-8.17,4.95,7.61,252.11,-0.008,0,0,-12.055,1,0.6,4.5,1.495,0.35,0.0168,0.4,252.07,4.989,0,1,-2.69,0.04,0,4.97,252.1,0.6452,-0.3065,0.6998,4.99,252.07,0,0,34.342,0,0,0,0,0,268.82,0,0,0,0,0,0,0,0,0,0,0,0,0,1,1,0,0,VALID,0,0,0,0,0,1,0,0,0,0,0,0,0,0,0,0,0,0,0,0,0,3090.06,6,0,0.76,0.5,137,1.32,0.76,0.76,104.84,FLYING
105.56,APPROACH,FLY_TO_FIX,171.59,149,-22.59,336.45,-8.28,4.97,7.69,252.07,-0.007,0,0,-11.995,1,0.6,4.5,1.499,0.35,0.0168,0.4,252.04,5,0,1,-2.75,0.04,0,5,252.07,0.6451,-0.3071,0.6996,5,252.04,0,0,34.214,0,0,0,0,0,268.82,0,0,0,0,0,0,0,0,0,0,0,0,0,1,1,0,0,VALID,0,0,0,0,0,1,0,0,0,0,0,0,0,0,0,0,0,0,0,0,0,3081.57,6,0,0.76,0.5,138,1.32,0.76,0.76,105.6,FLYING
106.32,APPROACH,FLY_TO_FIX,170.88,149,-21.88,330.11,-8.4,5,7.75,252.04,-0.014,0,0,-11.935,1,0.6,4.5,1.502,0.35,0.0168,0.4,252,5,0,1,-2.8,0.04,0,5.01,252.04,0.6451,-0.3077,0.6994,5,252,0,0,34.087,0,0,0,0,0,268.82,0,0,0,0,0,0,0,0,0,0,0,0,0,1,1,0,0,VALID,0,0,0,0,0,1,0,0,0,0,0,0,0,0,0,0,0,0,0,0,0,3073.07,6,0,0.76,0.5,139,1.32,0.76,0.76,106.36,FLYING
107.08,APPROACH,FLY_TO_FIX,170.16,149,-21.16,323.68,-8.52,5,7.8,252.01,0.008,0,0,-11.875,1,0.6,4.5,1.505,0.35,0.0168,0.4,251.96,5,0,1,-2.84,0.04,0,5.01,252,0.6452,-0.3083,0.6991,5,251.96,0,0,33.96,0,0,0,0,0,268.82,0,0,0,0,0,0,0,0,0,0,0,0,0,1,1,0,0,VALID,0,0,0,0,0,1,0,0,0,0,0,0,0,0,0,0,0,0,0,0,0,3064.57,6,0,0.76,0.5,140,1.32,0.76,0.76,107.12,FLYING
107.84,APPROACH,FLY_TO_FIX,169.44,149,-20.44,317.16,-8.65,5.01,7.86,251.97,0.005,0,0,-11.816,1,0.6,4.5,1.508,0.35,0.0168,0.4,251.92,5,0,1,-2.9,0.05,0,5.01,251.96,0.6452,-0.309,0.6988,5,251.92,0,0,33.834,0,0,0,0,0,268.82,0,0,0,0,0,0,0,0,0,0,0,0,0,1,1,0,0,VALID,0,0,0,0,0,1,0,0,0,0,0,0,0,0,0,0,0,0,0,0,0,3056.17,6,0,0.76,0.5,141,1.32,0.76,0.76,107.88,FLYING
108.6,APPROACH,FLY_TO_FIX,168.72,149,-19.72,310.54,-8.79,5.03,7.94,251.94,-0.033,0,0,-11.756,1,0.6,4.5,1.511,0.35,0.0168,0.4,251.88,5,0,1,-2.96,0.06,0,5.01,251.92,0.6452,-0.3097,0.6985,5,251.88,0,0,33.709,0,0,0,0,0,268.82,0,0,0,0,0,0,0,0,0,0,0,0,0,1,1,0,0,VALID,0,0,0,0,0,1,0,0,0,0,0,0,0,0,0,0,0,0,0,0,0,3047.77,6,0,0.76,0.5,142,1.32,0.76,0.76,108.64,FLYING
109.36,APPROACH,FLY_TO_FIX,168.01,149,-19.01,303.79,-8.94,5.03,8,251.9,-0.001,0,0,-11.698,1,0.6,4.5,1.513,0.35,0.0168,0.4,251.84,5,0,1,-3.02,0.06,0,5.01,251.88,0.6451,-0.3104,0.6982,5,251.84,0,0,33.584,0,0,0,0,0,268.82,0,0,0,0,0,0,0,0,0,0,0,0,0,1,1,0,0,VALID,0,0,0,0,0,1,0,0,0,0,0,0,0,0,0,0,0,0,0,0,0,3039.44,6,0,0.76,0.5,143,1.32,0.76,0.76,109.4,FLYING
110.12,APPROACH,FLY_TO_FIX,167.3,149,-18.3,296.93,-9.09,5.02,8.06,251.85,0.012,0,0,-11.639,1,0.6,4.5,1.516,0.35,0.0168,0.4,251.8,5,0,1,-3.08,0.05,0,5.01,251.84,0.6451,-0.3111,0.6979,5,251.8,0,0,33.459,0,0,0,0,0,268.82,0,0,0,0,0,0,0,0,0,0,0,0,0,1,1,0,0,VALID,0,0,0,0,0,1,0,0,0,0,0,0,0,0,0,0,0,0,0,0,0,3031.27,6,0,0.76,0.5,144,1.32,0.76,0.76,110.16,FLYING
110.88,APPROACH,FLY_TO_FIX,166.6,149,-17.6,289.96,-9.24,5.02,8.12,251.8,-0.001,0,0,-11.581,1,0.6,4.5,1.518,0.35,0.0168,0.4,251.75,5,0,1,-3.15,0.06,0,5.01,251.8,0.6451,-0.3119,0.6975,5,251.75,0,0,33.336,0,0,0,0,0,268.82,0,0,0,0,0,0,0,0,0,0,0,0,0,1,1,0,0,VALID,0,0,0,0,0,1,0,0,0,0,0,0,0,0,0,0,0,0,0,0,0,3023.12,6,0,0.76,0.5,145,1.32,0.76,0.76,110.92,FLYING
111.64,APPROACH,FLY_TO_FIX,165.9,149,-16.9,282.85,-9.44,5.02,8.2,251.76,0.02,0,0,-11.523,1,0.6,4.5,1.519,0.35,0.0168,0.4,251.7,5,0,1,-3.22,0.06,0,5.01,251.75,0.645,-0.3127,0.6972,5,251.7,0,0,33.212,0,0,0,0,0,268.82,0,0,0,0,0,0,0,0,0,0,0,0,0,1,1,0,0,VALID,0,0,0,0,0,1,0,0,0,0,0,0,0,0,0,0,0,0,0,0,0,3015.17,6,0,0.76,0.5,146,1.32,0.76,0.76,111.68,FLYING
112.4,APPROACH,FLY_TO_FIX,165.21,149,-16.21,275.61,-9.61,5.01,8.28,251.71,-0.008,0,0,-11.465,1,0.6,4.5,1.521,0.35,0.0168,0.4,251.65,5,0,1,-3.3,0.07,0,5.01,251.7,0.645,-0.3136,0.6969,5,251.65,0,0,33.09,0,0,0,0,0,268.82,0,0,0,0,0,0,0,0,0,0,0,0,0,1,1,0,0,VALID,0,0,0,0,0,1,0,0,0,0,0,0,0,0,0,0,0,0,0,0,0,3007.25,6,0,0.76,0.5,147,1.32,0.76,0.76,112.44,FLYING
113.16,APPROACH,FLY_TO_FIX,164.51,149,-15.51,268.23,-9.77,5.01,8.33,251.66,-0.017,0,0,-11.408,1,0.6,4.5,1.522,0.35,0.0168,0.4,251.59,5,0,1,-3.37,0.07,0,5.01,251.65,0.6449,-0.3145,0.6965,5,251.59,0,0,32.967,0,0,0,0,0,268.82,0,0,0,0,0,0,0,0,0,0,0,0,0,1,1,0,0,VALID,0,0,0,0,0,1,0,0,0,0,0,0,0,0,0,0,0,0,0,0,0,2999.28,6,0,0.76,0.5,148,1.32,0.76,0.76,113.2,FLYING
113.92,APPROACH,FLY_TO_FIX,163.81,149,-14.81,260.73,-9.93,5,8.38,251.61,-0.032,0,0,-11.351,1,0.6,4.5,1.523,0.35,0.0168,0.4,251.53,5,0,1,-3.43,0.07,0,5.01,251.59,0.6448,-0.3155,0.6962,5,251.53,0,0,32.846,0,0,0,0,0,268.82,0,0,0,0,0,0,0,0,0,0,0,0,0,1,1,0,0,VALID,0,0,0,0,0,1,0,0,0,0,0,0,0,0,0,0,0,0,0,0,0,2991.36,6,0,0.76,0.5,149,1.32,0.76,0.76,113.96,FLYING
114.68,APPROACH,FLY_TO_FIX,163.13,149,-14.13,253.08,-10.17,4.98,8.48,251.55,-0.018,0,0,-11.294,1,0.6,4.5,1.524,0.35,0.0168,0.4,251.47,5,0,1,-3.53,0.08,0,5.01,251.53,0.6447,-0.3166,0.6958,5,251.47,0,0,32.725,0,0,0,0,0,268.82,0,0,0,0,0,0,0,0,0,0,0,0,0,1,1,0,0,VALID,0,0,0,0,0,1,0,0,0,0,0,0,0,0,0,0,0,0,0,0,0,2983.82,6,0,0.76,0.5,150,1.32,0.76,0.76,114.72,FLYING
115.44,APPROACH,FLY_TO_FIX,162.45,149,-13.45,245.29,-10.35,4.99,8.56,251.49,-0.03,0,0,-11.238,1,0.6,4.5,1.524,0.35,0.0168,0.4,251.4,5,0,1,-3.61,0.09,0,5.01,251.47,0.6446,-0.3177,0.6954,5,251.4,0,0,32.604,0,0,0,0,0,268.82,0,0,0,0,0,0,0,0,0,0,0,0,0,1,1,0,0,VALID,0,0,0,0,0,1,0,0,0,0,0,0,0,0,0,0,0,0,0,0,0,2976.22,6,0,0.76,0.5,151,1.32,0.76,0.76,115.48,FLYING
116.2,APPROACH,FLY_TO_FIX,161.77,149,-12.77,237.34,-10.56,4.99,8.65,251.42,-0.022,0,0,-11.182,1,0.6,4.5,1.524,0.35,0.0168,0.4,251.33,5,0,1,-3.7,0.09,0,5.01,251.4,0.6444,-0.3189,0.695,5,251.33,0,0,32.484,0,0,0,0,0,268.82,0,0,0,0,0,0,0,0,0,0,0,0,0,1,1,0,0,VALID,0,0,0,0,0,1,0,0,0,0,0,0,0,0,0,0,0,0,0,0,0,2968.74,6,0,0.76,0.5,152,1.32,0.76,0.76,116.24,FLYING
116.96,APPROACH,FLY_TO_FIX,161.09,149,-12.09,229.25,-10.74,5,8.74,251.35,0.022,0,0,-11.126,1,0.6,4.5,1.524,0.35,0.0168,0.4,251.25,5,0,1,-3.78,0.1,0,5.01,251.33,0.6443,-0.3202,0.6946,5,251.25,0,0,32.365,0,0,0,0,0,268.82,0,0,0,0,0,0,0,0,0,0,0,0,0,1,1,0,0,VALID,0,0,0,0,0,1,0,0,0,0,0,0,0,0,0,0,0,0,0,0,0,2961.23,6,0,0.76,0.5,153,1.32,0.76,0.76,117,FLYING
117.72,APPROACH,FLY_TO_FIX,160.42,149,-11.42,221.01,-10.94,5.01,8.83,251.28,-0.004,0,0,-11.07,1,0.6,4.5,1.523,0.35,0.0168,0.4,251.16,5,0,1,-3.86,0.11,0,5.01,251.25,0.6441,-0.3216,0.6941,5,251.16,0,0,32.246,0,0,0,0,0,268.82,0,0,0,0,0,0,0,0,0,0,0,0,0,1,1,0,0,VALID,0,0,0,0,0,1,0,0,0,0,0,0,0,0,0,0,0,0,0,0,0,2953.86,6,0,0.76,0.5,154,1.32,0.76,0.76,117.76,FLYING
118.48,APPROACH,FLY_TO_FIX,159.73,149,-10.73,212.64,-11.1,5.01,8.91,251.19,-0.011,0,0,-11.015,1,0.6,4.5,1.523,0.35,0.0168,0.4,251.07,5,0,1,-3.94,0.12,0,5.01,251.16,0.6438,-0.3231,0.6936,5,251.07,0,0,32.128,0,0,0,0,0,268.82,0,0,0,0,0,0,0,0,0,0,0,0,0,1,1,0,0,VALID,0,0,0,0,0,1,0,0,0,0,0,0,0,0,0,0,0,0,0,0,0,2946.45,6,0,0.76,0.5,155,1.32,0.76,0.76,118.52,FLYING
119.24,APPROACH,FLY_TO_FIX,159.06,149,-10.06,204.15,-11.28,5.01,9.02,251.11,0,0,0,-10.96,1,0.6,4.5,1.522,0.35,0.0168,0.4,250.97,5,0,1,-4.02,0.13,0,5.01,251.07,0.6435,-0.3248,0.6931,5,250.97,0,0,32.01,0,0,0,0,0,268.82,0,0,0,0,0,0,0,0,0,0,0,0,0,1,1,0,0,VALID,0,0,0,0,0,1,0,0,0,0,0,0,0,0,0,0,0,0,0,0,0,2939.18,6,0,0.76,0.5,156,1.32,0.76,0.76,119.28,FLYING
120,APPROACH,FLY_TO_FIX,158.38,149,-9.38,195.49,-11.47,5.04,9.1,251.01,-0.024,0,0,-10.905,1,0.6,4.5,1.521,0.35,0.0168,0.4,250.86,5,0,1,-4.11,0.15,0,5.01,250.97,0.6432,-0.3266,0.6925,5,250.86,0,0,31.893,0,0,0,0,0,268.82,0,0,0,0,0,0,0,0,0,0,0,0,0,1,1,0,0,VALID,0,0,0,0,0,1,0,0,0,0,0,0,0,0,0,0,0,0,0,0,0,2931.94,6,0,0.76,0.5,157,1.32,0.76,0.76,120.04,FLYING
