t_s,phase,subphase,ias_ms,vapp_ms,spd_err_ms,agl_m,vs_ms,pitch_deg,aoa_deg,hdg_deg,bank_deg,thr_cmd,thr_intg,aa_hdg_cmd_deg,aa_fpa_cmd_deg,ils_loc_m,ils_gs_m,ils_dist_km,loc_corr_deg,gs_corr_deg,flare_fpa_cmd,flare_tgt_vs,flare_frac,steer_hdg_deg,steer_blend,ro_loc_corr_deg,ro_hdg_err_deg,ro_yaw_tgt,ro_yaw_scale,ro_yaw_gate,yaw_cmd,roll_cmd,pitch_cmd,ro_pitch_tgt_deg,ro_pitch_err_deg,ro_pitch_ff,ro_roll_assist,flaps_cur,flaps_tgt,phase_el_s,status
111.45,FLARE,ILS_TRACK,76.13,76,-0.13,31.41,-4.17,3.53,6.54,270.4,0.011,0.1454,12.762,270.38,-3.064,0.51,0.25,0.401,-0.02,-0.064,-3.137,0,0,270.4,0,0,0,0,0,0,0,0,0,0,0,0,0,1,1,0.06,FLYING
111.61,FLARE,ILS_TRACK,76.1,76,-0.1,30.31,-4.17,3.54,6.55,270.4,0.012,0,12.762,270.4,-2.642,0.51,0.25,0.401,-0.02,-0.064,-2.642,-2.5,0.028,270.4,0,0,0,0,0,0,0,0,0,0,0,0,0,1,1,0.22,FLYING
111.77,FLARE,ILS_TRACK,76.06,76,-0.06,25.5,-4.16,3.63,6.63,270.4,0.01,0,12.762,270.4,-2.282,0.51,0.25,0.401,-0.02,-0.064,-2.282,-2.5,0.152,270.4,0,0,0,0,0,0,0,0,0,0,0,0,0,1,1,0.38,FLYING
111.93,FLARE,ILS_TRACK,76.02,76,-0.02,23.82,-4.13,3.8,6.78,270.4,0.008,0,12.762,270.4,-1.922,0.51,0.25,0.401,-0.02,-0.064,-1.922,-2.5,0.226,270.4,0,0,0,0,0,0,0,0,0,0,0,0,0,1,1,0.54,FLYING
112.11,FLARE,ILS_TRACK,75.95,76,0.05,21.94,-4.03,3.96,6.89,270.4,0.008,0,12.762,270.4,-1.885,0.51,0.25,0.401,-0.02,-0.064,-1.885,-2.5,0.286,270.4,0,0,0,0,0,0,0,0,0,0,0,0,0,1,1,0.72,FLYING
112.27,FLARE,ILS_TRACK,75.88,76,0.12,20.27,-3.94,4.04,6.9,270.4,0.006,0,12.762,270.4,-1.886,0.51,0.25,0.401,-0.02,-0.064,-1.886,-2.5,0.338,270.4,0,0,0,0,0,0,0,0,0,0,0,0,0,1,1,0.88,FLYING
112.43,FLARE,ILS_TRACK,75.8,76,0.2,18.63,-3.86,4.11,6.9,270.4,0.006,0,12.762,270.4,-1.888,0.51,0.25,0.401,-0.02,-0.064,-1.888,-2.5,0.391,270.4,0,0,0,0,0,0,0,0,0,0,0,0,0,1,1,1.04,FLYING
112.59,FLARE,ILS_TRACK,75.71,76,0.29,17.62,-3.78,4.16,6.91,270.4,0.006,0,12.762,270.4,-1.826,0.51,0.25,0.401,-0.02,-0.064,-1.826,-2.414,0.435,270.4,0,0,0,0,0,0,0,0,0,0,0,0,0,1,1,1.2,FLYING
112.75,FLARE,ILS_TRACK,75.62,76,0.38,17.05,-3.7,4.24,6.92,270.4,0.005,0,12.762,270.4,-1.77,0.51,0.25,0.401,-0.02,-0.064,-1.77,-2.338,0.453,270.4,0,0,0,0,0,0,0,0,0,0,0,0,0,1,1,1.36,FLYING
112.91,FLARE,ILS_TRACK,75.51,76,0.49,16.49,-3.62,4.31,6.94,270.4,0.004,0,12.762,270.4,-1.716,0.51,0.25,0.401,-0.02,-0.064,-1.716,-2.263,0.471,270.4,0,0,0,0,0,0,0,0,0,0,0,0,0,1,1,1.52,FLYING
113.07,FLARE,ILS_TRACK,75.4,76,0.6,15.95,-3.54,4.39,6.96,270.4,0.003,0,12.762,270.4,-1.663,0.51,0.25,0.401,-0.02,-0.064,-1.663,-2.19,0.489,270.4,0,0,0,0,0,0,0,0,0,0,0,0,0,1,1,1.68,FLYING
113.25,FLARE,ILS_TRACK,75.27,76,0.73,15.35,-3.45,4.47,6.99,270.4,0.004,0,12.762,270.4,-1.605,0.51,0.25,0.401,-0.02,-0.064,-1.605,-2.11,0.508,270.4,0,0,0,0,0,0,0,0,0,0,0,0,0,1,1,1.86,FLYING
113.41,FLARE,ILS_TRACK,75.15,76,0.85,14.84,-3.37,4.55,7.01,270.4,0.003,0,12.762,270.4,-1.555,0.51,0.25,0.401,-0.02,-0.064,-1.555,-2.041,0.524,270.4,0,0,0,0,0,0,0,0,0,0,0,0,0,1,1,2.02,FLYING
113.57,FLARE,ILS_TRACK,75.02,76,0.98,14.33,-3.29,4.62,7.03,270.4,0.003,0,12.762,270.4,-1.506,0.51,0.25,0.401,-0.02,-0.064,-1.506,-1.973,0.54,270.4,0,0,0,0,0,0,0,0,0,0,0,0,0,1,1,2.18,FLYING
113.73,FLARE,ILS_TRACK,74.88,76,1.12,13.84,-3.21,4.7,7.05,270.4,0.003,0,12.762,270.4,-1.458,0.51,0.25,0.401,-0.02,-0.064,-1.458,-1.907,0.556,270.4,0,0,0,0,0,0,0,0,0,0,0,0,0,1,1,2.34,FLYING
113.89,FLARE,ILS_TRACK,74.75,76,1.25,13.36,-3.13,4.78,7.08,270.4,0.004,0,12.762,270.4,-1.411,0.51,0.25,0.401,-0.02,-0.064,-1.411,-1.843,0.571,270.4,0,0,0,0,0,0,0,0,0,0,0,0,0,1,1,2.5,FLYING
114.05,FLARE,ILS_TRACK,74.6,76,1.4,12.89,-3.05,4.85,7.1,270.4,0.004,0,12.762,270.4,-1.366,0.51,0.25,0.401,-0.02,-0.064,-1.366,-1.78,0.586,270.4,0,0,0,0,0,0,0,0,0,0,0,0,0,1,1,2.66,FLYING
114.21,FLARE,ILS_TRACK,74.45,76,1.55,12.44,-2.97,4.93,7.12,270.4,0.004,0,12.762,270.4,-1.321,0.51,0.25,0.401,-0.02,-0.064,-1.321,-1.719,0.601,270.4,0,0,0,0,0,0,0,0,0,0,0,0,0,1,1,2.82,FLYING
114.39,FLARE,ILS_TRACK,74.28,76,1.72,11.94,-2.89,5.01,7.15,270.4,0.005,0,12.762,270.4,-1.273,0.51,0.25,0.401,-0.02,-0.064,-1.273,-1.652,0.617,270.4,0,0,0,0,0,0,0,0,0,0,0,0,0,1,1,3,FLYING
114.55,FLARE,ILS_TRACK,74.12,76,1.88,11.51,-2.81,5.08,7.17,270.41,0.005,0,12.762,270.4,-1.231,0.51,0.25,0.401,-0.02,-0.064,-1.231,-1.594,0.63,270.4,0,0,0,0,0,0,0,0,0,0,0,0,0,1,1,3.16,FLYING
114.71,FLARE,ILS_TRACK,73.96,76,2.04,11.09,-2.74,5.16,7.19,270.41,0.006,0,12.762,270.4,-1.19,0.51,0.25,0.401,-0.02,-0.064,-1.19,-1.538,0.644,270.4,0,0,0,0,0,0,0,0,0,0,0,0,0,1,1,3.32,FLYING
114.87,FLARE,ILS_TRACK,73.8,76,2.2,10.69,-2.67,5.23,7.22,270.41,0.006,0,12.762,270.4,-1.15,0.51,0.25,0.401,-0.02,-0.064,-1.15,-1.483,0.657,270.4,0,0,0,0,0,0,0,0,0,0,0,0,0,1,1,3.48,FLYING
115.03,FLARE,ILS_TRACK,73.63,76,2.37,10.29,-2.6,5.31,7.24,270.41,0.006,0,12.762,270.4,-1.111,0.51,0.25,0.401,-0.02,-0.064,-1.111,-1.43,0.67,270.4,0,0,0,0,0,0,0,0,0,0,0,0,0,1,1,3.64,FLYING
115.19,FLARE,ILS_TRACK,73.46,76,2.54,9.91,-2.53,5.38,7.27,270.41,0.008,0,12.762,270.4,-1.074,0.51,0.25,0.401,-0.02,-0.064,-1.074,-1.378,0.682,270.4,0,0,0,0,0,0,0,0,0,0,0,0,0,1,1,3.8,FLYING
115.35,FLARE,ILS_TRACK,73.29,76,2.71,9.53,-2.46,5.46,7.3,270.41,0.01,0,12.762,270.4,-1.037,0.51,0.25,0.401,-0.02,-0.064,-1.037,-1.328,0.694,270.4,0,0,0,0,0,0,0,0,0,0,0,0,0,1,1,3.96,FLYING
115.53,FLARE,ILS_TRACK,73.09,76,2.91,9.12,-2.38,5.54,7.33,270.41,0.012,0,12.762,270.4,-0.997,0.51,0.25,0.401,-0.02,-0.064,-0.997,-1.273,0.707,270.4,0,0,0,0,0,0,0,0,0,0,0,0,0,1,1,4.14,FLYING
115.69,FLARE,ILS_TRACK,72.91,76,3.09,8.77,-2.32,5.61,7.36,270.41,0.013,0,12.762,270.4,-0.962,0.51,0.25,0.401,-0.02,-0.064,-0.962,-1.226,0.718,270.4,0,0,0,0,0,0,0,0,0,0,0,0,0,1,1,4.3,FLYING
115.85,FLARE,ILS_TRACK,72.73,76,3.27,8.43,-2.25,5.69,7.39,270.41,0.013,0,12.762,270.4,-0.928,0.51,0.25,0.401,-0.02,-0.064,-0.928,-1.18,0.729,270.4,0,0,0,0,0,0,0,0,0,0,0,0,0,1,1,4.46,FLYING
116.01,FLARE,ILS_TRACK,72.55,76,3.45,8.1,-2.19,5.76,7.42,270.41,0.013,0,12.762,270.4,-0.895,0.51,0.25,0.401,-0.02,-0.064,-0.895,-1.135,0.74,270.4,0,0,0,0,0,0,0,0,0,0,0,0,0,1,1,4.62,FLYING
116.17,FLARE,ILS_TRACK,72.36,76,3.64,7.78,-2.13,5.84,7.45,270.41,0.014,0,12.762,270.4,-0.864,0.51,0.25,0.401,-0.02,-0.064,-0.864,-1.092,0.75,270.4,0,0,0,0,0,0,0,0,0,0,0,0,0,1,1,4.78,FLYING
116.33,FLARE,ILS_TRACK,72.18,76,3.82,7.47,-2.06,5.91,7.48,270.41,0.014,0,12.762,270.4,-0.832,0.51,0.25,0.401,-0.02,-0.064,-0.832,-1.05,0.76,270.4,0,0,0,0,0,0,0,0,0,0,0,0,0,1,1,4.94,FLYING
116.49,FLARE,ILS_TRACK,71.99,76,4.01,7.17,-2,5.98,7.52,270.41,0.015,0,12.762,270.4,-0.803,0.51,0.25,0.401,-0.02,-0.064,-0.803,-1.01,0.769,270.4,0,0,0,0,0,0,0,0,0,0,0,0,0,1,1,5.1,FLYING
116.67,FLARE,ILS_TRACK,71.77,76,4.23,6.84,-1.94,6.06,7.55,270.41,0.015,0,12.762,270.4,-0.77,0.51,0.25,0.401,-0.02,-0.064,-0.77,-0.966,0.78,270.4,0,0,0,0,0,0,0,0,0,0,0,0,0,1,1,5.28,FLYING
116.83,FLARE,ILS_TRACK,71.58,76,4.42,6.56,-1.88,6.14,7.58,270.41,0.016,0,12.762,270.4,-0.742,0.51,0.25,0.401,-0.02,-0.064,-0.742,-0.928,0.789,270.4,0,0,0,0,0,0,0,0,0,0,0,0,0,1,1,5.44,FLYING
116.99,FLARE,ILS_TRACK,71.38,76,4.62,6.28,-1.83,6.21,7.61,270.41,0.017,0,12.762,270.4,-0.714,0.51,0.25,0.401,-0.02,-0.064,-0.714,-0.891,0.798,270.4,0,0,0,0,0,0,0,0,0,0,0,0,0,1,1,5.6,FLYING
117.15,FLARE,ILS_TRACK,71.18,76,4.82,6.01,-1.77,6.28,7.65,270.41,0.018,0,12.762,270.4,-0.688,0.51,0.25,0.401,-0.02,-0.064,-0.688,-0.855,0.806,270.4,0,0,0,0,0,0,0,0,0,0,0,0,0,1,1,5.76,FLYING
117.31,FLARE,ILS_TRACK,70.99,76,5.01,5.76,-1.72,6.35,7.68,270.41,0.019,0,12.762,270.4,-0.662,0.51,0.25,0.401,-0.02,-0.064,-0.662,-0.821,0.815,270.4,0,0,0,0,0,0,0,0,0,0,0,0,0,1,1,5.92,FLYING
117.47,FLARE,ILS_TRACK,70.78,76,5.22,5.51,-1.67,6.42,7.72,270.41,0.021,0,12.762,270.4,-0.636,0.51,0.25,0.401,-0.02,-0.064,-0.636,-0.787,0.823,270.4,0,0,0,0,0,0,0,0,0,0,0,0,0,1,1,6.08,FLYING
117.63,FLARE,ILS_TRACK,70.58,76,5.42,5.26,-1.62,6.5,7.75,270.41,0.022,0,12.762,270.4,-0.612,0.51,0.25,0.401,-0.02,-0.064,-0.612,-0.755,0.831,270.4,0,0,0,0,0,0,0,0,0,0,0,0,0,1,1,6.24,FLYING
117.81,FLARE,ILS_TRACK,70.35,76,5.65,5,-1.56,6.58,7.79,270.41,0.024,0,12.762,270.4,-0.585,0.51,0.25,0.401,-0.02,-0.064,-0.585,-0.719,0.839,270.4,0,0,0,0,0,0,0,0,0,0,0,0,0,1,1,6.42,FLYING
117.97,FLARE,ILS_TRACK,70.15,76,5.85,4.77,-1.51,6.66,7.84,270.41,0.024,0,12.762,270.4,-0.547,0.51,0.25,0.401,-0.02,-0.064,-0.547,-0.671,0.846,270.4,0,0,0,0,0,0,0,0,0,0,0,0,0,1,1,6.58,FLYING
118.13,FLARE,ILS_TRACK,69.94,76,6.06,4.55,-1.47,6.73,7.88,270.41,0.026,0,12.762,270.4,-0.503,0.51,0.25,0.401,-0.02,-0.064,-0.503,-0.615,0.853,270.4,0,0,0,0,0,0,0,0,0,0,0,0,0,1,1,6.74,FLYING
118.29,FLARE,ILS_TRACK,69.74,76,6.26,4.34,-1.42,6.81,7.92,270.41,0.028,0,12.762,270.4,-0.463,0.51,0.25,0.401,-0.02,-0.064,-0.463,-0.564,0.86,270.4,0,0,0,0,0,0,0,0,0,0,0,0,0,1,1,6.9,FLYING
118.45,FLARE,ILS_TRACK,69.53,76,6.47,4.14,-1.37,6.89,7.96,270.41,0.028,0,12.762,270.4,-0.425,0.51,0.25,0.401,-0.02,-0.064,-0.425,-0.517,0.867,270.4,0,0,0,0,0,0,0,0,0,0,0,0,0,1,1,7.06,FLYING
118.61,FLARE,ILS_TRACK,69.32,76,6.68,3.94,-1.33,6.97,8.01,270.41,0.029,0,12.762,270.4,-0.391,0.51,0.25,0.401,-0.02,-0.064,-0.391,-0.474,0.873,270.4,0,0,0,0,0,0,0,0,0,0,0,0,0,1,1,7.22,FLYING
118.77,FLARE,ILS_TRACK,69.1,76,6.9,3.75,-1.28,7.05,8.05,270.41,0.029,0,12.762,270.4,-0.359,0.51,0.25,0.401,-0.02,-0.064,-0.359,-0.434,0.879,270.4,0,0,0,0,0,0,0,0,0,0,0,0,0,1,1,7.38,FLYING
118.97,FLARE,ILS_TRACK,68.84,76,7.16,3.53,-1.22,7.14,8.11,270.41,0.032,0,12.762,270.4,-0.323,0.51,0.25,0.401,-0.02,-0.064,-0.323,-0.389,0.886,270.4,0,0,0,0,0,0,0,0,0,0,0,0,0,1,1,7.58,FLYING
119.13,FLARE,ILS_TRACK,68.62,76,7.38,3.35,-1.17,7.22,8.15,270.41,0.033,0,12.762,270.4,-0.297,0.51,0.25,0.401,-0.02,-0.064,-0.297,-0.356,0.892,270.4,0,0,0,0,0,0,0,0,0,0,0,0,0,1,1,7.74,FLYING
119.29,FLARE,ILS_TRACK,68.41,76,7.59,3.19,-1.13,7.3,8.2,270.42,0.034,0,12.762,270.4,-0.273,0.51,0.25,0.401,-0.02,-0.064,-0.273,-0.327,0.897,270.4,0,0,0,0,0,0,0,0,0,0,0,0,0,1,1,7.9,FLYING
119.45,FLARE,ILS_TRACK,68.19,76,7.81,3.03,-1.09,7.37,8.24,270.42,0.035,0,12.762,270.4,-0.251,0.51,0.25,0.401,-0.02,-0.064,-0.251,-0.3,0.902,270.4,0,0,0,0,0,0,0,0,0,0,0,0,0,1,1,8.06,FLYING
119.61,FLARE,ILS_TRACK,67.97,76,8.03,2.87,-1.04,7.45,8.28,270.42,0.036,0,12.762,270.4,-0.232,0.51,0.25,0.401,-0.02,-0.064,-0.232,-0.275,0.907,270.4,0,0,0,0,0,0,0,0,0,0,0,0,0,1,1,8.22,FLYING
119.77,FLARE,ILS_TRACK,67.75,76,8.25,2.73,-1,7.53,8.33,270.42,0.038,0,12.762,270.4,-0.213,0.51,0.25,0.401,-0.02,-0.064,-0.213,-0.253,0.912,270.4,0,0,0,0,0,0,0,0,0,0,0,0,0,1,1,8.38,FLYING
119.93,FLARE,ILS_TRACK,67.53,76,8.47,2.59,-0.96,7.6,8.38,270.42,0.039,0,12.762,270.4,-0.197,0.51,0.25,0.401,-0.02,-0.064,-0.197,-0.232,0.916,270.4,0,0,0,0,0,0,0,0,0,0,0,0,0,1,1,8.54,FLYING
120.13,FLARE,ILS_TRACK,67.25,76,8.75,2.42,-0.91,7.69,8.43,270.42,0.041,0,12.762,270.4,-0.178,0.51,0.25,0.401,-0.02,-0.064,-0.178,-0.21,0.922,270.4,0,0,0,0,0,0,0,0,0,0,0,0,0,1,1,8.74,FLYING
120.29,FLARE,ILS_TRACK,67.03,76,8.97,2.29,-0.86,7.75,8.47,270.42,0.042,0,12.762,270.4,-0.165,0.51,0.25,0.401,-0.02,-0.064,-0.165,-0.193,0.926,270.4,0,0,0,0,0,0,0,0,0,0,0,0,0,1,1,8.9,LANDED
120.47,TOUCHDOWN,ILS_TRACK,66.64,76,9.36,2.15,-0.08,6.17,6.55,270.42,0.045,0,12.762,270.4,-0.154,0.51,0.25,0.401,-0.02,-0.064,-0.154,-0.18,0.93,270.4,0,0,0,0,0,0,0,0,0,0,0,0,0,1,1,0.04,LANDED
120.63,TOUCHDOWN,ILS_TRACK,65.96,76,10.04,1.93,-0.37,3.05,3.75,270.42,0.049,0,12.762,270.4,-0.154,0.51,0.25,0.401,-0.02,-0.064,-0.154,-0.18,0.93,270.4,0,0,0,0,0,0,0,0,0.63,6.489,3.011,0.22,0,1,1,0.22,LANDED
120.77,TOUCHDOWN,ILS_TRACK,65.75,76,10.25,1.67,-0.67,-0.03,0.94,270.42,0.054,0,12.762,270.4,-0.154,0.51,0.25,0.401,-0.02,-0.064,-0.154,-0.18,0.93,270.4,0,0,0,0,0,0,0,0,0.65,6.489,6.091,0.22,0,1,1,0.36,LANDED
120.91,TOUCHDOWN,ILS_TRACK,65.61,76,10.39,1.55,-0.1,-1.27,-1.32,270.42,0.06,0,12.762,270.4,-0.154,0.51,0.25,0.401,-0.02,-0.064,-0.154,-0.18,0.93,270.4,0,0,0,0,0,0,0,0,0.65,6.489,7.868,0.22,0,1,1,0.5,LANDED
121.05,ROLLOUT,ILS_TRACK,65.4,76,10.6,1.62,0.09,-0.13,-0.26,270.42,0.058,0,12.762,270.4,-0.154,0.51,0.25,0.401,-0.02,-0.064,-0.154,-0.18,0.93,270.4,0,0,0,0,0,0,0,0,0.65,6.489,6.79,0.22,0,1,1,0.04,LANDED
121.31,ROLLOUT,ILS_TRACK,65.14,76,10.86,1.73,0.04,0.51,0.41,270.4,0.04,0,12.762,270.4,-0.154,0.51,0.25,0.401,-0.02,-0.064,-0.154,-0.18,0.93,270.4,0.595,-0.013,0.004,0,0.19,0,0,0,0.65,6.489,6.032,0.22,0,1,1,0.3,LANDED
121.55,ROLLOUT,ILS_TRACK,64.98,76,11.02,1.83,-0.01,1.57,1.44,270.39,0.035,0,12.762,270.4,-0.154,0.51,0.25,0.401,-0.02,-0.064,-0.154,-0.18,0.93,270.4,0.599,-0.013,-0.004,0,0.197,0,0,0,0.65,6.489,5.055,0.22,0,1,1,0.54,LANDED
121.79,ROLLOUT,ILS_TRACK,64.81,76,11.19,1.99,0.09,3.67,3.4,270.39,0.055,0,12.762,270.4,-0.154,0.51,0.25,0.401,-0.02,-0.064,-0.154,-0.18,0.93,270.4,0.602,-0.013,-0.012,0.0001,0.204,0,0.0001,0,0.65,6.489,3.025,0.22,0,1,1,0.78,LANDED
122.03,ROLLOUT,ILS_TRACK,64.63,76,11.37,2.21,0.11,6.57,6.21,270.38,0.066,0,12.762,270.4,-0.154,0.51,0.25,0.401,-0.02,-0.064,-0.154,-0.18,0.93,270.4,0.605,-0.013,-0.019,0.0001,0.21,0,0.0001,0,0.2496,6.489,0.185,0.22,0,1,1,1.02,LANDED
122.27,ROLLOUT,ILS_TRACK,64.36,76,11.64,2.41,0.11,9.2,8.95,270.37,0.061,0,12.762,270.4,-0.154,0.51,0.25,0.401,-0.02,-0.064,-0.154,-0.18,0.93,270.4,0.609,-0.013,-0.026,0.0001,0.219,0,0.0001,0,-0.1892,6.489,-2.557,0.22,0,1,1,1.26,LANDED
122.53,ROLLOUT,ILS_TRACK,63.93,76,12.07,2.46,0.27,8.91,8.84,270.37,0.065,0,12.762,270.4,-0.154,0.51,0.25,0.401,-0.02,-0.064,-0.154,-0.18,0.93,270.4,0.617,-0.013,-0.027,0,0,3,0,0,-0.4358,6.489,-2.724,0,0,1,1,1.52,FLYING
122.69,FLARE,ILS_TRACK,63.66,76,12.34,2.37,0.21,6.84,6.96,270.38,0.054,0,12.762,270.4,-0.154,0.51,0.25,0.401,-0.02,-0.064,0.223,-0.18,0.93,270.4,0.617,-0.013,-0.027,0,0,3,0,0,-0.4358,6.489,-2.724,0,0,1,1,0.04,FLYING
122.87,FLARE,ILS_TRACK,63.4,76,12.6,2.19,-0.59,3.71,4.47,270.38,0.044,0,12.762,270.4,-0.045,0.51,0.25,0.401,-0.02,-0.064,-0.045,-0.05,0.064,270.4,0.617,-0.013,-0.027,0,0,0,0,0,-0.4358,0,0,0,0,1,1,0.22,FLYING
123.03,FLARE,ILS_TRACK,63.24,76,12.76,1.83,-1.46,0.36,2.15,270.38,0.034,0,12.762,270.4,-0.045,0.51,0.25,0.401,-0.02,-0.064,-0.045,-0.05,0.179,270.4,0.617,-0.013,-0.027,0,0,0,0,0,-0.4358,0,0,0,0,1,1,0.38,LANDED
123.19,FLARE,ILS_TRACK,63.12,76,12.88,1.52,0.1,-2.65,-2.69,270.38,0.032,0,12.762,270.4,-0.045,0.51,0.25,0.401,-0.02,-0.064,-0.045,-0.05,0.353,270.4,0.617,-0.013,-0.027,0,0,0,0,0,-0.4358,0,0,0,0,1,1,0.54,LANDED
123.37,TOUCHDOWN,ILS_TRACK,63.01,76,12.99,1.63,0.14,-1.22,-1.73,270.38,0.035,0,12.762,270.4,-0.045,0.51,0.25,0.401,-0.02,-0.064,-0.045,-0.05,0.362,270.4,0.617,-0.013,-0.027,0,0,0,0,0,-0.4358,0,0,0,0,1,1,0.04,LANDED
123.55,TOUCHDOWN,ILS_TRACK,62.86,76,13.14,1.67,-0.13,-0.32,-0.15,270.38,0.041,0,12.762,270.4,-0.045,0.51,0.25,0.401,-0.02,-0.064,-0.045,-0.05,0.362,270.4,0.617,-0.013,-0.027,0,0,0,0,0,0.65,5,5.286,0.22,0,1,1,0.24,LANDED
123.69,TOUCHDOWN,ILS_TRACK,62.78,76,13.22,1.66,-0.04,-0.53,-0.51,270.38,0.046,0,12.762,270.4,-0.045,0.51,0.25,0.401,-0.02,-0.064,-0.045,-0.05,0.362,270.4,0.617,-0.013,-0.027,0,0,0,0,0,0.65,5,5.54,0.22,0,1,1,0.38,LANDED
123.83,ROLLOUT,ILS_TRACK,62.7,76,13.3,1.68,-0.1,-0.09,-0.09,270.37,0.045,0,12.762,270.4,-0.045,0.51,0.25,0.401,-0.02,-0.064,-0.045,-0.05,0.362,270.4,0.617,-0.013,-0.027,0,0,0,0,0,0.65,5,5.163,0.22,0,1,1,0.04,LANDED
124.07,ROLLOUT,ILS_TRACK,62.56,76,13.44,1.7,-0.07,0.48,0.52,270.33,0.004,0,12.762,270.4,-0.045,0.51,0.25,0.401,-0.02,-0.064,-0.045,-0.05,0.362,270.38,0.647,-0.012,-0.045,0.0003,0.294,0,0.0003,0,0.65,5,4.546,0.22,0,1,1,0.28,LANDED
124.31,ROLLOUT,ILS_TRACK,62.41,76,13.59,1.73,0.18,0.83,0.7,270.31,-0.033,0,12.762,270.4,-0.045,0.51,0.25,0.401,-0.02,-0.064,-0.045,-0.05,0.362,270.39,0.65,-0.012,-0.07,0.0005,0.3,0,0.0005,0,0.65,5,4.206,0.22,0,1,1,0.52,LANDED
124.55,ROLLOUT,ILS_TRACK,62.24,76,13.76,1.83,0.07,1.67,1.49,270.31,0.005,0,12.762,270.4,-0.045,0.51,0.25,0.401,-0.02,-0.064,-0.045,-0.05,0.362,270.39,0.653,-0.011,-0.078,0.0006,0.306,0,0.0006,0,0.65,5,3.437,0.22,0,1,1,0.76,LANDED
124.83,ROLLOUT,ILS_TRACK,62.04,76,13.96,1.99,0.09,3.78,3.52,270.3,0.072,0,12.762,270.4,-0.045,0.51,0.25,0.401,-0.02,-0.064,-0.045,-0.05,0.362,270.39,0.657,-0.011,-0.084,0.0007,0.314,0,0.0007,0,0.4448,5,1.405,0.22,0,1,1,1.04,LANDED
125.07,ROLLOUT,ILS_TRACK,61.84,76,14.16,2.16,0.11,6.07,5.78,270.29,0.075,0,12.762,270.4,-0.045,0.51,0.25,0.401,-0.02,-0.064,-0.045,-0.05,0.362,270.39,0.661,-0.01,-0.094,0.0008,0.322,0,0.0008,0,0.0787,5,-0.883,0.22,0,1,1,1.28,LANDED
125.31,ROLLOUT,ILS_TRACK,61.6,76,14.4,2.28,0.05,7.42,7.34,270.29,0.062,0,12.762,270.4,-0.045,0.51,0.25,0.401,-0.02,-0.064,-0.045,-0.05,0.362,270.39,0.665,-0.009,-0.101,0.0008,0.33,0,0.0008,0,-0.1623,5,-2.389,0.22,0,1,1,1.52,LANDED
125.55,ROLLOUT,ILS_TRACK,61.32,76,14.68,2.21,-0.11,6.29,6.59,270.29,0.053,0,12.762,270.4,-0.045,0.51,0.25,0.401,-0.02,-0.064,-0.045,-0.05,0.362,270.39,0.67,-0.009,-0.101,0.0009,0.341,0,0.0009,0,-0.0209,5,-1.505,0.22,0,1,1,1.76,LANDED
125.79,ROLLOUT,ILS_TRACK,61.07,76,14.93,1.9,-0.38,2.3,2.64,270.29,0.052,0,12.762,270.4,-0.045,0.51,0.25,0.401,-0.02,-0.064,-0.045,-0.05,0.362,270.39,0.676,-0.008,-0.097,0.0009,0.352,0,0.0009,0,0.5844,5,2.278,0.22,0,1,1,2,LANDED
126.07,ROLLOUT,ILS_TRACK,60.88,76,15.12,1.61,0.01,-1.13,-1.13,270.4,0.119,0,12.762,270.4,-0.045,0.51,0.25,0.401,-0.02,-0.064,-0.045,-0.05,0.362,270.39,0.681,-0.008,-0.065,0.0006,0.361,0,0.0006,0,0.65,5,6.358,0.22,0,1,1,2.28,LANDED
126.31,ROLLOUT,ILS_TRACK,60.7,76,15.3,1.74,0.07,1.35,1.29,270.63,0.488,0,12.762,270.4,-0.045,0.51,0.25,0.401,-0.02,-0.064,-0.045,-0.05,0.362,270.39,0.684,-0.008,0.189,-0.0017,0.368,0,-0.0017,0,0.65,5,3.776,0.22,0,1,1,2.52,LANDED
126.55,ROLLOUT,ILS_TRACK,60.54,76,15.46,1.9,0.18,2.9,2.74,270.69,0.641,0,12.762,270.4,-0.045,0.51,0.25,0.401,-0.02,-0.064,-0.045,-0.05,0.362,270.39,0.687,-0.009,0.296,-0.0028,0.375,0,-0.0028,0,0.5795,5,2.247,0.22,0,1,1,2.76,LANDED
126.79,ROLLOUT,ILS_TRACK,60.37,76,15.63,2.07,0.13,4.94,4.83,270.69,0.353,0,12.762,270.4,-0.045,0.51,0.25,0.401,-0.02,-0.064,-0.045,-0.05,0.362,270.39,0.691,-0.01,0.303,-0.0029,0.381,0,-0.0029,0,0.258,5,0.238,0.22,0,1,1,3,LANDED
127.03,ROLLOUT,ILS_TRACK,60.17,76,15.83,2.22,0.1,6.83,6.74,270.69,-0.004,0,12.762,270.4,-0.045,0.51,0.25,0.401,-0.02,-0.064,-0.045,-0.05,0.362,270.39,0.694,-0.012,0.303,-0.0029,0.388,0,-0.0029,0,-0.0546,5,-1.716,0.22,0,1,1,3.24,LANDED
127.31,ROLLOUT,ILS_TRACK,59.87,76,16.13,2.24,-0.03,6.92,6.95,270.7,-0.121,0,12.762,270.4,-0.045,0.51,0.25,0.401,-0.02,-0.064,-0.045,-0.05,0.362,270.38,0.699,-0.014,0.315,-0.0031,0.399,0,-0.0031,0,-0.1045,5,-2.028,0.22,0,1,1,3.52,LANDED
127.55,ROLLOUT,ILS_TRACK,59.62,76,16.38,2.04,-0.24,4.17,4.39,270.71,-0.068,0,12.762,270.4,-0.045,0.51,0.25,0.401,-0.02,-0.064,-0.045,-0.05,0.362,270.38,0.705,-0.016,0.322,-0.0033,0.409,0,-0.0033,0,0.2995,5,0.497,0.22,0,1,1,3.76,LANDED
127.79,ROLLOUT,ILS_TRACK,59.36,76,16.64,1.63,-0.35,-0.93,-0.61,270.71,0.013,0,12.762,270.4,-0.045,0.51,0.25,0.401,-0.02,-0.064,-0.045,-0.05,0.362,270.38,0.709,-0.018,0.328,-0.0034,0.419,0,-0.0034,0,0.65,5,5.499,0.22,0,1,1,4,LANDED
128.03,ROLLOUT,ILS_TRACK,58.58,76,17.42,1.65,0.01,-0.52,-0.53,269.93,-0.435,0,12.762,270.4,-0.045,0.51,0.25,0.401,-0.02,-0.064,-0.045,-0.05,0.362,270.38,0.717,-0.019,-0.091,0.001,0.435,0,0.001,0,0.65,5,5.821,0.22,0,1,1,4.24,LANDED
128.27,ROLLOUT,ILS_TRACK,57.28,76,18.72,1.67,0.1,0.34,0.23,269.01,-1.341,0,12.762,270.4,-0.045,0.51,0.25,0.401,-0.02,-0.064,-0.045,-0.05,0.362,270.38,0.739,-0.018,-1.123,0.0134,0.478,0,0.0134,0,0.65,5,4.58,0.22,0,1,1,4.48,LANDED
128.55,ROLLOUT,ILS_TRACK,55.61,76,20.39,1.66,0.04,-0.58,-0.61,269.06,-1.507,0,12.762,270.4,-0.045,0.51,0.25,0.401,-0.02,-0.064,-0.045,-0.05,0.362,270.39,0.771,-0.013,-1.552,0.0211,0.543,0,0.0211,0,0.65,5,5.594,0.22,0,1,1,4.76,LANDED
128.79,ROLLOUT,ILS_TRACK,54.16,76,21.84,1.65,-0.07,-0.61,-0.55,270.25,1.072,0,12.762,270.4,-0.045,0.51,0.25,0.401,-0.02,-0.064,-0.045,-0.05,0.362,270.39,0.799,-0.005,-0.59,0.0088,0.597,0,0.0088,0,0.65,5,5.626,0.22,0,1,1,5,LANDED
129.03,ROLLOUT,ILS_TRACK,52.58,76,23.42,1.68,0.14,-0.04,-0.27,272.13,3.597,0,12.762,270.4,-0.045,0.51,0.25,0.401,-0.02,-0.064,-0.045,-0.05,0.362,270.4,0.831,-0.001,1.058,-0.0175,0.662,0,-0.0175,0,0.65,5,5.052,0.22,0,1,1,5.24,LANDED
129.27,ROLLOUT,ILS_TRACK,51.53,76,24.47,1.69,0.03,-0.14,-0.21,273.64,3.333,0,12.762,270.4,-0.045,0.51,0.25,0.401,-0.02,-0.064,-0.045,-0.05,0.362,270.39,0.859,-0.004,2.875,-0.0516,0.718,0,-0.0516,0,0.65,5,5.129,0.22,0,1,1,5.48,LANDED
129.51,ROLLOUT,ILS_TRACK,50.78,76,25.22,1.66,0.01,-0.63,-0.63,274.08,2.003,0,12.762,270.4,-0.045,0.51,0.25,0.401,-0.02,-0.064,-0.045,-0.05,0.362,270.38,0.875,-0.017,3.635,-0.0682,0.75,0,-0.0682,0,0.65,5,5.541,0.22,0,1,1,5.72,LANDED
129.79,ROLLOUT,ILS_TRACK,49.02,76,26.98,1.64,-0.04,-0.97,-0.92,273.44,-0.602,0,12.762,270.4,-0.045,0.51,0.25,0.401,-0.02,-0.064,-0.045,-0.05,0.362,270.36,0.9,-0.037,3.456,-0.0692,0.8,0,-0.0692,0,0.65,5,6.018,0.22,0,1,1,6,LANDED
130.03,ROLLOUT,ILS_TRACK,47.55,76,28.45,1.66,-0.03,-0.47,-0.51,271.28,-2.54,0,12.762,270.4,-0.045,0.51,0.25,0.401,-0.02,-0.064,-0.045,-0.05,0.362,270.35,0.933,-0.051,1.808,-0.0391,0.865,0,-0.0391,0,0.65,5,5.493,0.22,0,1,1,6.24,LANDED
130.27,ROLLOUT,ILS_TRACK,46.49,76,29.51,1.68,0.06,-0.21,-0.4,268.2,-3.629,0,12.762,270.4,-0.045,0.51,0.25,0.401,-0.02,-0.064,-0.045,-0.05,0.362,270.34,0.959,-0.059,-1.107,0.0254,0.918,0,0.0254,0,0.65,5,5.215,0.22,0,1,1,6.48,LANDED
130.51,ROLLOUT,ILS_TRACK,45.76,76,30.24,1.7,0.16,-0.54,-0.77,265.91,-3.13,0,12.762,270.4,-0.045,0.51,0.25,0.401,-0.02,-0.064,-0.045,-0.05,0.362,270.35,0.977,-0.055,-3.836,0.0915,0.954,0,0.0915,0,0.65,5,5.484,0.22,0,1,1,6.72,LANDED
130.75,ROLLOUT,ILS_TRACK,45.25,76,30.75,1.67,-0.09,-0.92,-0.76,265.06,-1.672,0,12.762,270.4,-0.045,0.51,0.25,0.401,-0.02,-0.064,-0.045,-0.05,0.362,270.36,0.989,-0.04,-5.16,0.1262,0.978,0,0.1262,0,0.65,5,5.9,0.22,0,1,1,6.96,LANDED
131.03,ROLLOUT,ILS_TRACK,43.83,76,32.17,1.62,0,-1.15,-1.16,265.15,0.226,0,12.762,270.4,-0.045,0.51,0.25,0.401,-0.02,-0.064,-0.045,-0.05,0.362,270.39,1,-0.015,-5.376,0.1344,1,0,0.1344,0,0.65,5,6.2,0.22,0,1,1,7.24,LANDED
131.27,ROLLOUT,ILS_TRACK,42.29,76,33.71,1.65,0.06,-0.77,-0.86,266.41,1.493,0,12.762,270.4,-0.045,0.51,0.25,0.401,-0.02,-0.064,-0.045,-0.05,0.362,270.41,1,0.006,-4.52,0.113,1,0,0.113,0,0.65,5,5.746,0.22,0,1,1,7.48,LANDED
131.51,ROLLOUT,ILS_TRACK,40.99,76,35.01,1.65,0,-0.75,-0.79,268.47,2.461,0,12.762,270.4,-0.045,0.51,0.25,0.401,-0.02,-0.064,-0.045,-0.05,0.362,270.42,1,0.022,-2.739,0.0685,1,0,0.0685,0,0.65,5,5.787,0.22,0,1,1,7.72,LANDED
131.75,ROLLOUT,ILS_TRACK,40.12,76,35.88,1.67,0.03,-0.41,-0.55,271.37,3.302,0,12.762,270.4,-0.045,0.51,0.25,0.401,-0.02,-0.064,-0.045,-0.05,0.362,270.43,1,0.032,-0.078,0.0019,1,0,0.0019,0,0.65,5,5.422,0.22,0,1,1,7.96,LANDED
131.99,ROLLOUT,ILS_TRACK,39.34,76,36.66,1.68,0.25,-0.57,-1,274.22,3.355,0,12.762,270.4,-0.045,0.51,0.25,0.401,-0.02,-0.064,-0.045,-0.05,0.362,270.43,1,0.033,2.893,-0.0723,1,0,-0.0723,0,0.65,5,5.542,0.22,0,1,1,8.2,LANDED
132.27,ROLLOUT,ILS_TRACK,38.5,76,37.5,1.66,-0.03,-1.28,-1.26,276.47,2.627,0,12.762,270.4,-0.045,0.51,0.25,0.401,-0.02,-0.064,-0.045,-0.05,0.362,270.42,1,0.021,5.56,-0.139,1,0,-0.139,0,0.65,5,6.252,0.22,0,1,1,8.48,LANDED
132.51,ROLLOUT,ILS_TRACK,37.77,76,38.23,1.67,-0.05,-0.98,-0.91,277.26,1.669,0,12.762,270.4,-0.045,0.51,0.25,0.401,-0.02,-0.064,-0.045,-0.05,0.362,270.4,1,0.003,6.717,-0.1679,1,0,-0.1679,0,0.65,5,6.007,0.22,0,1,1,8.72,LANDED
132.75,ROLLOUT,ILS_TRACK,36.66,76,39.34,1.61,-0.01,-1.36,-1.35,277.1,0.399,0,12.762,270.4,-0.045,0.51,0.25,0.401,-0.02,-0.064,-0.045,-0.05,0.362,270.38,1,-0.02,6.888,-0.1722,1,0,-0.1722,0,0.65,5,6.336,0.22,0,1,1,8.96,LANDED
132.99,ROLLOUT,ILS_TRACK,35.24,76,40.76,1.66,-0.02,-0.69,-0.69,275.35,-1.428,0,12.762,270.4,-0.045,0.51,0.25,0.401,-0.02,-0.064,-0.045,-0.05,0.362,270.36,1,-0.041,5.806,-0.1451,1,0,-0.1451,0,0.65,5,5.761,0.22,0,1,1,9.2,LANDED
133.23,ROLLOUT,ILS_TRACK,33.99,76,42.01,1.66,0,-0.52,-0.62,272.01,-2.993,0,12.762,270.4,-0.045,0.51,0.25,0.401,-0.02,-0.064,-0.045,-0.05,0.362,270.34,1,-0.059,2.928,-0.0732,1,0,-0.0732,0,0.65,5,5.532,0.22,0,1,1,9.44,LANDED
133.51,ROLLOUT,ILS_TRACK,32.96,76,43.04,1.69,0.36,-0.91,-1.68,267.02,-4.382,0,12.762,270.4,-0.045,0.51,0.25,0.401,-0.02,-0.064,-0.045,-0.05,0.362,270.33,1,-0.069,-1.931,0.0483,1,0,0.0483,0,0.65,5,5.801,0.22,0,1,1,9.72,LANDED
133.75,ROLLOUT,ILS_TRACK,32.34,76,43.66,1.66,0.1,-2.15,-2.5,263.79,-5.233,0,12.762,270.4,-0.045,0.51,0.25,0.401,-0.02,-0.064,-0.045,-0.05,0.362,270.34,1,-0.064,-5.617,0.1404,1,0,0.1404,0,0.65,5,7.086,0.22,0,1,1,9.96,LANDED
133.99,ROLLOUT,ILS_TRACK,31.61,76,44.39,1.66,0.06,-2.42,-2.7,261.55,-6.427,0,12.762,270.4,-0.045,0.51,0.25,0.401,-0.02,-0.064,-0.045,-0.05,0.362,270.35,1,-0.05,-8.153,0.2038,1,0,0.2038,0,0.65,5,7.397,0.22,0,1,1,10.2,LANDED
134.23,ROLLOUT,ILS_TRACK,30.92,76,45.08,1.65,0.04,-2.79,-2.95,260.41,-7.009,0,12.762,270.4,-0.045,0.51,0.25,0.401,-0.02,-0.064,-0.045,-0.05,0.362,270.37,1,-0.03,-9.74,0.2435,1,0,0.2435,0,0.65,5,7.761,0.22,0,1,1,10.44,LANDED
134.47,ROLLOUT,ILS_TRACK,30.11,76,45.89,1.64,-0.07,-2.93,-2.75,261.05,-6.369,0,12.762,270.4,-0.045,0.51,0.25,0.401,-0.02,-0.064,-0.045,-0.05,0.362,270.4,1,-0.005,-9.782,0.2445,1,0,0.2445,0,0.65,5,7.953,0.22,0,1,1,10.68,LANDED
134.75,ROLLOUT,ILS_TRACK,29.04,76,46.96,1.66,-0.55,-1.15,-0.05,264.31,-0.991,0,12.762,270.4,-0.045,0.51,0.25,0.401,-0.02,-0.064,-0.045,-0.05,0.362,270.42,1,0.024,-7.284,0.1821,1,0,0.1821,0,0.65,5,6.354,0.22,0,1,1,10.96,LANDED
134.99,ROLLOUT,ILS_TRACK,27.94,76,48.06,1.67,0.17,-0.37,-0.96,268.39,4.242,0,12.762,270.4,-0.045,0.51,0.25,0.401,-0.02,-0.064,-0.045,-0.05,0.362,270.44,1,0.044,-3.466,0.0866,1,0,0.0866,0,0.65,5,5.348,0.22,0,1,1,11.2,LANDED
135.23,ROLLOUT,ILS_TRACK,27.06,76,48.94,1.68,0.38,-1.93,-2.94,272.3,6.536,0,12.762,270.4,-0.045,0.51,0.25,0.401,-0.02,-0.064,-0.045,-0.05,0.362,270.46,1,0.055,0.654,-0.0164,1,0,-0.0164,0,0.65,5,6.742,0.22,0,1,1,11.44,LANDED
135.47,ROLLOUT,ILS_TRACK,26.46,76,49.54,1.63,0.18,-3.72,-4.43,275.1,8.978,0,12.762,270.4,-0.045,0.51,0.25,0.401,-0.02,-0.064,-0.045,-0.05,0.362,270.46,1,0.056,3.805,-0.0951,1,0,-0.0951,0,0.65,5,8.644,0.22,0,1,1,11.68,LANDED
135.71,ROLLOUT,ILS_TRACK,25.65,76,50.35,1.62,0.16,-4.56,-5.28,276.98,12.205,0,12.762,270.4,-0.045,0.51,0.25,0.401,-0.02,-0.064,-0.045,-0.05,0.362,270.45,1,0.05,6.039,-0.151,1,0,-0.151,0,0.65,5,9.471,0.22,0,1,1,11.92,LANDED
135.99,ROLLOUT,ILS_TRACK,24.58,76,51.42,1.57,0.08,-5.96,-6.5,277.24,14.893,0,12.762,270.4,-0.045,0.51,0.25,0.401,-0.02,-0.064,-0.045,-0.05,0.362,270.44,1,0.038,7.007,-0.1752,1,0,-0.1752,0,0.65,5,10.913,0.22,0,1,1,12.2,LANDED
136.23,ROLLOUT,ILS_TRACK,23.66,76,52.34,1.58,-0.05,-5.8,-5.75,275.04,14.669,0,12.762,270.4,-0.045,0.51,0.25,0.401,-0.02,-0.064,-0.045,-0.05,0.362,270.43,1,0.029,5.59,-0.1398,1,0,-0.1398,0,0.65,5,10.853,0.22,0,1,1,12.44,LANDED
136.47,ROLLOUT,ILS_TRACK,22.74,76,53.26,1.61,-0.28,-4.47,-3.65,270.92,10.766,0,12.762,270.4,-0.045,0.51,0.25,0.401,-0.02,-0.064,-0.045,-0.05,0.362,270.42,1,0.021,2.054,-0.0514,1,0,-0.0514,0,0.65,4.868,9.657,0.2124,0,1,1,12.68,LANDED
136.71,ROLLOUT,ILS_TRACK,21.82,76,54.18,1.65,-0.7,-1.74,-0.01,265.77,3.279,0,12.762,270.4,-0.045,0.51,0.25,0.401,-0.02,-0.064,-0.045,-0.05,0.362,270.42,1,0.017,-2.899,0.0725,1,0,0.0725,0,0.65,4.736,7.012,0.2027,0,1,1,12.92,LANDED
136.95,ROLLOUT,ILS_TRACK,20.79,76,55.21,1.7,0.55,-0.05,-1.96,260.74,-4.834,0,12.762,270.4,-0.045,0.51,0.25,0.401,-0.02,-0.064,-0.045,-0.05,0.362,270.42,1,0.015,-8.07,0.1957,0.97,0,0.1957,0,0.65,4.604,4.547,0.1931,0,1,1,13.16,LANDED
137.23,ROLLOUT,ILS_TRACK,19.88,76,56.12,1.82,0,-1.91,-2.3,256.54,-8.646,0,12.762,270.4,-0.045,0.51,0.25,0.401,-0.02,-0.064,-0.045,-0.05,0.362,270.43,1,0.028,-12.914,0.292,0.905,0,0.292,0,0.65,4.45,6.049,0.18,0,1,1,13.44,LANDED
137.47,ROLLOUT,ILS_TRACK,19.4,76,56.6,1.59,0.09,-5.46,-5.8,254.5,-12.037,0,12.762,270.4,-0.045,0.51,0.25,0.401,-0.02,-0.064,-0.045,-0.05,0.362,270.45,1,0.048,-15.473,0.34,0.879,0,0.34,0,0.65,4.318,9.233,0.1749,0,1,1,13.68,LANDED
137.71,ROLLOUT,ILS_TRACK,18.71,76,57.29,1.61,-0.07,-5.31,-5.7,256.01,-13.985,0,12.762,270.4,-0.045,0.51,0.25,0.401,-0.02,-0.064,-0.045,-0.05,0.362,270.47,1,0.07,-15.431,0.3275,0.849,0,0.3275,0,0.65,4.186,9.669,0.169,0,1,1,13.92,LANDED
137.95,ROLLOUT,ILS_TRACK,17.88,76,58.12,1.6,-0.04,-4.91,-4.65,260.13,-12.47,0,12.762,270.4,-0.045,0.51,0.25,0.401,-0.02,-0.064,-0.045,-0.05,0.362,270.49,1,0.09,-11.898,0.2408,0.809,0,0.2408,0,0.65,4.054,9.09,0.1611,0,1,1,14.16,LANDED
138.19,ROLLOUT,ILS_TRACK,16.98,76,59.02,1.64,-0.47,-3.09,-1.28,265.55,-7.298,0,12.762,270.4,-0.045,0.51,0.25,0.401,-0.02,-0.064,-0.045,-0.05,0.362,270.51,1,0.106,-6.874,0.1312,0.764,0,0.1312,0,0.65,3.922,7.407,0.152,0,1,1,14.4,LANDED
138.47,ROLLOUT,ILS_TRACK,15.88,76,60.12,1.68,-0.2,0.03,0.7,272.87,2.738,0,12.762,270.4,-0.045,0.51,0.25,0.401,-0.02,-0.064,-0.045,-0.05,0.362,270.52,1,0.121,0.243,-0.0043,0.708,0,-0.0043,0,0.65,3.768,3.982,0.1408,0,1,1,14.68,LANDED
138.71,ROLLOUT,ILS_TRACK,14.81,76,61.19,1.8,1.09,-1.01,-5.93,278.52,6.555,0,12.762,270.4,-0.045,0.51,0.25,0.401,-0.02,-0.064,-0.045,-0.05,0.362,270.53,1,0.127,6.281,-0.1025,0.652,0,-0.1025,0,0.65,3.636,4.341,0.1299,0,1,1,14.92,LANDED
138.95,ROLLOUT,ILS_TRACK,14.33,76,61.67,1.71,-0.12,-3.53,-3.27,282.75,10.821,0,12.762,270.4,-0.045,0.51,0.25,0.401,-0.02,-0.064,-0.045,-0.05,0.362,270.52,1,0.12,10.93,-0.1665,0.609,0,-0.1665,0,0.65,3.504,6.395,0.1213,0,1,1,15.16,LANDED
139.19,ROLLOUT,ILS_TRACK,13.76,76,62.24,1.58,0.2,-5.92,-7.8,285.05,14.39,0,12.762,270.4,-0.045,0.51,0.25,0.401,-0.02,-0.064,-0.045,-0.05,0.362,270.51,1,0.109,14.207,-0.208,0.586,0,-0.208,0,0.65,3.372,9.289,0.1166,0,1,1,15.4,LANDED
139.43,ROLLOUT,ILS_TRACK,13.01,76,62.99,1.57,0.07,-6.35,-7.28,284.18,17.2,0,12.762,270.4,-0.045,0.51,0.25,0.401,-0.02,-0.064,-0.045,-0.05,0.362,270.5,1,0.098,14.186,-0.1954,0.551,0,-0.1954,0,0.65,3.24,9.428,0.1096,0,1,1,15.64,LANDED
139.71,ROLLOUT,ILS_TRACK,11.98,76,64.02,1.55,0.01,-7.1,-7.81,280.8,18.47,0,12.762,270.4,-0.045,0.51,0.25,0.401,-0.02,-0.064,-0.045,-0.05,0.362,270.49,1,0.086,11.558,-0.1445,0.5,0,-0.1445,0,0.65,3.086,10.185,0.0995,0,1,1,15.92,LANDED
139.95,ROLLOUT,ILS_TRACK,11.08,76,64.92,1.56,-0.05,-6.64,-6.13,276.01,17.749,0,12.762,270.4,-0.045,0.51,0.25,0.401,-0.02,-0.064,-0.045,-0.05,0.362,270.48,1,0.078,7.259,-0.0822,0.453,0,-0.0822,0,0.65,2.954,9.689,0.0902,0,1,1,16.16,LANDED
140.19,ROLLOUT,ILS_TRACK,10.19,76,65.81,1.59,-0.12,-5.78,-4.11,270.57,15.07,0,12.762,270.4,-0.045,0.51,0.25,0.401,-0.02,-0.064,-0.045,-0.05,0.362,270.47,1,0.073,1.883,-0.0191,0.406,0,-0.0191,0,0.65,2.822,8.803,0.0808,0,1,1,16.4,LANDED
140.43,ROLLOUT,ILS_TRACK,9.31,76,66.69,1.62,-0.29,-4.24,-1.17,265.66,10.665,0,12.762,270.4,-0.045,0.51,0.25,0.401,-0.02,-0.064,-0.045,-0.05,0.362,270.47,1,0.07,-3.27,0.0293,0.359,0,0.0293,0,0.65,2.69,7.24,0.0714,0,1,1,16.64,LANDED
140.67,ROLLOUT,ILS_TRACK,8.43,76,67.57,1.66,-0.61,-1.86,2.7,261.75,3.87,0,12.762,270.4,-0.045,0.51,0.25,0.401,-0.02,-0.064,-0.045,-0.05,0.362,270.47,1,0.067,-7.532,0.0589,0.313,0,0.0589,0,0.65,2.558,4.869,0.0622,0,1,1,16.88,LANDED
140.95,ROLLOUT,ILS_TRACK,7.33,76,68.67,1.68,0.32,-0.15,-2.99,258.6,-4.145,0,12.762,270.4,-0.045,0.51,0.25,0.401,-0.02,-0.064,-0.045,-0.05,0.362,270.46,1,0.064,-11.116,0.072,0.259,0,0.072,0,0.4416,2.404,2.437,0.0516,0,1,1,17.16,LANDED
141.19,ROLLOUT,ILS_TRACK,6.45,76,69.55,1.66,0.32,-2.5,-5.55,257.13,-5.588,0,12.762,270.4,-0.045,0.51,0.25,0.401,-0.02,-0.064,-0.045,-0.05,0.362,270.47,1,0.066,-13,0.0664,0.204,0,0.0664,0,0.65,2.272,4.288,0.0406,0,1,1,17.4,LANDED
141.43,ROLLOUT,ILS_TRACK,5.72,76,70.28,1.64,-0.14,-3.13,-2.7,258.1,-5.809,0,12.762,270.4,-0.045,0.51,0.25,0.401,-0.02,-0.064,-0.045,-0.05,0.362,270.47,1,0.072,-13.094,0.0548,0.167,0,0.0548,0,0.65,2.14,5.44,0.0333,0,1,1,17.64,LANDED
141.67,ROLLOUT,ILS_TRACK,4.87,76,71.13,1.66,-0.28,-1.65,1.86,261.38,-3.659,0,12.762,270.4,-0.045,0.51,0.25,0.401,-0.02,-0.064,-0.045,-0.05,0.362,270.48,1,0.076,-10.272,0.032,0.125,0,0.032,0,0.6463,2.008,3.884,0.0248,0,1,1,17.88,LANDED
141.91,ROLLOUT,ILS_TRACK,4.03,76,71.97,1.66,-0.2,-0.86,2.24,264.98,-0.011,0,12.762,270.4,-0.045,0.51,0.25,0.401,-0.02,-0.064,-0.045,-0.05,0.362,270.48,1,0.08,-6.672,0.0133,0.08,0,0.0133,0,0.4569,1.876,2.756,0.0159,0,1,1,18.12,LANDED
142.19,ROLLOUT,ILS_TRACK,2.73,76,73.27,1.64,0.03,-1.09,-2.55,268.14,2.079,0,12.762,270.4,-0.045,0.51,0.25,0.401,-0.02,-0.064,-0.045,-0.05,0.362,270.49,1,0.086,-3.055,0.0017,0.022,0,0.0017,0,0.4561,1.722,2.823,0.0044,0,1,1,18.4,LANDED
142.45,DONE,ILS_TRACK,1.6,76,74.4,1.64,-0.01,-0.98,-0.44,269.49,1.69,0,12.762,270.4,-0.045,0.51,0.25,0.401,-0.02,-0.064,-0.045,-0.05,0.362,270.49,1,0.088,-1.319,0,0,0,0,0,0,1.59,2.584,0,0,1,1,0.06,LANDED
# end T+142.6  IAS 1.2 m/s
