t_s,phase,subphase,ias_ms,vapp_ms,spd_err_ms,agl_m,vs_ms,pitch_deg,aoa_deg,hdg_deg,bank_deg,thr_cmd,thr_cur,thr_intg,at_gain,at_tau_s,at_a_up,at_a_dn,at_kp_thr,at_ki_spd,at_thr_slew,aa_hdg_cmd_deg,aa_fpa_cmd_deg,ils_loc_m,ils_gs_m,ils_dist_km,loc_corr_deg,gs_corr_deg,flare_fpa_cmd,flare_tgt_vs,flare_frac,steer_hdg_deg,steer_blend,ro_loc_corr_deg,ro_hdg_err_deg,ro_yaw_tgt,ro_yaw_scale,ro_yaw_gate,yaw_cmd,roll_cmd,pitch_cmd,ro_pitch_tgt_deg,ro_pitch_err_deg,ro_pitch_ff,ro_roll_assist,flaps_cur,flaps_tgt,phase_el_s,status
1,APPROACH,FLY_TO_FIX,240.3,75.4,-164.9,658.96,0.13,-1.53,-1.56,267.77,-0.219,0,0,0,1,0.6,0.9,0.75,0.35,0.0168,0.4,342.32,0.003,0,0,0,0,0,0,0,0,267.76,0,0,0,0,0,0,0,0,0,0,0,0,0,0,0,1.04,FLYING
1.72,APPROACH,FLY_TO_FIX,239.75,75.8,-163.95,597.69,0.11,-1.8,-1.57,268.52,-17.187,0,0,0,1,0.6,0.9,0.75,0.35,0.0168,0.4,342.5,0.003,0,0,0,0,0,0,0,0,267.76,0,0,0,0,0,0,0,0,0,0,0,0,0,0,0,1.78,FLYING
2.44,APPROACH,FLY_TO_FIX,238.68,76.2,-162.48,512.53,-1.65,-2.72,-1.53,269.12,-43.424,0,0,0,1,0.6,0.9,0.75,0.35,0.0168,0.4,342.67,0.004,0,0,0,0,0,0,0,0,267.76,0,0,0,0,0,0,0,0,0,0,0,0,0,0,0,2.5,FLYING
3.16,APPROACH,FLY_TO_FIX,237.11,76.6,-160.51,549.72,0.66,-0.63,1.33,273.81,-66.263,0,0,-20,1,0.6,1.002,0.75,0.35,0.0168,0.4,342.84,0.006,0,0,0,0,0,0,0,0,267.76,0,0,0,0,0,0,0,0,0,0,0,0,0,0,0,3.22,FLYING
3.88,APPROACH,FLY_TO_FIX,235.35,77,-158.35,572.76,1.24,0.31,1.53,278.06,-70.938,0,0,-19.9,1,0.6,1.204,0.772,0.35,0.0168,0.4,343,0.002,0,0,0,0,0,0,0,0,267.76,0,0,0,0,0,0,0,0,0,0,0,0,0,0,0,3.94,FLYING
4.6,APPROACH,FLY_TO_FIX,233.44,77.4,-156.04,629.01,1.41,0.71,1.63,282.61,-71.799,0.0748,0,-20,1,0.6,1.389,0.829,0.35,0.0168,0.4,343.16,-0.003,0,0,0,0,0,0,0,0,267.76,0,0,0,0,0,0,0,0,0,0,0,0,0,0,0,4.66,FLYING
5.3,APPROACH,FLY_TO_FIX,231.45,77.8,-153.65,691.09,1.38,0.8,1.74,287.17,-72.14,0.1864,0,-20,1,0.6,1.559,0.901,0.35,0.0168,0.4,343.31,-0.008,0,0,0,0,0,0,0,0,267.76,0,0,0,0,0,0,0,0,0,0,0,0,0,0,0,5.36,FLYING
6,APPROACH,FLY_TO_FIX,229.36,78.2,-151.16,745.92,1.28,0.82,1.84,291.81,-72.293,0.3099,0,-20,1,0.6,1.715,0.901,0.35,0.0168,0.4,343.45,-0.013,0,0,0,0,0,0,0,0,267.76,0,0,0,0,0,0,0,0,0,0,0,0,0,0,0,6.06,FLYING
6.72,APPROACH,FLY_TO_FIX,227.19,78.6,-148.59,935.54,1.13,0.83,1.95,296.62,-72.372,0.4218,0,-20,1,0.6,1.858,0.901,0.35,0.0168,0.4,343.59,-0.017,0,0,0,0,0,0,0,0,267.76,0,0,0,0,0,0,0,0,0,0,0,0,0,0,0,6.78,FLYING
7.44,APPROACH,FLY_TO_FIX,225.07,79,-146.07,1052.11,0.97,0.83,2.06,301.47,-72.419,0.5049,0,-20,1,0.6,1.989,0.901,0.35,0.0168,0.4,343.71,-0.021,0,0,0,0,0,0,0,0,267.76,0,0,0,0,0,0,0,0,0,0,0,0,0,0,0,7.5,FLYING
8.16,APPROACH,FLY_TO_FIX,223.02,79.4,-143.62,1134.8,0.8,0.83,2.17,306.36,-72.451,0.5622,0,-20,1,0.6,2.109,0.901,0.35,0.0168,0.4,343.83,-0.024,0,0,0,0,0,0,0,0,267.76,0,0,0,0,0,0,0,0,0,0,0,0,0,0,0,8.22,FLYING
8.88,APPROACH,FLY_TO_FIX,221.04,79.8,-141.24,1198.91,0.63,0.82,2.28,311.29,-72.474,0.5976,0,-20,1,0.6,2.219,0.901,0.35,0.0168,0.4,343.93,-0.027,0,0,0,0,0,0,0,0,267.76,0,0,0,0,0,0,0,0,0,0,0,0,0,0,0,8.94,FLYING
9.6,APPROACH,FLY_TO_FIX,219.14,80.2,-138.94,1232.31,0.46,0.82,2.38,316.26,-72.491,0.6145,0,-20,1,0.6,2.32,0.901,0.35,0.0168,0.4,344.03,-0.029,0,0,0,0,0,0,0,0,267.76,0,0,0,0,0,0,0,0,0,0,0,0,0,0,0,9.66,FLYING
10.32,APPROACH,FLY_TO_FIX,217.32,80.6,-136.72,1273.61,0.29,0.81,2.49,321.26,-72.498,0.6166,0,-20,1,0.6,2.413,0.901,0.35,0.0168,0.4,344.11,-0.031,0,0,0,0,0,0,0,0,267.76,0,0,0,0,0,0,0,0,0,0,0,0,0,0,0,10.38,FLYING
11.04,APPROACH,FLY_TO_FIX,215.58,81,-134.58,1312.58,0.14,0.81,2.59,326.3,-72.493,0.6073,0,-20,1,0.6,2.498,0.901,0.35,0.0168,0.4,344.17,-0.032,0,0,0,0,0,0,0,0,267.76,0,0,0,0,0,0,0,0,0,0,0,0,0,0,0,11.1,FLYING
11.76,APPROACH,FLY_TO_FIX,213.96,81,-132.96,1356.98,-0.13,0.65,2.08,330.61,-71.797,0.5863,0,-20,1,0.6,2.576,0.901,0.35,0.0168,0.4,344.23,-0.032,0,0,0,0,0,0,0,0,267.76,0,0,0,0,0,0,0,0,0,0,0,0,0,0,0,11.82,FLYING
12.48,APPROACH,FLY_TO_FIX,212.85,81,-131.85,1379.13,-0.75,0.46,0.87,333.11,-64.663,0.5014,0,-20,1,0.6,2.647,0.901,0.35,0.0168,0.4,344.27,-0.03,0,0,0,0,0,0,0,0,267.76,0,0,0,0,0,0,0,0,0,0,0,0,0,0,0,12.54,FLYING
13.2,APPROACH,FLY_TO_FIX,212.25,81,-131.25,1408.47,-0.96,0.22,0.21,335.16,-56.806,0.358,0,-20,1,0.6,2.713,0.901,0.35,0.0168,0.4,344.3,-0.027,0,0,0,0,0,0,0,0,267.76,0,0,0,0,0,0,0,0,0,0,0,0,0,0,0,13.26,FLYING
13.92,APPROACH,FLY_TO_FIX,211.85,81,-130.85,1406.59,-1.07,-0.06,-0.22,336.87,-49.349,0.2137,0,-20,1,0.6,2.774,0.901,0.35,0.0168,0.4,344.33,-0.023,0,0,0,0,0,0,0,0,267.76,0,0,0,0,0,0,0,0,0,0,0,0,0,0,0,13.98,FLYING
14.64,APPROACH,FLY_TO_FIX,211.55,81,-130.55,1380.55,-1,-0.32,-0.52,338.29,-41.828,0.0841,0,-20,1,0.6,2.829,0.901,0.35,0.0168,0.4,344.35,-0.018,0,0,0,0,0,0,0,0,267.76,0,0,0,0,0,0,0,0,0,0,0,0,0,0,0,14.7,FLYING
15.36,APPROACH,FLY_TO_FIX,211.21,81,-130.21,1331.75,-0.89,-0.53,-0.7,339.46,-34.564,0,0,-19.9,1,0.6,2.88,0.901,0.35,0.0168,0.4,344.36,-0.015,0,0,0,0,0,0,0,0,267.76,0,0,0,0,0,0,0,0,0,0,0,0,0,0,0,15.4,FLYING
16.08,APPROACH,FLY_TO_FIX,210.77,81,-129.77,1337.8,-0.77,-0.72,-0.83,340.48,-28.421,0,0,-19.8,1,0.6,2.927,0.936,0.35,0.0168,0.4,344.37,-0.011,0,0,0,0,0,0,0,0,267.76,0,0,0,0,0,0,0,0,0,0,0,0,0,0,0,16.14,FLYING
16.8,APPROACH,FLY_TO_FIX,210.19,81,-129.19,1328.48,-0.62,-0.85,-0.91,341.31,-22.497,0,0,-19.701,1,0.6,2.97,0.966,0.35,0.0168,0.4,344.38,-0.008,0,0,0,0,0,0,0,0,267.76,0,0,0,0,0,0,0,0,0,0,0,0,0,0,0,16.86,FLYING
17.52,APPROACH,FLY_TO_FIX,209.51,81,-128.51,1313.23,-0.5,-0.94,-0.96,342.03,-18.049,0,0,-19.603,1,0.6,3.01,0.993,0.35,0.0168,0.4,344.39,-0.006,0,0,0,0,0,0,0,0,267.76,0,0,0,0,0,0,0,0,0,0,0,0,0,0,0,17.58,FLYING
18.24,APPROACH,FLY_TO_FIX,208.74,81,-127.74,1268.86,-0.39,-0.98,-0.98,342.6,-14.151,0,0,-19.505,1,0.6,3.046,1.019,0.35,0.0168,0.4,344.39,-0.004,0,0,0,0,0,0,0,0,267.76,0,0,0,0,0,0,0,0,0,0,0,0,0,0,0,18.3,FLYING
18.96,APPROACH,FLY_TO_FIX,207.9,81,-126.9,1227.09,-0.29,-1,-0.98,343.05,-10.999,0,0,-19.407,1,0.6,3.079,1.046,0.35,0.0168,0.4,344.4,-0.003,0,0,0,0,0,0,0,0,267.76,0,0,0,0,0,0,0,0,0,0,0,0,0,0,0,19.02,FLYING
19.68,APPROACH,FLY_TO_FIX,206.99,81,-125.99,1201.75,-0.2,-0.99,-0.98,343.4,-8.236,0,0,-19.31,1,0.6,3.11,1.074,0.35,0.0168,0.4,344.4,-0.002,0,0,0,0,0,0,0,0,267.76,0,0,0,0,0,0,0,0,0,0,0,0,0,0,0,19.74,FLYING
20.4,APPROACH,FLY_TO_FIX,206.03,81,-125.03,1196.4,-0.12,-0.98,-0.97,343.66,-6,0,0,-19.214,1,0.6,3.138,1.103,0.35,0.0168,0.4,344.4,-0.002,0,0,0,0,0,0,0,0,267.76,0,0,0,0,0,0,0,0,0,0,0,0,0,0,0,20.46,FLYING
21.12,APPROACH,FLY_TO_FIX,205.03,81,-124.03,1153.35,-0.06,-0.96,-0.96,343.85,-3.867,0,0,-19.118,1,0.6,3.163,1.135,0.35,0.0168,0.4,344.41,-0.001,0,0,0,0,0,0,0,0,267.76,0,0,0,0,0,0,0,0,0,0,0,0,0,0,0,21.18,FLYING
21.84,APPROACH,FLY_TO_FIX,204,81,-123,1081.08,0,-0.93,-0.94,344,-2.412,0,0,-19.022,1,0.6,3.187,1.168,0.35,0.0168,0.4,344.41,-0.001,0,0,0,0,0,0,0,0,267.76,0,0,0,0,0,0,0,0,0,0,0,0,0,0,0,21.9,FLYING
22.56,APPROACH,FLY_TO_FIX,202.93,81,-121.93,1034.59,0.05,-0.9,-0.92,344.1,-1.567,0,0,-18.927,1,0.6,3.208,1.203,0.35,0.0168,0.4,344.41,-0.001,0,0,0,0,0,0,0,0,267.76,0,0,0,0,0,0,0,0,0,0,0,0,0,0,0,22.62,FLYING
23.28,APPROACH,FLY_TO_FIX,201.85,81,-120.85,1074.6,0.09,-0.87,-0.89,344.16,-1.088,0,0,-18.832,1,0.6,3.227,1.239,0.35,0.0168,0.4,344.41,-0.001,0,0,0,0,0,0,0,0,267.76,0,0,0,0,0,0,0,0,0,0,0,0,0,0,0,23.34,FLYING
24,APPROACH,FLY_TO_FIX,200.75,81,-119.75,1149.66,0.13,-0.84,-0.87,344.21,-0.81,0,0,-18.738,1,0.6,3.245,1.277,0.35,0.0168,0.4,344.41,-0.002,0,0,0,0,0,0,0,0,267.76,0,0,0,0,0,0,0,0,0,0,0,0,0,0,0,24.06,FLYING
24.72,APPROACH,FLY_TO_FIX,199.64,81,-118.64,1186.89,0.17,-0.8,-0.85,344.23,-0.642,0,0,-18.645,1,0.6,3.261,1.314,0.35,0.0168,0.4,344.41,-0.002,0,0,0,0,0,0,0,0,267.76,0,0,0,0,0,0,0,0,0,0,0,0,0,0,0,24.78,FLYING
25.44,APPROACH,FLY_TO_FIX,198.52,81,-117.52,1213.83,0.2,-0.77,-0.82,344.25,-0.533,0,0,-18.551,1,0.6,3.276,1.353,0.35,0.0168,0.4,344.41,-0.003,0,0,0,0,0,0,0,0,267.76,0,0,0,0,0,0,0,0,0,0,0,0,0,0,0,25.5,FLYING
26.16,APPROACH,FLY_TO_FIX,197.4,81,-116.4,1223.67,0.23,-0.74,-0.8,344.27,-0.459,0,0,-18.459,1,0.6,3.29,1.391,0.35,0.0168,0.4,344.41,-0.004,0,0,0,0,0,0,0,0,267.76,0,0,0,0,0,0,0,0,0,0,0,0,0,0,0,26.22,FLYING
26.88,APPROACH,FLY_TO_FIX,196.27,81,-115.27,1200.02,0.26,-0.7,-0.77,344.28,-0.409,0,0,-18.366,1,0.6,3.302,1.429,0.35,0.0168,0.4,344.41,-0.005,0,0,0,0,0,0,0,0,267.76,0,0,0,0,0,0,0,0,0,0,0,0,0,0,0,26.94,FLYING
27.6,APPROACH,FLY_TO_FIX,195.15,81,-114.15,1143.64,0.28,-0.67,-0.74,344.29,-0.367,0,0,-18.274,1,0.6,3.313,1.467,0.35,0.0168,0.4,344.41,-0.006,0,0,0,0,0,0,0,0,267.76,0,0,0,0,0,0,0,0,0,0,0,0,0,0,0,27.66,FLYING
28.32,APPROACH,FLY_TO_FIX,194.02,81,-113.02,1122.69,0.31,-0.64,-0.72,344.3,-0.338,0,0,-18.183,1,0.6,3.323,1.504,0.35,0.0168,0.4,344.42,-0.007,0,0,0,0,0,0,0,0,267.76,0,0,0,0,0,0,0,0,0,0,0,0,0,0,0,28.38,FLYING
29.04,APPROACH,FLY_TO_FIX,192.9,81,-111.9,1092.6,0.33,-0.61,-0.69,344.31,-0.314,0,0,-18.092,1,0.6,3.333,1.54,0.35,0.0168,0.4,344.42,-0.008,0,0,0,0,0,0,0,0,267.76,0,0,0,0,0,0,0,0,0,0,0,0,0,0,0,29.1,FLYING
29.76,APPROACH,FLY_TO_FIX,191.78,81,-110.78,1070.22,0.34,-0.57,-0.66,344.32,-0.288,0,0,-18.002,1,0.6,3.341,1.575,0.35,0.0168,0.4,344.42,-0.009,0,0,0,0,0,0,0,0,267.76,0,0,0,0,0,0,0,0,0,0,0,0,0,0,0,29.82,FLYING
30.48,APPROACH,FLY_TO_FIX,190.66,81,-109.66,1064.34,0.36,-0.54,-0.63,344.33,-0.271,0,0,-17.912,1,0.6,3.349,1.609,0.35,0.0168,0.4,344.42,-0.01,0,0,0,0,0,0,0,0,267.76,0,0,0,0,0,0,0,0,0,0,0,0,0,0,0,30.54,FLYING
31.2,APPROACH,FLY_TO_FIX,189.55,81,-108.55,1094.56,0.37,-0.51,-0.61,344.34,-0.252,0,0,-17.822,1,0.6,3.356,1.642,0.35,0.0168,0.4,344.42,-0.012,0,0,0,0,0,0,0,0,267.76,0,0,0,0,0,0,0,0,0,0,0,0,0,0,0,31.26,FLYING
32.24,APPROACH,FLY_TO_FIX,188.25,81,-107.25,1152.78,0.32,-0.5,-0.58,344.35,-0.209,0,0,-17.733,1,0.6,3.362,1.675,0.35,0.0168,0.4,344.42,-0.013,0,0,0,0,0,0,0,0,267.76,0,0,0,0,0,0,0,0,0,0,0,0,0,0,0,32.44,FLYING
34.97,APPROACH,FLY_TO_FIX,184.39,81,-103.39,1193.04,0.17,-0.34,-0.39,344.36,-0.105,0.1988,0,-20,1,0.6,3.367,1.752,0.35,0.0168,0.4,344.42,-0.016,0,0,0,0,0,0,0,0,267.76,0,0,0,0,0,0,0,0,0,0,0,0,0,0,0,35.21,FLYING
37.77,APPROACH,FLY_TO_FIX,180.47,81,-99.47,1205,0.22,-0.22,-0.28,344.36,-0.065,0.3988,0,-20,1,0.6,3.372,1.752,0.35,0.0168,0.4,344.42,-0.018,0,0,0,0,0,0,0,0,267.76,0,0,0,0,0,0,0,0,0,0,0,0,0,0,0,38.01,FLYING
40.57,APPROACH,FLY_TO_FIX,177.25,81,-96.25,1154.54,0.32,-0.1,-0.19,344.37,-0.066,0.5988,0,-20,1,0.6,3.376,1.752,0.35,0.0168,0.4,344.43,-0.022,0,0,0,0,0,0,0,0,267.76,0,0,0,0,0,0,0,0,0,0,0,0,0,0,0,40.81,FLYING
43.37,APPROACH,FLY_TO_FIX,175.06,81,-94.06,1139.82,0.41,-0.02,-0.13,344.38,-0.066,0.6827,0,-20,1,0.6,3.38,1.752,0.35,0.0168,0.4,344.43,-0.027,0,0,0,0,0,0,0,0,267.76,0,0,0,0,0,0,0,0,0,0,0,0,0,0,0,43.61,FLYING
46.17,APPROACH,FLY_TO_FIX,174.06,81,-93.06,1115.27,0.48,0.02,-0.12,344.38,-0.07,0.5099,0,-20,1,0.6,3.384,1.752,0.35,0.0168,0.4,344.43,-0.033,0,0,0,0,0,0,0,0,267.76,0,0,0,0,0,0,0,0,0,0,0,0,0,0,0,46.41,FLYING
48.97,APPROACH,FLY_TO_FIX,174.04,81,-93.04,1176.88,0.54,0.03,-0.12,344.39,-0.069,0.3099,0,-20,1,0.6,3.387,1.752,0.35,0.0168,0.4,344.43,-0.04,0,0,0,0,0,0,0,0,267.76,0,0,0,0,0,0,0,0,0,0,0,0,0,0,0,49.21,FLYING
51.77,APPROACH,FLY_TO_FIX,174.43,81,-93.43,1251.39,0.58,0.02,-0.14,344.4,-0.057,0.1099,0,-19.9,1,0.6,3.39,1.752,0.35,0.0168,0.4,344.43,-0.047,0,0,0,0,0,0,0,0,267.76,0,0,0,0,0,0,0,0,0,0,0,0,0,0,0,51.93,FLYING
54.57,APPROACH,FLY_TO_FIX,174.3,81,-93.3,1216.13,0.54,0.02,-0.13,344.4,-0.057,0,0,-19.8,1,0.6,3.392,1.752,0.35,0.0168,0.4,344.43,-0.055,0,0,0,0,0,0,0,0,267.76,0,0,0,0,0,0,0,0,0,0,0,0,0,0,0,54.73,FLYING
57.37,APPROACH,FLY_TO_FIX,172.79,81,-91.79,1252.89,0.47,0.07,-0.06,344.4,-0.043,0,0,-19.701,1,0.6,3.395,1.779,0.35,0.0168,0.4,344.44,-0.062,0,0,0,0,0,0,0,0,267.76,0,0,0,0,0,0,0,0,0,0,0,0,0,0,0,57.61,FLYING
60.17,APPROACH,FLY_TO_FIX,170.16,81,-89.16,3013.88,0.39,0.15,0.04,344.41,-0.039,0,0,-20,1,0.6,3.397,1.83,0.35,0.0168,0.4,344.44,-0.068,0,0,0,0,0,0,0,0,267.76,0,0,0,0,0,0,0,0,0,0,0,0,0,0,0,60.41,FLYING
62.97,APPROACH,FLY_TO_FIX,167.01,81,-86.01,3014.92,0.33,0.26,0.16,344.41,-0.021,0.2,0,-20,1,0.6,3.399,1.91,0.35,0.0168,0.4,344.44,-0.074,0,0,0,0,0,0,0,0,267.76,0,0,0,0,0,0,0,0,0,0,0,0,0,0,0,63.21,FLYING
65.85,APPROACH,FLY_TO_FIX,163.79,81,-82.79,3015.79,0.3,0.37,0.28,344.41,-0.023,0.4,0,-20,1,0.6,3.401,1.91,0.35,0.0168,0.4,344.44,-0.078,0,0,0,0,0,0,0,0,267.76,0,0,0,0,0,0,0,0,0,0,0,0,0,0,0,66.09,FLYING
68.65,APPROACH,FLY_TO_FIX,161.25,81,-80.25,3016.59,0.29,0.46,0.38,344.41,-0.016,0.5026,0,-20,1,0.6,3.403,1.91,0.35,0.0168,0.4,344.44,-0.082,0,0,0,0,0,0,0,0,267.76,0,0,0,0,0,0,0,0,0,0,0,0,0,0,0,68.89,FLYING
71.45,APPROACH,FLY_TO_FIX,159.54,81,-78.54,3017.39,0.3,0.53,0.44,344.41,-0.027,0.4499,0,-20,1,0.6,3.405,1.91,0.35,0.0168,0.4,344.44,-0.086,0,0,0,0,0,0,0,0,267.76,0,0,0,0,0,0,0,0,0,0,0,0,0,0,0,71.69,FLYING
74.25,APPROACH,FLY_TO_FIX,158.64,81,-77.64,3018.23,0.32,0.56,0.47,344.41,-0.022,0.2943,0,-20,1,0.6,3.407,1.91,0.35,0.0168,0.4,344.45,-0.09,0,0,0,0,0,0,0,0,267.76,0,0,0,0,0,0,0,0,0,0,0,0,0,0,0,74.49,FLYING
77.05,APPROACH,FLY_TO_FIX,158.2,81,-77.2,3019.12,0.33,0.58,0.48,344.42,-0.022,0.0992,0,-20,1,0.6,3.408,1.91,0.35,0.0168,0.4,344.45,-0.095,0,0,0,0,0,0,0,0,267.76,0,0,0,0,0,0,0,0,0,0,0,0,0,0,0,77.29,FLYING
79.85,APPROACH,FLY_TO_FIX,157.54,81,-76.54,3019.99,0.3,0.61,0.52,344.42,-0.025,0,0,-19.9,1,0.6,3.41,1.91,0.35,0.0168,0.4,344.45,-0.099,0,0,0,0,0,0,0,0,267.76,0,0,0,0,0,0,0,0,0,0,0,0,0,0,0,80.01,FLYING
82.65,APPROACH,FLY_TO_FIX,155.93,81,-74.93,3020.74,0.25,0.68,0.6,344.42,-0.016,0,0,-19.8,1,0.6,3.412,1.957,0.35,0.0168,0.4,344.45,-0.103,0,0,0,0,0,0,0,0,267.76,0,0,0,0,0,0,0,0,0,0,0,0,0,0,0,82.89,FLYING
85.45,APPROACH,FLY_TO_FIX,153.46,81,-72.46,3021.36,0.18,0.79,0.73,344.42,-0.014,0.0839,0,-20,1,0.6,3.414,2.021,0.35,0.0168,0.4,344.45,-0.106,0,0,0,0,0,0,0,0,267.76,0,0,0,0,0,0,0,0,0,0,0,0,0,0,0,85.69,FLYING
88.25,APPROACH,FLY_TO_FIX,150.73,81,-69.73,3021.8,0.14,0.91,0.87,344.42,-0.013,0.2406,0,-20,1,0.6,3.416,2.021,0.35,0.0168,0.4,344.45,-0.109,0,0,0,0,0,0,0,0,267.76,0,0,0,0,0,0,0,0,0,0,0,0,0,0,0,88.49,FLYING
91.05,APPROACH,FLY_TO_FIX,148.25,81,-67.25,3022.16,0.12,1.03,0.99,344.42,-0.009,0.3363,0,-20,1,0.6,3.419,2.021,0.35,0.0168,0.4,344.45,-0.111,0,0,0,0,0,0,0,0,267.76,0,0,0,0,0,0,0,0,0,0,0,0,0,0,0,91.29,FLYING
93.85,APPROACH,FLY_TO_FIX,146.24,81,-65.24,3022.48,0.11,1.13,1.1,344.42,-0.003,0.3477,0,-20,1,0.6,3.422,2.021,0.35,0.0168,0.4,344.46,-0.112,0,0,0,0,0,0,0,0,267.76,0,0,0,0,0,0,0,0,0,0,0,0,0,0,0,94.09,FLYING
96.65,APPROACH,FLY_TO_FIX,144.77,81,-63.77,3022.8,0.12,1.21,1.17,344.42,-0.003,0.2817,0,-20,1,0.6,3.425,2.021,0.35,0.0168,0.4,344.46,-0.114,0,0,0,0,0,0,0,0,267.76,0,0,0,0,0,0,0,0,0,0,0,0,0,0,0,96.89,FLYING
99.45,APPROACH,FLY_TO_FIX,143.71,81,-62.71,3023.16,0.14,1.27,1.22,344.42,-0.012,0.1692,0,-20,1,0.6,3.428,2.021,0.35,0.0168,0.4,344.46,-0.115,0,0,0,0,0,0,0,0,267.76,0,0,0,0,0,0,0,0,0,0,0,0,0,0,0,99.69,FLYING
102.25,APPROACH,FLY_TO_FIX,142.82,81,-61.82,3023.55,0.14,1.32,1.27,344.42,-0.006,0.0521,0,-20,1,0.6,3.431,2.021,0.35,0.0168,0.4,344.46,-0.117,0,0,0,0,0,0,0,0,267.76,0,0,0,0,0,0,0,0,0,0,0,0,0,0,0,102.49,FLYING
105.05,APPROACH,FLY_TO_FIX,141.6,81,-60.6,3023.92,0.12,1.4,1.36,344.42,-0.009,0,0,-19.9,1,0.6,3.434,2.07,0.35,0.0168,0.4,344.46,-0.119,0,0,0,0,0,0,0,0,267.76,0,0,0,0,0,0,0,0,0,0,0,0,0,0,0,105.29,FLYING
107.85,APPROACH,FLY_TO_FIX,139.64,81,-58.64,1840.27,0.07,1.53,1.5,344.42,-0.003,0.0172,0,-20,1,0.6,3.437,2.125,0.35,0.0168,0.4,344.46,-0.121,0,0,0,0,0,0,0,0,267.76,0,0,0,0,0,0,0,0,0,0,0,0,0,0,0,108.09,FLYING
110.65,APPROACH,FLY_TO_FIX,137.15,81,-56.15,1836.56,0.02,1.68,1.67,344.42,0.004,0.1185,0,-20,1,0.6,3.441,2.194,0.35,0.0168,0.4,344.46,-0.122,0,0,0,0,0,0,0,0,267.76,0,0,0,0,0,0,0,0,0,0,0,0,0,0,0,110.89,FLYING
113.45,APPROACH,FLY_TO_FIX,134.59,81,-53.59,1831.17,-0.02,1.84,1.85,344.42,0.009,0.234,0,-20,1,0.6,3.446,2.194,0.35,0.0168,0.4,344.47,-0.122,0,0,0,0,0,0,0,0,267.76,0,0,0,0,0,0,0,0,0,0,0,0,0,0,0,113.69,FLYING
116.25,APPROACH,FLY_TO_FIX,132.27,81,-51.27,1827.17,-0.04,2,2.01,344.42,-0.001,0.2941,0,-20,1,0.6,3.45,2.194,0.35,0.0168,0.4,344.47,-0.121,0,0,0,0,0,0,0,0,267.76,0,0,0,0,0,0,0,0,0,0,0,0,0,0,0,116.49,FLYING
119.05,APPROACH,FLY_TO_FIX,130.36,81,-49.36,3024.16,-0.04,2.14,2.15,344.41,0.008,0.2876,0,-20,1,0.6,3.456,2.194,0.35,0.0168,0.4,344.47,-0.121,0,0,0,0,0,0,0,0,267.76,0,0,0,0,0,0,0,0,0,0,0,0,0,0,0,119.29,FLYING
121.85,APPROACH,FLY_TO_FIX,128.85,81,-47.85,3024.08,-0.03,2.25,2.26,344.41,0.002,0.2254,0,-20,1,0.6,3.461,2.194,0.35,0.0168,0.4,344.47,-0.12,0,0,0,0,0,0,0,0,267.76,0,0,0,0,0,0,0,0,0,0,0,0,0,0,0,122.09,FLYING
124.65,APPROACH,FLY_TO_FIX,127.62,81,-46.62,3024.03,-0.01,2.35,2.36,344.41,-0.001,0.1339,0,-20,1,0.6,3.466,2.194,0.35,0.0168,0.4,344.47,-0.12,0,0,0,0,0,0,0,0,267.76,0,0,0,0,0,0,0,0,0,0,0,0,0,0,0,124.89,FLYING
127.45,APPROACH,FLY_TO_FIX,126.45,81,-45.45,3024.02,0,2.45,2.46,344.41,-0.006,0.0488,0,-20,1,0.6,3.472,2.194,0.35,0.0168,0.4,344.47,-0.12,0,0,0,0,0,0,0,0,267.76,0,0,0,0,0,0,0,0,0,0,0,0,0,0,0,127.69,FLYING
130.25,APPROACH,FLY_TO_FIX,124.98,81,-43.98,3024.01,-0.02,2.59,2.6,344.41,-0.005,0.0016,0,-19.9,1,0.6,3.477,2.247,0.35,0.0168,0.4,344.47,-0.12,0,0,0,0,0,0,0,0,267.76,0,0,0,0,0,0,0,0,0,0,0,0,0,0,0,130.49,FLYING
133.05,APPROACH,FLY_TO_FIX,122.9,81,-41.9,3023.92,-0.06,2.78,2.8,344.41,-0.001,0.0377,0,-20,1,0.6,3.483,2.306,0.35,0.0168,0.4,344.48,-0.12,0,0,0,0,0,0,0,0,267.76,0,0,0,0,0,0,0,0,0,0,0,0,0,0,0,133.29,FLYING
135.85,APPROACH,FLY_TO_FIX,120.45,81,-39.45,3023.71,-0.11,3,3.04,344.41,0.009,0.1193,0,-20,1,0.6,3.49,2.376,0.35,0.0168,0.4,344.48,-0.119,0,0,0,0,0,0,0,0,267.76,0,0,0,0,0,0,0,0,0,0,0,0,0,0,0,136.09,FLYING
138.65,APPROACH,FLY_TO_FIX,118,81,-37,3023.38,-0.15,3.23,3.29,344.41,0.008,0.2064,0,-20,1,0.6,3.497,2.376,0.35,0.0168,0.4,344.48,-0.117,0,0,0,0,0,0,0,0,267.76,0,0,0,0,0,0,0,0,0,0,0,0,0,0,0,138.89,FLYING
141.45,APPROACH,FLY_TO_FIX,115.73,81,-34.73,3022.94,-0.18,3.45,3.53,344.41,0.013,0.2518,0,-20,1,0.6,3.504,2.376,0.35,0.0168,0.4,344.48,-0.115,0,0,0,0,0,0,0,0,267.76,0,0,0,0,0,0,0,0,0,0,0,0,0,0,0,141.69,FLYING
144.25,APPROACH,FLY_TO_FIX,113.76,81,-32.76,3022.43,-0.2,3.66,3.75,344.4,0.012,0.2483,0,-20,1,0.6,3.512,2.376,0.35,0.0168,0.4,344.48,-0.113,0,0,0,0,0,0,0,0,267.76,0,0,0,0,0,0,0,0,0,0,0,0,0,0,0,144.49,FLYING
147.05,APPROACH,FLY_TO_FIX,112.07,81,-31.07,3021.91,-0.2,3.85,3.94,344.4,0.01,0.2042,0,-20,1,0.6,3.521,2.376,0.35,0.0168,0.4,344.48,-0.11,0,0,0,0,0,0,0,0,267.76,0,0,0,0,0,0,0,0,0,0,0,0,0,0,0,147.29,FLYING
149.85,APPROACH,FLY_TO_FIX,110.59,81,-29.59,3021.38,-0.19,4.03,4.12,344.4,0.009,0.1384,0,-20,1,0.6,3.529,2.376,0.35,0.0168,0.4,344.48,-0.107,0,0,0,0,0,0,0,0,267.76,0,0,0,0,0,0,0,0,0,0,0,0,0,0,0,150.09,FLYING
152.65,APPROACH,FLY_TO_FIX,109.19,81,-28.19,3020.87,-0.19,4.22,4.3,344.39,0.011,0.074,0,-20,1,0.6,3.537,2.376,0.35,0.0168,0.4,344.49,-0.105,0,0,0,0,0,0,0,0,267.76,0,0,0,0,0,0,0,0,0,0,0,0,0,0,0,152.89,FLYING
155.45,APPROACH,FLY_TO_FIX,107.6,81,-26.6,3020.31,-0.22,4.44,4.53,344.39,0.004,0.0238,0,-20,1,0.6,3.546,2.433,0.35,0.0168,0.4,344.49,-0.102,0,0,0,0,0,0,0,0,267.76,0,0,0,0,0,0,0,0,0,0,0,0,0,0,0,155.69,FLYING
158.25,APPROACH,FLY_TO_FIX,105.54,81,-24.54,3019.68,-0.27,4.74,4.85,344.39,0.009,0.0422,0,-20,1,0.6,3.554,2.493,0.35,0.0168,0.4,344.49,-0.099,0,0,0,0,0,0,0,0,267.76,0,0,0,0,0,0,0,0,0,0,0,0,0,0,0,158.49,FLYING
161.05,APPROACH,FLY_TO_FIX,103.09,81,-22.09,3018.9,-0.33,5.11,5.24,344.39,0.004,0.1083,0,-20,1,0.6,3.564,2.562,0.35,0.0168,0.4,344.49,-0.095,0,0,0,0,0,0,0,0,267.76,0,0,0,0,0,0,0,0,0,0,0,0,0,0,0,161.29,FLYING
163.85,APPROACH,FLY_TO_FIX,100.54,81,-19.54,3017.98,-0.38,5.49,5.67,344.39,-0.004,0.1973,0,-20,1,0.6,3.574,2.562,0.35,0.0168,0.4,344.49,-0.091,0,0,0,0,0,0,0,0,267.76,0,0,0,0,0,0,0,0,0,0,0,0,0,0,0,164.09,FLYING
166.65,APPROACH,FLY_TO_FIX,98.08,81,-17.08,3016.9,-0.42,5.9,6.1,344.39,-0.005,0.2575,0,-20,1,0.6,3.584,2.562,0.35,0.0168,0.4,344.49,-0.085,0,0,0,0,0,0,0,0,267.76,0,0,0,0,0,0,0,0,0,0,0,0,0,0,0,166.89,FLYING
169.45,APPROACH,FLY_TO_FIX,95.83,81,-14.83,3015.74,-0.45,6.3,6.52,344.4,-0.009,0.2779,0,-20,1,0.6,3.596,2.562,0.35,0.0168,0.4,344.5,-0.08,0,0,0,0,0,0,0,0,267.76,0,0,0,0,0,0,0,0,0,0,0,0,0,0,0,169.69,FLYING
172.25,APPROACH,FLY_TO_FIX,93.82,81,-12.82,2082.11,-0.45,6.69,6.92,344.4,-0.006,0.2599,0,-20,1,0.6,3.607,2.562,0.35,0.0168,0.4,344.5,-0.074,0,0,0,0,0,0,0,0,267.76,0,0,0,0,0,0,0,0,0,0,0,0,0,0,0,172.49,FLYING
175.05,APPROACH,FLY_TO_FIX,92.02,81,-11.02,2112.25,-0.44,7.07,7.29,344.4,-0.002,0.3307,0,-20,1,0.6,3.618,2.562,0.35,0.0168,0.4,344.5,-0.068,0,0,0,0,0,0,0,0,267.76,0,0,0,0,0,0,0,0,0,0,0,0,0,0,0,175.29,FLYING
177.85,APPROACH,FLY_TO_FIX,90.4,81,-9.4,2123.01,-0.43,7.42,7.64,344.4,-0.002,0.3839,0,-20,1,0.6,3.63,2.562,0.35,0.0168,0.4,344.5,-0.062,0,0,0,0,0,0,0,0,267.76,0,0,0,0,0,0,0,0,0,0,0,0,0,0,0,178.09,FLYING
180.65,APPROACH,FLY_TO_FIX,89.06,81,-8.06,2128.23,-0.4,7.72,7.93,344.4,0.006,0.3942,0,-20,1,0.6,3.642,2.562,0.35,0.0168,0.4,344.5,-0.056,0,0,0,0,0,0,0,0,267.76,0,0,0,0,0,0,0,0,0,0,0,0,0,0,0,180.89,FLYING
183.45,APPROACH,FLY_TO_FIX,88.01,81,-7.01,2128.43,-0.36,7.97,8.16,344.39,0.003,0.3597,0,-20,1,0.6,3.653,2.562,0.35,0.0168,0.4,344.5,-0.051,0,0,0,0,0,0,0,0,267.76,0,0,0,0,0,0,0,0,0,0,0,0,0,0,0,183.69,FLYING
186.25,APPROACH,FLY_TO_FIX,87.2,81,-6.2,2113.52,-0.31,8.17,8.34,344.39,0.007,0.2954,0,-20,1,0.6,3.664,2.562,0.35,0.0168,0.4,344.5,-0.046,0,0,0,0,0,0,0,0,267.76,0,0,0,0,0,0,0,0,0,0,0,0,0,0,0,186.49,FLYING
189.05,APPROACH,FLY_TO_FIX,86.5,81,-5.5,2121.95,-0.28,8.36,8.51,344.39,0.008,0.228,0,-20,1,0.6,3.674,2.562,0.35,0.0168,0.4,344.51,-0.042,0,0,0,0,0,0,0,0,267.76,0,0,0,0,0,0,0,0,0,0,0,0,0,0,0,189.29,FLYING
191.85,APPROACH,FLY_TO_FIX,85.72,81,-4.72,2132.14,-0.26,8.6,8.75,344.39,0.007,0.1979,0,-20,1,0.6,3.684,2.562,0.35,0.0168,0.4,344.51,-0.039,0,0,0,0,0,0,0,0,267.76,0,0,0,0,0,0,0,0,0,0,0,0,0,0,0,192.09,FLYING
194.65,APPROACH,FLY_TO_FIX,84.63,81,-3.63,2133.47,-0.28,8.93,9.09,344.39,0.009,0.2464,0,-20,1,0.6,3.694,2.562,0.35,0.0168,0.4,344.51,-0.035,0,0,0,0,0,0,0,0,267.76,0,0,0,0,0,0,0,0,0,0,0,0,0,0,0,194.89,FLYING
197.45,APPROACH,FLY_TO_FIX,83.31,81,-2.31,2153.59,-0.3,9.31,9.49,344.39,0.002,0.354,0,-20,1,0.6,3.704,2.562,0.35,0.0168,0.4,344.51,-0.031,0,0,0,0,0,0,0,0,267.76,0,0,0,0,0,0,0,0,0,0,0,0,0,0,0,197.69,FLYING
200.25,APPROACH,FLY_TO_FIX,82.01,81,-1.01,2159.13,-0.31,9.69,9.87,344.39,-0.001,0.4572,0,-20,1,0.6,3.714,2.562,0.35,0.0168,0.4,344.51,-0.027,0,0,0,0,0,0,0,0,267.76,0,0,0,0,0,0,0,0,0,0,0,0,0,0,0,200.49,FLYING
203.05,APPROACH,FLY_TO_FIX,80.91,81,0.09,2188.16,-0.3,10,10.18,344.38,0,0.5181,0,-19.996,1,0.6,3.724,2.562,0.35,0.0168,0.4,344.51,-0.023,0,0,0,0,0,0,0,0,267.76,0,0,0,0,0,0,0,0,0,0,0,0,0,0,0,203.29,FLYING
205.85,APPROACH,FLY_TO_FIX,80.15,81,0.85,2217.84,-0.26,10.22,10.37,344.38,0.004,0.52,0,-19.597,1,0.6,3.733,2.562,0.35,0.0168,0.4,344.52,-0.02,0,0,0,0,0,0,0,0,267.76,0,0,0,0,0,0,0,0,0,0,0,0,0,0,0,206.09,FLYING
208.65,APPROACH,FLY_TO_FIX,79.77,81,1.23,2250.73,-0.2,10.32,10.44,344.38,0.004,0.4591,0,-18.989,1,0.6,3.742,2.562,0.35,0.0168,0.4,344.52,-0.016,0,0,0,0,0,0,0,0,267.76,0,0,0,0,0,0,0,0,0,0,0,0,0,0,0,208.89,FLYING
211.45,APPROACH,FLY_TO_FIX,79.67,81,1.33,2295.71,-0.13,10.35,10.43,344.38,0.013,0.3555,0,-18.325,1,0.6,3.751,2.562,0.35,0.0168,0.4,344.52,-0.014,0,0,0,0,0,0,0,0,267.76,0,0,0,0,0,0,0,0,0,0,0,0,0,0,0,211.69,FLYING
214.25,APPROACH,FLY_TO_FIX,79.68,81,1.32,2332.95,-0.08,10.38,10.42,344.37,0.009,0.2505,0,-17.665,1,0.6,3.759,2.562,0.35,0.0168,0.4,344.52,-0.012,0,0,0,0,0,0,0,0,267.76,0,0,0,0,0,0,0,0,0,0,0,0,0,0,0,214.49,FLYING
217.05,APPROACH,FLY_TO_FIX,79.38,81,1.62,2352.14,-0.09,10.56,10.61,344.37,0.009,0.2244,0,-16.883,1,0.6,3.766,2.562,0.35,0.0168,0.4,344.52,-0.011,0,0,0,0,0,0,0,0,267.76,0,0,0,0,0,0,0,0,0,0,0,0,0,0,0,217.29,FLYING
219.85,APPROACH,FLY_TO_FIX,78.46,81,2.54,2371.67,-0.15,10.94,11.02,344.37,0.006,0.3494,0,-15.661,1,0.6,3.773,2.562,0.35,0.0168,0.4,344.52,-0.01,0,0,0,0,0,0,0,0,267.76,0,0,0,0,0,0,0,0,0,0,0,0,0,0,0,220.09,FLYING
222.65,APPROACH,FLY_TO_FIX,77.2,81,3.8,2392.31,-0.2,11.38,11.49,344.37,0.002,0.5494,0,-13.816,1,0.6,3.781,2.562,0.35,0.0168,0.4,344.53,-0.008,0,0,0,0,0,0,0,0,267.76,0,0,0,0,0,0,0,0,0,0,0,0,0,0,0,222.89,FLYING
225.45,APPROACH,FLY_TO_FIX,76.13,81,4.87,2401.16,-0.2,11.72,11.84,344.37,-0.005,0.721,0,-11.418,1,0.6,3.788,2.562,0.35,0.0168,0.4,344.53,-0.006,0,0,0,0,0,0,0,0,267.76,0,0,0,0,0,0,0,0,0,0,0,0,0,0,0,225.69,FLYING
228.25,APPROACH,FLY_TO_FIX,75.56,81,5.44,2405.8,-0.15,11.85,11.94,344.37,-0.002,0.782,0,-8.709,1,0.6,3.795,2.562,0.35,0.0168,0.4,344.53,-0.003,0,0,0,0,0,0,0,0,267.76,0,0,0,0,0,0,0,0,0,0,0,0,0,0,0,228.49,FLYING
231.05,APPROACH,FLY_TO_FIX,75.7,81,5.3,2403.17,-0.05,11.71,11.74,344.37,0.004,0.7001,0,-6.04,1,0.6,3.802,2.562,0.35,0.0168,0.4,344.53,-0.001,0,0,0,0,0,0,0,0,267.76,0,0,0,0,0,0,0,0,0,0,0,0,0,0,0,231.29,FLYING
233.85,APPROACH,FLY_TO_FIX,76.52,81,4.48,2393.5,0.09,11.37,11.33,344.36,0.006,0.5001,0,-3.755,1,0.6,3.808,2.562,0.35,0.0168,0.4,344.53,-0.001,0,0,0,0,0,0,0,0,267.76,0,0,0,0,0,0,0,0,0,0,0,0,0,0,0,234.09,FLYING
236.65,APPROACH,FLY_TO_FIX,77.73,81,3.27,2407.31,0.23,10.98,10.86,344.37,-0.007,0.3001,0,-2.066,1,0.6,3.812,2.562,0.35,0.0168,0.4,344.54,-0.003,0,0,0,0,0,0,0,0,267.76,0,0,0,0,0,0,0,0,0,0,0,0,0,0,0,236.89,FLYING
239.45,APPROACH,FLY_TO_FIX,78.6,81,2.4,2409.11,0.26,10.85,10.7,344.37,-0.021,0.1001,0,-0.847,1,0.6,3.816,2.562,0.35,0.0168,0.4,344.54,-0.006,0,0,0,0,0,0,0,0,267.76,0,0,0,0,0,0,0,0,0,0,0,0,0,0,0,239.69,FLYING
242.25,APPROACH,FLY_TO_FIX,78.11,81,2.89,2399.46,0.14,11.22,11.14,344.38,-0.011,0.1585,0,0.54,1,0.6,3.819,2.562,0.35,0.0168,0.4,344.54,-0.009,0,0,0,0,0,0,0,0,267.76,0,0,0,0,0,0,0,0,0,0,0,0,0,0,0,242.49,FLYING
245.05,APPROACH,FLY_TO_FIX,76.28,81,4.72,2395.71,-0.04,11.95,11.96,344.37,0.006,0.3585,0,2.807,1,0.6,3.824,2.562,0.35,0.0168,0.4,344.54,-0.011,0,0,0,0,0,0,0,0,267.76,0,0,0,0,0,0,0,0,0,0,0,0,0,0,0,245.29,FLYING
247.85,APPROACH,FLY_TO_FIX,74.26,81,6.74,2410.43,-0.83,11.44,11.99,344.31,0.174,0.5585,0,6.105,1,0.6,3.829,2.562,0.35,0.0168,0.4,344.54,-0.008,0,0,0,0,0,0,0,0,267.76,0,0,0,0,0,0,0,0,0,0,0,0,0,0,0,248.09,FLYING
250.65,APPROACH,FLY_TO_FIX,73.1,81,7.9,2417.26,-2.5,10.4,11.99,344.2,0.342,0.7585,0,6.074,1,0.6,3.834,2.562,0.35,0.0168,0.4,344.55,0.012,0,0,0,0,0,0,0,0,267.76,0,0,0,0,0,0,0,0,0,0,0,0,0,0,0,250.81,FLYING
253.45,APPROACH,FLY_TO_FIX,73.14,81,7.86,2415.75,-4.24,9.29,11.99,344.06,0.497,0.9585,0,6.044,1,0.6,3.84,2.562,0.35,0.0168,0.4,344.55,0.057,0,0,0,0,0,0,0,0,267.76,0,0,0,0,0,0,0,0,0,0,0,0,0,0,0,253.61,FLYING
256.25,APPROACH,FLY_TO_FIX,74.46,81,6.54,2409.55,-5.26,8.62,11.91,343.94,0.422,0.8113,0,9.396,1,0.6,3.845,2.562,0.35,0.0168,0.4,344.55,0.123,0,0,0,0,0,0,0,0,267.76,0,0,0,0,0,0,0,0,0,0,0,0,0,0,0,256.49,FLYING
259.05,APPROACH,FLY_TO_FIX,76.65,81,4.35,2398.15,-4.89,8.9,11.86,343.98,-0.033,0.6113,0,11.672,1,0.6,3.849,2.562,0.35,0.0168,0.4,344.56,0.197,0,0,0,0,0,0,0,0,267.76,0,0,0,0,0,0,0,0,0,0,0,0,0,0,0,259.29,FLYING
261.85,APPROACH,FLY_TO_FIX,78.87,81,2.13,2384.09,-3.13,9.39,11.24,344.2,-0.576,0.4113,0,12.827,1,0.6,3.851,2.562,0.35,0.0168,0.4,344.57,0.257,0,0,0,0,0,0,0,0,267.76,0,0,0,0,0,0,0,0,0,0,0,0,0,0,0,262.09,FLYING
264.65,APPROACH,FLY_TO_FIX,80.79,81,0.21,2366.91,-1.72,9.38,10.38,344.35,-0.555,0.2113,0,13.003,1,0.6,3.853,2.562,0.35,0.0168,0.4,344.57,0.293,0,0,0,0,0,0,0,0,267.76,0,0,0,0,0,0,0,0,0,0,0,0,0,0,0,264.89,FLYING
266.88,APPROACH,FLY_TO_FIX,81.64,81,-0.64,2364.77,-0.98,9.51,10.07,344.42,-0.42,0.0113,0,12.938,1,0.6,3.854,2.562,0.35,0.0168,0.4,344.57,0.311,0,0,0,0,0,0,0,0,267.76,0,0,0,0,0,0,0,0,0,0,0,0,0,0,0,266.95,FLYING
267.66,APPROACH,FLY_TO_FIX,81.61,81,-0.61,2364.31,-0.8,9.65,10.1,344.45,-0.379,0,0,12.873,1,0.6,3.855,2.459,0.35,0.0168,0.4,344.58,0.315,0,0,0,0,0,0,0,0,267.76,0,0,0,0,0,0,0,0,0,0,0,0,0,0,0,267.72,FLYING
268.38,APPROACH,FLY_TO_FIX,81.4,81,-0.4,2361.43,-0.65,9.85,10.22,344.47,-0.34,0,0,12.809,1,0.6,3.856,2.361,0.35,0.0168,0.4,344.58,0.318,0,0,0,0,0,0,0,0,267.76,0,0,0,0,0,0,0,0,0,0,0,0,0,0,0,268.44,FLYING
269.1,APPROACH,FLY_TO_FIX,81.03,81,-0.03,2359.41,-0.53,10.08,10.38,344.48,-0.302,0,0,12.745,1,0.6,3.857,2.266,0.35,0.0168,0.4,344.58,0.32,0,0,0,0,0,0,0,0,267.76,0,0,0,0,0,0,0,0,0,0,0,0,0,0,0,269.16,FLYING
269.82,APPROACH,FLY_TO_FIX,80.52,81,0.48,2359.1,-0.42,10.35,10.58,344.5,-0.266,0.1149,0,12.96,1,0.6,3.858,2.176,0.35,0.0168,0.4,344.58,0.321,0,0,0,0,0,0,0,0,267.76,0,0,0,0,0,0,0,0,0,0,0,0,0,0,0,269.88,FLYING
270.54,APPROACH,FLY_TO_FIX,79.92,81,1.08,2357.58,-0.32,10.59,10.78,344.51,-0.23,0.2754,0,13.473,1,0.6,3.86,2.176,0.35,0.0168,0.4,344.58,0.322,0,0,0,0,0,0,0,0,267.76,0,0,0,0,0,0,0,0,0,0,0,0,0,0,0,270.6,FLYING
271.26,APPROACH,FLY_TO_FIX,79.29,81,1.71,2356.89,-0.24,10.83,10.97,344.52,-0.193,0.4262,0,14.301,1,0.6,3.861,2.176,0.35,0.0168,0.4,344.58,0.323,0,0,0,0,0,0,0,0,267.76,0,0,0,0,0,0,0,0,0,0,0,0,0,0,0,271.32,FLYING
271.98,APPROACH,FLY_TO_FIX,78.67,81,2.33,2358.56,-0.18,11.06,11.16,344.52,-0.16,0.5627,0,15.442,1,0.6,3.864,2.176,0.35,0.0168,0.4,344.58,0.324,0,0,0,0,0,0,0,0,267.76,0,0,0,0,0,0,0,0,0,0,0,0,0,0,0,272.04,FLYING
272.7,APPROACH,FLY_TO_FIX,78.07,81,2.93,2357,-0.12,11.27,11.34,344.53,-0.132,0.6845,0,16.884,1,0.6,3.866,2.176,0.35,0.0168,0.4,344.58,0.324,0,0,0,0,0,0,0,0,267.76,0,0,0,0,0,0,0,0,0,0,0,0,0,0,0,272.76,FLYING
273.42,APPROACH,FLY_TO_FIX,77.51,81,3.49,2356.74,-0.07,11.46,11.5,344.53,-0.108,0.7911,0,18.605,1,0.6,3.868,2.176,0.35,0.0168,0.4,344.58,0.324,0,0,0,0,0,0,0,0,267.76,0,0,0,0,0,0,0,0,0,0,0,0,0,0,0,273.48,FLYING
274.14,APPROACH,FLY_TO_FIX,77.01,81,3.99,2358.26,-0.03,11.62,11.64,344.53,-0.089,0.8729,0,20,1,0.6,3.871,2.176,0.35,0.0168,0.4,344.58,0.324,0,0,0,0,0,0,0,0,267.76,0,0,0,0,0,0,0,0,0,0,0,0,0,0,0,274.2,FLYING
274.86,APPROACH,FLY_TO_FIX,76.58,81,4.42,2362.79,0.01,11.75,11.74,344.53,-0.074,0.9125,0,20,1,0.6,3.873,2.176,0.35,0.0168,0.4,344.58,0.324,0,0,0,0,0,0,0,0,267.76,0,0,0,0,0,0,0,0,0,0,0,0,0,0,0,274.92,FLYING
275.58,APPROACH,FLY_TO_FIX,76.23,81,4.77,2361.9,0.05,11.85,11.82,344.53,-0.061,0.9344,0,20,1,0.6,3.876,2.176,0.35,0.0168,0.4,344.58,0.324,0,0,0,0,0,0,0,0,267.76,0,0,0,0,0,0,0,0,0,0,0,0,0,0,0,275.64,FLYING
276.3,APPROACH,FLY_TO_FIX,75.95,81,5.05,2357.88,0.08,11.92,11.87,344.53,-0.049,0.9404,0,20,1,0.6,3.878,2.176,0.35,0.0168,0.4,344.58,0.324,0,0,0,0,0,0,0,0,267.76,0,0,0,0,0,0,0,0,0,0,0,0,0,0,0,276.36,FLYING
277.02,APPROACH,FLY_TO_FIX,75.76,81,5.24,2356.26,0.11,11.96,11.89,344.53,-0.037,0.9326,0,20,1,0.6,3.881,2.176,0.35,0.0168,0.4,344.58,0.323,0,0,0,0,0,0,0,0,267.76,0,0,0,0,0,0,0,0,0,0,0,0,0,0,0,277.08,FLYING
277.74,APPROACH,FLY_TO_FIX,75.64,81,5.36,2354.33,0.14,11.96,11.87,344.53,-0.025,0.9128,0,20,1,0.6,3.883,2.176,0.35,0.0168,0.4,344.58,0.323,0,0,0,0,0,0,0,0,267.76,0,0,0,0,0,0,0,0,0,0,0,0,0,0,0,277.8,FLYING
278.46,APPROACH,FLY_TO_FIX,75.59,81,5.41,2353.09,0.17,11.94,11.84,344.53,-0.014,0.883,0,20,1,0.6,3.885,2.176,0.35,0.0168,0.4,344.58,0.323,0,0,0,0,0,0,0,0,267.76,0,0,0,0,0,0,0,0,0,0,0,0,0,0,0,278.52,FLYING
279.18,APPROACH,FLY_TO_FIX,75.62,81,5.38,2351.92,0.2,11.9,11.78,344.52,-0.005,0.8451,0,20,1,0.6,3.887,2.176,0.35,0.0168,0.4,344.58,0.322,0,0,0,0,0,0,0,0,267.76,0,0,0,0,0,0,0,0,0,0,0,0,0,0,0,279.24,FLYING
279.9,APPROACH,FLY_TO_FIX,75.71,81,5.29,2350.9,0.22,11.84,11.7,344.52,0.001,0.8011,0,20,1,0.6,3.889,2.176,0.35,0.0168,0.4,344.58,0.321,0,0,0,0,0,0,0,0,267.76,0,0,0,0,0,0,0,0,0,0,0,0,0,0,0,279.96,FLYING
280.62,APPROACH,FLY_TO_FIX,75.85,81,5.15,2348.46,0.25,11.76,11.61,344.52,0.005,0.7525,0,20,1,0.6,3.891,2.176,0.35,0.0168,0.4,344.58,0.32,0,0,0,0,0,0,0,0,267.76,0,0,0,0,0,0,0,0,0,0,0,0,0,0,0,280.68,FLYING
281.34,APPROACH,FLY_TO_FIX,76.05,81,4.95,2345.82,0.27,11.67,11.51,344.52,0.009,0.7011,0,20,1,0.6,3.892,2.176,0.35,0.0168,0.4,344.58,0.32,0,0,0,0,0,0,0,0,267.76,0,0,0,0,0,0,0,0,0,0,0,0,0,0,0,281.4,FLYING
282.06,APPROACH,FLY_TO_FIX,76.29,81,4.71,2340.39,0.3,11.58,11.39,344.51,0.01,0.6483,0,20,1,0.6,3.893,2.176,0.35,0.0168,0.4,344.58,0.319,0,0,0,0,0,0,0,0,267.76,0,0,0,0,0,0,0,0,0,0,0,0,0,0,0,282.12,FLYING
282.78,APPROACH,FLY_TO_FIX,76.56,81,4.44,2335.66,0.32,11.47,11.27,344.51,0.012,0.5954,0,20,1,0.6,3.894,2.176,0.35,0.0168,0.4,344.58,0.318,0,0,0,0,0,0,0,0,267.76,0,0,0,0,0,0,0,0,0,0,0,0,0,0,0,282.84,FLYING
283.5,APPROACH,FLY_TO_FIX,76.86,81,4.14,2329.52,0.34,11.36,11.15,344.51,0.013,0.5437,0,20,1,0.6,3.895,2.176,0.35,0.0168,0.4,344.58,0.317,0,0,0,0,0,0,0,0,267.76,0,0,0,0,0,0,0,0,0,0,0,0,0,0,0,283.56,FLYING
284.22,APPROACH,FLY_TO_FIX,77.18,81,3.82,2326.29,0.37,11.25,11.03,344.5,0.013,0.4941,0,20,1,0.6,3.895,2.176,0.35,0.0168,0.4,344.58,0.315,0,0,0,0,0,0,0,0,267.76,0,0,0,0,0,0,0,0,0,0,0,0,0,0,0,284.28,FLYING
284.94,APPROACH,FLY_TO_FIX,77.51,81,3.49,2322.67,0.39,11.14,10.9,344.5,0.013,0.4474,0,20,1,0.6,3.895,2.176,0.35,0.0168,0.4,344.58,0.314,0,0,0,0,0,0,0,0,267.76,0,0,0,0,0,0,0,0,0,0,0,0,0,0,0,285,FLYING
285.66,APPROACH,FLY_TO_FIX,77.83,81,3.17,2321.63,0.41,11.04,10.79,344.5,0.013,0.4053,0,20,1,0.6,3.895,2.176,0.35,0.0168,0.4,344.58,0.313,0,0,0,0,0,0,0,0,267.76,0,0,0,0,0,0,0,0,0,0,0,0,0,0,0,285.72,FLYING
286.38,APPROACH,FLY_TO_FIX,78.14,81,2.86,2323.19,0.43,10.96,10.71,344.5,0.012,0.3712,0,20,1,0.6,3.894,2.176,0.35,0.0168,0.4,344.58,0.311,0,0,0,0,0,0,0,0,267.76,0,0,0,0,0,0,0,0,0,0,0,0,0,0,0,286.44,FLYING
287.1,APPROACH,FLY_TO_FIX,78.41,81,2.59,2323.39,0.44,10.9,10.64,344.49,0.012,0.3474,0,20,1,0.6,3.894,2.176,0.35,0.0168,0.4,344.58,0.31,0,0,0,0,0,0,0,0,267.76,0,0,0,0,0,0,0,0,0,0,0,0,0,0,0,287.16,FLYING
287.82,APPROACH,FLY_TO_FIX,78.63,81,2.37,2324.63,0.46,10.86,10.59,344.49,0.01,0.3346,0,20,1,0.6,3.893,2.176,0.35,0.0168,0.4,344.58,0.308,0,0,0,0,0,0,0,0,267.76,0,0,0,0,0,0,0,0,0,0,0,0,0,0,0,287.88,FLYING
288.54,APPROACH,FLY_TO_FIX,78.8,81,2.2,2326.25,0.47,10.84,10.56,344.49,0.01,0.3319,0,20,1,0.6,3.893,2.176,0.35,0.0168,0.4,344.59,0.307,0,0,0,0,0,0,0,0,267.76,0,0,0,0,0,0,0,0,0,0,0,0,0,0,0,288.6,FLYING
289.26,APPROACH,FLY_TO_FIX,78.92,81,2.08,2325.55,0.48,10.83,10.54,344.49,0.009,0.3375,0,20,1,0.6,3.892,2.176,0.35,0.0168,0.4,344.59,0.305,0,0,0,0,0,0,0,0,267.76,0,0,0,0,0,0,0,0,0,0,0,0,0,0,0,289.32,FLYING
290.37,APPROACH,FLY_TO_FIX,79.01,81,1.99,2320.21,0.49,10.83,10.53,344.48,0.017,0.3472,0,20,1,0.6,3.891,2.176,0.35,0.0168,0.4,344.59,0.303,0,0,0,0,0,0,0,0,267.76,0,0,0,0,0,0,0,0,0,0,0,0,0,0,0,290.58,FLYING
293.13,APPROACH,FLY_TO_FIX,79.08,81,1.92,2329.5,0.51,10.9,10.6,344.47,0.033,0.3566,0,20,1,0.6,3.891,2.176,0.35,0.0168,0.4,344.59,0.296,0,0,0,0,0,0,0,0,267.76,0,0,0,0,0,0,0,0,0,0,0,0,0,0,0,293.37,FLYING
295.93,APPROACH,FLY_TO_FIX,78.95,81,2.05,2332.53,0.53,10.97,10.65,344.46,0.033,0.4034,0,20,1,0.6,3.89,2.176,0.35,0.0168,0.4,344.59,0.289,0,0,0,0,0,0,0,0,267.76,0,0,0,0,0,0,0,0,0,0,0,0,0,0,0,296.17,FLYING
298.73,APPROACH,FLY_TO_FIX,78.8,81,2.2,2349.91,0.55,11.02,10.69,344.45,0.027,0.4515,0,20,1,0.6,3.889,2.176,0.35,0.0168,0.4,344.59,0.281,0,0,0,0,0,0,0,0,267.76,0,0,0,0,0,0,0,0,0,0,0,0,0,0,0,298.97,FLYING
301.53,APPROACH,FLY_TO_FIX,78.73,81,2.27,2365.3,0.58,11.04,10.69,344.45,0.017,0.4752,0,20,1,0.6,3.889,2.176,0.35,0.0168,0.4,344.59,0.274,0,0,0,0,0,0,0,0,267.76,0,0,0,0,0,0,0,0,0,0,0,0,0,0,0,301.77,FLYING
304.33,APPROACH,FLY_TO_FIX,78.82,81,2.18,2379.96,0.62,11,10.63,344.44,0.01,0.463,0,20,1,0.6,3.888,2.176,0.35,0.0168,0.4,344.6,0.265,0,0,0,0,0,0,0,0,267.76,0,0,0,0,0,0,0,0,0,0,0,0,0,0,0,304.57,FLYING
307.13,APPROACH,FLY_TO_FIX,79.08,81,1.92,2384.39,0.66,10.91,10.51,344.45,-0.001,0.4171,0,20,1,0.6,3.888,2.176,0.35,0.0168,0.4,344.6,0.256,0,0,0,0,0,0,0,0,267.76,0,0,0,0,0,0,0,0,0,0,0,0,0,0,0,307.37,FLYING
309.93,APPROACH,FLY_TO_FIX,79.44,81,1.56,2382.05,0.7,10.79,10.38,344.45,-0.01,0.3528,0,20,1,0.6,3.887,2.176,0.35,0.0168,0.4,344.6,0.247,0,0,0,0,0,0,0,0,267.76,0,0,0,0,0,0,0,0,0,0,0,0,0,0,0,310.17,FLYING
312.73,APPROACH,FLY_TO_FIX,79.71,81,1.29,2399.6,0.71,10.74,10.33,344.45,-0.016,0.3107,0,20,1,0.6,3.885,2.176,0.35,0.0168,0.4,344.6,0.237,0,0,0,0,0,0,0,0,267.76,0,0,0,0,0,0,0,0,0,0,0,0,0,0,0,312.97,FLYING
315.53,APPROACH,FLY_TO_FIX,79.62,81,1.38,2410.59,0.67,10.82,10.42,344.46,-0.014,0.3456,0,20,1,0.6,3.884,2.176,0.35,0.0168,0.4,344.6,0.227,0,0,0,0,0,0,0,0,267.76,0,0,0,0,0,0,0,0,0,0,0,0,0,0,0,315.77,FLYING
318.33,APPROACH,FLY_TO_FIX,79.26,81,1.74,2416.56,0.64,10.93,10.55,344.46,-0.013,0.4366,0,20,1,0.6,3.883,2.176,0.35,0.0168,0.4,344.61,0.218,0,0,0,0,0,0,0,0,267.76,0,0,0,0,0,0,0,0,0,0,0,0,0,0,0,318.57,FLYING
321.13,APPROACH,FLY_TO_FIX,78.94,81,2.06,2426.68,0.61,11,10.64,344.46,-0.009,0.5109,0,20,1,0.6,3.883,2.176,0.35,0.0168,0.4,344.61,0.209,0,0,0,0,0,0,0,0,267.76,0,0,0,0,0,0,0,0,0,0,0,0,0,0,0,321.37,FLYING
323.93,APPROACH,FLY_TO_FIX,78.8,81,2.2,2426.3,0.61,11.01,10.65,344.46,-0.006,0.5369,0,20,1,0.6,3.882,2.176,0.35,0.0168,0.4,344.61,0.201,0,0,0,0,0,0,0,0,267.76,0,0,0,0,0,0,0,0,0,0,0,0,0,0,0,324.17,FLYING
326.73,APPROACH,FLY_TO_FIX,78.95,81,2.05,2415.93,0.63,10.92,10.55,344.47,-0.009,0.501,0,20,1,0.6,3.882,2.176,0.35,0.0168,0.4,344.61,0.192,0,0,0,0,0,0,0,0,267.76,0,0,0,0,0,0,0,0,0,0,0,0,0,0,0,326.97,FLYING
329.53,APPROACH,FLY_TO_FIX,79.37,81,1.63,2413.7,0.66,10.76,10.37,344.47,-0.017,0.4129,0,20,1,0.6,3.881,2.176,0.35,0.0168,0.4,344.62,0.183,0,0,0,0,0,0,0,0,267.76,0,0,0,0,0,0,0,0,0,0,0,0,0,0,0,329.77,FLYING
332.33,APPROACH,FLY_TO_FIX,79.93,81,1.07,2424.21,0.69,10.58,10.18,344.48,-0.022,0.3057,0,20,1,0.6,3.879,2.176,0.35,0.0168,0.4,344.62,0.174,0,0,0,0,0,0,0,0,267.76,0,0,0,0,0,0,0,0,0,0,0,0,0,0,0,332.57,FLYING
335.13,APPROACH,FLY_TO_FIX,80.22,81,0.78,2416.78,0.66,10.56,10.17,344.48,-0.023,0.2567,0,20,1,0.6,3.878,2.176,0.35,0.0168,0.4,344.62,0.165,0,0,0,0,0,0,0,0,267.76,0,0,0,0,0,0,0,0,0,0,0,0,0,0,0,335.37,FLYING
337.93,APPROACH,FLY_TO_FIX,79.85,81,1.15,2404.47,0.58,10.73,10.39,344.49,-0.012,0.3474,0,20,1,0.6,3.877,2.176,0.35,0.0168,0.4,344.62,0.156,0,0,0,0,0,0,0,0,267.76,0,0,0,0,0,0,0,0,0,0,0,0,0,0,0,338.17,FLYING
340.73,APPROACH,FLY_TO_FIX,79.1,81,1.9,2398.96,0.51,10.96,10.66,344.49,0,0.517,0,20,1,0.6,3.876,2.176,0.35,0.0168,0.4,344.63,0.148,0,0,0,0,0,0,0,0,267.76,0,0,0,0,0,0,0,0,0,0,0,0,0,0,0,340.97,FLYING
343.53,APPROACH,FLY_TO_FIX,78.47,81,2.53,2403.88,0.47,11.11,10.83,344.49,0.003,0.6431,0,20,1,0.6,3.876,2.176,0.35,0.0168,0.4,344.63,0.141,0,0,0,0,0,0,0,0,267.76,0,0,0,0,0,0,0,0,0,0,0,0,0,0,0,343.77,FLYING
346.33,APPROACH,FLY_TO_FIX,78.25,81,2.75,2401.87,0.47,11.11,10.83,344.48,0.003,0.6719,0,20,1,0.6,3.876,2.176,0.35,0.0168,0.4,344.63,0.134,0,0,0,0,0,0,0,0,267.76,0,0,0,0,0,0,0,0,0,0,0,0,0,0,0,346.57,FLYING
349.13,APPROACH,FLY_TO_FIX,78.58,81,2.42,2390.59,0.52,10.94,10.63,344.49,-0.005,0.5853,0,20,1,0.6,3.875,2.176,0.35,0.0168,0.4,344.63,0.128,0,0,0,0,0,0,0,0,267.76,0,0,0,0,0,0,0,0,0,0,0,0,0,0,0,349.37,FLYING
351.93,APPROACH,FLY_TO_FIX,79.38,81,1.62,2362.89,0.59,10.64,10.3,344.49,-0.016,0.4091,0,20,1,0.6,3.874,2.176,0.35,0.0168,0.4,344.64,0.12,0,0,0,0,0,0,0,0,267.76,0,0,0,0,0,0,0,0,0,0,0,0,0,0,0,352.17,FLYING
354.73,APPROACH,FLY_TO_FIX,80.3,81,0.7,2356.08,0.63,10.38,10.02,344.5,-0.026,0.2212,0,20,1,0.6,3.873,2.176,0.35,0.0168,0.4,344.64,0.112,0,0,0,0,0,0,0,0,267.76,0,0,0,0,0,0,0,0,0,0,0,0,0,0,0,354.97,FLYING
357.53,APPROACH,FLY_TO_FIX,80.6,81,0.4,2360.79,0.56,10.42,10.09,344.51,-0.023,0.1734,0,20,1,0.6,3.871,2.176,0.35,0.0168,0.4,344.64,0.104,0,0,0,0,0,0,0,0,267.76,0,0,0,0,0,0,0,0,0,0,0,0,0,0,0,357.77,FLYING
360.33,APPROACH,FLY_TO_FIX,79.74,81,1.26,2370.9,0.43,10.79,10.53,344.51,-0.004,0.372,0,20,1,0.6,3.87,2.176,0.35,0.0168,0.4,344.64,0.096,0,0,0,0,0,0,0,0,267.76,0,0,0,0,0,0,0,0,0,0,0,0,0,0,0,360.57,FLYING
363.13,APPROACH,FLY_TO_FIX,78.33,81,2.67,2375.12,0.32,11.23,11.03,344.5,0.014,0.572,0,20,1,0.6,3.87,2.176,0.35,0.0168,0.4,344.65,0.09,0,0,0,0,0,0,0,0,267.76,0,0,0,0,0,0,0,0,0,0,0,0,0,0,0,363.37,FLYING
365.93,APPROACH,FLY_TO_FIX,77.16,81,3.84,2377.42,0.25,11.55,11.39,344.5,0.019,0.772,0,20,1,0.6,3.871,2.176,0.35,0.0168,0.4,344.65,0.086,0,0,0,0,0,0,0,0,267.76,0,0,0,0,0,0,0,0,0,0,0,0,0,0,0,366.17,FLYING
368.73,APPROACH,FLY_TO_FIX,76.58,81,4.42,2369.25,0.26,11.63,11.47,344.49,0.017,0.972,0,20,1,0.6,3.871,2.176,0.35,0.0168,0.4,344.65,0.082,0,0,0,0,0,0,0,0,267.76,0,0,0,0,0,0,0,0,0,0,0,0,0,0,0,368.97,FLYING
371.53,APPROACH,FLY_TO_FIX,76.92,81,4.08,2352.85,0.35,11.37,11.16,344.49,0.005,0.8538,0,20,1,0.6,3.872,2.176,0.35,0.0168,0.4,344.66,0.079,0,0,0,0,0,0,0,0,267.76,0,0,0,0,0,0,0,0,0,0,0,0,0,0,0,371.77,FLYING
374.33,APPROACH,FLY_TO_FIX,78.27,81,2.73,2340.35,0.49,10.82,10.54,344.5,-0.018,0.6538,0,20,1,0.6,3.872,2.176,0.35,0.0168,0.4,344.66,0.073,0,0,0,0,0,0,0,0,267.76,0,0,0,0,0,0,0,0,0,0,0,0,0,0,0,374.57,FLYING
377.13,APPROACH,FLY_TO_FIX,80.23,81,0.77,2345.32,0.63,10.18,9.83,344.51,-0.043,0.4538,0,20,1,0.6,3.87,2.176,0.35,0.0168,0.4,344.66,0.066,0,0,0,0,0,0,0,0,267.76,0,0,0,0,0,0,0,0,0,0,0,0,0,0,0,377.37,FLYING
379.93,APPROACH,FLY_TO_FIX,82.25,81,-1.25,2371.67,0.7,9.66,9.28,344.53,-0.058,0.2538,0,19.9,1,0.6,3.868,2.176,0.35,0.0168,0.4,344.67,0.058,0,0,0,0,0,0,0,0,267.76,0,0,0,0,0,0,0,0,0,0,0,0,0,0,0,380.09,FLYING
382.73,APPROACH,FLY_TO_FIX,83.46,81,-2.46,2381.27,0.64,9.45,9.09,344.54,-0.048,0.0538,0,19.8,1,0.6,3.865,2.176,0.35,0.0168,0.4,344.67,0.048,0,0,0,0,0,0,0,0,267.76,0,0,0,0,0,0,0,0,0,0,0,0,0,0,0,382.89,FLYING
385.53,APPROACH,FLY_TO_FIX,83.03,81,-2.03,2372.39,0.47,9.76,9.48,344.55,-0.025,0,0,19.701,1,0.6,3.862,2.089,0.35,0.0168,0.4,344.67,0.04,0,0,0,0,0,0,0,0,267.76,0,0,0,0,0,0,0,0,0,0,0,0,0,0,0,385.77,FLYING
388.33,APPROACH,FLY_TO_FIX,80.84,81,0.16,2373.41,0.22,10.58,10.42,344.55,0.01,0.2,0,19.661,1,0.6,3.86,2.005,0.35,0.0168,0.4,344.67,0.034,0,0,0,0,0,0,0,0,267.76,0,0,0,0,0,0,0,0,0,0,0,0,0,0,0,388.57,FLYING
391.13,APPROACH,FLY_TO_FIX,77.72,81,3.28,2380.97,-0.01,11.59,11.57,344.54,0.029,0.4,0,20,1,0.6,3.861,2.005,0.35,0.0168,0.4,344.68,0.031,0,0,0,0,0,0,0,0,267.76,0,0,0,0,0,0,0,0,0,0,0,0,0,0,0,391.37,FLYING
393.93,APPROACH,FLY_TO_FIX,74.75,81,6.25,2390.67,-0.56,11.63,11.99,344.5,0.123,0.6,0,19.9,1,0.6,3.863,2.005,0.35,0.0168,0.4,344.68,0.032,0,0,0,0,0,0,0,0,267.76,0,0,0,0,0,0,0,0,0,0,0,0,0,0,0,394.09,FLYING
396.73,APPROACH,FLY_TO_FIX,72.84,81,8.16,2368.41,-2.37,10.47,11.99,344.41,0.285,0.8,0,19.8,1,0.6,3.866,2.005,0.35,0.0168,0.4,344.68,0.049,0,0,0,0,0,0,0,0,267.76,0,0,0,0,0,0,0,0,0,0,0,0,0,0,0,396.89,FLYING
399.53,APPROACH,FLY_TO_FIX,72.46,81,8.54,2340.83,-4.55,9.07,11.99,344.29,0.418,1,0,19.701,1,0.6,3.87,2.005,0.35,0.0168,0.4,344.69,0.094,0,0,0,0,0,0,0,0,267.76,0,0,0,0,0,0,0,0,0,0,0,0,0,0,0,399.69,FLYING
402.33,APPROACH,FLY_TO_FIX,73.65,81,7.35,2325.36,-6.11,8.05,11.92,344.16,0.448,1,0,19.603,1,0.6,3.873,2.005,0.35,0.0168,0.4,344.7,0.167,0,0,0,0,0,0,0,0,267.76,0,0,0,0,0,0,0,0,0,0,0,0,0,0,0,402.49,FLYING
405.13,APPROACH,FLY_TO_FIX,76.08,81,4.92,2296.22,-6.23,8.04,11.83,344.15,0.139,0.8,0,20,1,0.6,3.876,2.005,0.35,0.0168,0.4,344.71,0.255,0,0,0,0,0,0,0,0,267.76,0,0,0,0,0,0,0,0,0,0,0,0,0,0,0,405.37,FLYING
407.89,APPROACH,FLY_TO_FIX,78.88,81,2.12,2261.46,-4.44,8.76,11.38,344.31,-0.406,0.6,0,20,1,0.6,3.877,2.005,0.35,0.0168,0.4,344.72,0.335,0,0,0,0,0,0,0,0,267.76,0,0,0,0,0,0,0,0,0,0,0,0,0,0,0,408.09,FLYING
409.19,APPROACH,FLY_TO_FIX,80.48,81,0.52,2252.65,-3.52,8.57,10.61,344.38,-0.523,0.4,0,20,1,0.6,3.877,2.005,0.35,0.0168,0.4,344.73,0.368,0,0,0,0,0,0,0,0,267.76,0,0,0,0,0,0,0,0,0,0,0,0,0,0,0,409.25,FLYING
409.91,APPROACH,FLY_TO_FIX,81.18,81,-0.18,2247.56,-3.1,8.54,10.34,344.42,-0.541,0.2,0,19.9,1,0.6,3.877,2.005,0.35,0.0168,0.4,344.73,0.381,0,0,0,0,0,0,0,0,267.76,0,0,0,0,0,0,0,0,0,0,0,0,0,0,0,409.95,FLYING
410.63,APPROACH,FLY_TO_FIX,81.79,81,-0.79,2242.24,-2.73,8.58,10.15,344.46,-0.541,0,0,19.8,1,0.6,3.877,2.005,0.35,0.0168,0.4,344.73,0.391,0,0,0,0,0,0,0,0,267.76,0,0,0,0,0,0,0,0,0,0,0,0,0,0,0,410.67,FLYING
411.35,APPROACH,FLY_TO_FIX,82.19,81,-1.19,2233.94,-2.38,8.74,10.09,344.49,-0.538,0,0,19.701,1,0.6,3.876,1.925,0.35,0.0168,0.4,344.74,0.401,0,0,0,0,0,0,0,0,267.76,0,0,0,0,0,0,0,0,0,0,0,0,0,0,0,411.41,FLYING
412.07,APPROACH,FLY_TO_FIX,82.34,81,-1.34,2229.02,-2.05,8.92,10.08,344.53,-0.518,0,0,19.603,1,0.6,3.876,1.848,0.35,0.0168,0.4,344.74,0.409,0,0,0,0,0,0,0,0,267.76,0,0,0,0,0,0,0,0,0,0,0,0,0,0,0,412.13,FLYING
412.79,APPROACH,FLY_TO_FIX,82.29,81,-1.29,2227.25,-1.75,9.13,10.12,344.56,-0.486,0,0,19.505,1,0.6,3.875,1.774,0.35,0.0168,0.4,344.74,0.415,0,0,0,0,0,0,0,0,267.76,0,0,0,0,0,0,0,0,0,0,0,0,0,0,0,412.85,FLYING
413.51,APPROACH,FLY_TO_FIX,82.06,81,-1.06,2222.84,-1.48,9.37,10.22,344.58,-0.447,0.0232,0,18.962,1,0.6,3.875,1.703,0.35,0.0168,0.4,344.74,0.421,0,0,0,0,0,0,0,0,267.76,0,0,0,0,0,0,0,0,0,0,0,0,0,0,0,413.57,FLYING
414.23,APPROACH,FLY_TO_FIX,81.68,81,-0.68,2216.46,-1.24,9.64,10.35,344.61,-0.405,0.1382,0,18.602,1,0.6,3.875,1.635,0.35,0.0168,0.4,344.74,0.426,0,0,0,0,0,0,0,0,267.76,0,0,0,0,0,0,0,0,0,0,0,0,0,0,0,414.29,FLYING
414.95,APPROACH,FLY_TO_FIX,81.21,81,-0.21,2211.45,-1.03,9.88,10.48,344.63,-0.362,0.26,0,18.479,1,0.6,3.875,1.635,0.35,0.0168,0.4,344.75,0.43,0,0,0,0,0,0,0,0,267.76,0,0,0,0,0,0,0,0,0,0,0,0,0,0,0,415.01,FLYING
416.26,APPROACH,FLY_TO_FIX,80.46,81,0.54,2208.77,-0.73,10.28,10.7,344.66,-0.274,0.4109,0,18.69,1,0.6,3.876,1.635,0.35,0.0168,0.4,344.75,0.435,0,0,0,0,0,0,0,0,267.76,0,0,0,0,0,0,0,0,0,0,0,0,0,0,0,416.48,FLYING
419.04,APPROACH,FLY_TO_FIX,78.61,81,2.39,2209.79,-0.29,11.11,11.26,344.68,-0.131,0.6109,0,19.808,1,0.6,3.878,1.635,0.35,0.0168,0.4,344.75,0.441,0,0,0,0,0,0,0,0,267.76,0,0,0,0,0,0,0,0,0,0,0,0,0,0,0,419.28,FLYING
421.84,APPROACH,FLY_TO_FIX,77.01,81,3.99,2199.32,0.01,11.66,11.65,344.7,-0.056,0.8109,0,19.709,1,0.6,3.881,1.635,0.35,0.0168,0.4,344.75,0.443,0,0,0,0,0,0,0,0,267.76,0,0,0,0,0,0,0,0,0,0,0,0,0,0,0,422,FLYING
424.64,APPROACH,FLY_TO_FIX,76.11,81,4.89,2198.26,0.2,11.89,11.77,344.69,0.004,1,0,19.61,1,0.6,3.884,1.635,0.35,0.0168,0.4,344.76,0.442,0,0,0,0,0,0,0,0,267.76,0,0,0,0,0,0,0,0,0,0,0,0,0,0,0,424.8,FLYING
427.44,APPROACH,FLY_TO_FIX,76.22,81,4.78,2194.56,0.39,11.72,11.5,344.68,0.039,1,0,19.512,1,0.6,3.887,1.635,0.35,0.0168,0.4,344.76,0.439,0,0,0,0,0,0,0,0,267.76,0,0,0,0,0,0,0,0,0,0,0,0,0,0,0,427.6,FLYING
430.24,APPROACH,FLY_TO_FIX,77.48,81,3.52,2197.58,0.61,11.17,10.82,344.67,0.054,0.8,0,20,1,0.6,3.889,1.635,0.35,0.0168,0.4,344.76,0.432,0,0,0,0,0,0,0,0,267.76,0,0,0,0,0,0,0,0,0,0,0,0,0,0,0,430.48,FLYING
433.04,APPROACH,FLY_TO_FIX,79.62,81,1.38,2208.19,0.86,10.49,10.01,344.65,0.053,0.6,0,20,1,0.6,3.889,1.635,0.35,0.0168,0.4,344.76,0.423,0,0,0,0,0,0,0,0,267.76,0,0,0,0,0,0,0,0,0,0,0,0,0,0,0,433.28,FLYING
435.84,APPROACH,FLY_TO_FIX,82.19,81,-1.19,2217.14,1.09,9.81,9.22,344.65,0.026,0.4,0,19.9,1,0.6,3.888,1.635,0.35,0.0168,0.4,344.77,0.411,0,0,0,0,0,0,0,0,267.76,0,0,0,0,0,0,0,0,0,0,0,0,0,0,0,436,FLYING
438.64,APPROACH,FLY_TO_FIX,84.49,81,-3.49,2235.83,1.21,9.32,8.66,344.65,-0.007,0.2,0,19.8,1,0.6,3.885,1.635,0.35,0.0168,0.4,344.77,0.395,0,0,0,0,0,0,0,0,267.76,0,0,0,0,0,0,0,0,0,0,0,0,0,0,0,438.8,FLYING
441.44,APPROACH,FLY_TO_FIX,85.54,81,-4.54,2254.07,1.18,9.2,8.55,344.66,-0.021,0,0,19.701,1,0.6,3.882,1.635,0.35,0.0168,0.4,344.78,0.378,0,0,0,0,0,0,0,0,267.76,0,0,0,0,0,0,0,0,0,0,0,0,0,0,0,441.6,FLYING
444.24,APPROACH,FLY_TO_FIX,84.69,81,-3.69,2261.28,0.99,9.61,9.05,344.66,-0.005,0,0,19.603,1,0.6,3.879,1.57,0.35,0.0168,0.4,344.78,0.363,0,0,0,0,0,0,0,0,267.76,0,0,0,0,0,0,0,0,0,0,0,0,0,0,0,444.48,FLYING
447.04,APPROACH,FLY_TO_FIX,82.06,81,-1.06,2269,0.71,10.48,10.05,344.66,0.023,0.1766,0,18.934,1,0.6,3.878,1.507,0.35,0.0168,0.4,344.78,0.349,0,0,0,0,0,0,0,0,267.76,0,0,0,0,0,0,0,0,0,0,0,0,0,0,0,447.28,FLYING
449.84,APPROACH,FLY_TO_FIX,78.68,81,2.32,2288.36,0.46,11.54,11.24,344.65,0.027,0.3766,0,19.95,1,0.6,3.879,1.507,0.35,0.0168,0.4,344.79,0.34,0,0,0,0,0,0,0,0,267.76,0,0,0,0,0,0,0,0,0,0,0,0,0,0,0,450.08,FLYING
452.64,APPROACH,FLY_TO_FIX,75.36,81,5.64,2295.78,0.09,12.04,11.99,344.63,0.087,0.5766,0,19.85,1,0.6,3.881,1.507,0.35,0.0168,0.4,344.8,0.334,0,0,0,0,0,0,0,0,267.76,0,0,0,0,0,0,0,0,0,0,0,0,0,0,0,452.8,FLYING
455.44,APPROACH,FLY_TO_FIX,72.99,81,8.01,2314.76,-1.57,10.98,11.99,344.54,0.268,0.7766,0,19.751,1,0.6,3.885,1.507,0.35,0.0168,0.4,344.8,0.34,0,0,0,0,0,0,0,0,267.76,0,0,0,0,0,0,0,0,0,0,0,0,0,0,0,455.6,FLYING
458.24,APPROACH,FLY_TO_FIX,72.19,81,8.81,2320.51,-3.88,9.48,11.99,344.42,0.403,0.9766,0,19.652,1,0.6,3.89,1.507,0.35,0.0168,0.4,344.81,0.374,0,0,0,0,0,0,0,0,267.76,0,0,0,0,0,0,0,0,0,0,0,0,0,0,0,458.4,FLYING
461.04,APPROACH,FLY_TO_FIX,73.07,81,7.93,2305.79,-5.76,8.26,11.94,344.27,0.505,1,0,19.554,1,0.6,3.894,1.507,0.35,0.0168,0.4,344.83,0.44,0,0,0,0,0,0,0,0,267.76,0,0,0,0,0,0,0,0,0,0,0,0,0,0,0,461.2,FLYING
463.84,APPROACH,FLY_TO_FIX,75.34,81,5.66,2303.02,-6.35,7.91,11.85,344.22,0.26,0.9588,0,20,1,0.6,3.898,1.507,0.35,0.0168,0.4,344.85,0.525,0,0,0,0,0,0,0,0,267.76,0,0,0,0,0,0,0,0,0,0,0,0,0,0,0,464.08,FLYING
466.64,APPROACH,FLY_TO_FIX,78.26,81,2.74,2291.27,-4.94,8.86,11.78,344.36,-0.319,0.7588,0,20,1,0.6,3.9,1.507,0.35,0.0168,0.4,344.88,0.609,0,0,0,0,0,0,0,0,267.76,0,0,0,0,0,0,0,0,0,0,0,0,0,0,0,466.88,FLYING
469.44,APPROACH,FLY_TO_FIX,81.26,81,-0.26,2281.2,-2.68,8.72,10.27,344.56,-0.626,0.5588,0,20,1,0.6,3.9,1.507,0.35,0.0168,0.4,344.91,0.666,0,0,0,0,0,0,0,0,267.76,0,0,0,0,0,0,0,0,0,0,0,0,0,0,0,469.68,FLYING
472.24,APPROACH,FLY_TO_FIX,84.35,81,-3.35,2279.1,-1.1,8.51,9.15,344.7,-0.553,0.3588,0,19.9,1,0.6,3.899,1.507,0.35,0.0168,0.4,344.93,0.696,0,0,0,0,0,0,0,0,267.76,0,0,0,0,0,0,0,0,0,0,0,0,0,0,0,472.4,FLYING
475.04,APPROACH,FLY_TO_FIX,86.83,81,-5.83,2277.98,-0.06,8.36,8.4,344.8,-0.386,0.1588,0,19.8,1,0.6,3.896,1.507,0.35,0.0168,0.4,344.95,0.706,0,0,0,0,0,0,0,0,267.76,0,0,0,0,0,0,0,0,0,0,0,0,0,0,0,475.2,FLYING
477.84,APPROACH,FLY_TO_FIX,87.79,81,-6.79,2289.83,0.51,8.47,8.19,344.86,-0.23,0,0,19.701,1,0.6,3.893,1.507,0.35,0.0168,0.4,344.96,0.704,0,0,0,0,0,0,0,0,267.76,0,0,0,0,0,0,0,0,0,0,0,0,0,0,0,478,FLYING
480.64,APPROACH,FLY_TO_FIX,86.78,81,-5.78,2292.52,0.67,8.98,8.6,344.88,-0.097,0,0,19.603,1,0.6,3.891,1.446,0.35,0.0168,0.4,344.97,0.695,0,0,0,0,0,0,0,0,267.76,0,0,0,0,0,0,0,0,0,0,0,0,0,0,0,480.88,FLYING
483.44,APPROACH,FLY_TO_FIX,84.12,81,-3.12,2306.57,0.65,9.87,9.48,344.9,-0.041,0,0,19.505,1,0.6,3.89,1.389,0.35,0.0168,0.4,344.98,0.685,0,0,0,0,0,0,0,0,267.76,0,0,0,0,0,0,0,0,0,0,0,0,0,0,0,483.68,FLYING
486.24,APPROACH,FLY_TO_FIX,80.47,81,0.53,2311.13,0.53,11.13,10.79,344.9,-0.006,0.2,0,19.599,1,0.6,3.892,1.375,0.35,0.0168,0.4,344.99,0.676,0,0,0,0,0,0,0,0,267.76,0,0,0,0,0,0,0,0,0,0,0,0,0,0,0,486.48,FLYING
489.04,APPROACH,FLY_TO_FIX,76.34,81,4.66,2314.03,0.36,12.21,11.98,344.9,0.018,0.4,0,19.501,1,0.6,3.895,1.375,0.35,0.0168,0.4,345,0.668,0,0,0,0,0,0,0,0,267.76,0,0,0,0,0,0,0,0,0,0,0,0,0,0,0,489.2,FLYING
491.84,APPROACH,FLY_TO_FIX,72.86,81,8.14,2304.69,-1.41,11.08,11.99,344.83,0.186,0.6,0,19.404,1,0.6,3.901,1.375,0.35,0.0168,0.4,345,0.67,0,0,0,0,0,0,0,0,267.76,0,0,0,0,0,0,0,0,0,0,0,0,0,0,0,492,FLYING
494.64,APPROACH,FLY_TO_FIX,71.03,81,9.97,2300.8,-4.54,8.99,11.99,344.75,0.287,0.8,0,19.307,1,0.6,3.907,1.375,0.35,0.0168,0.4,345.02,0.706,0,0,0,0,0,0,0,0,267.76,0,0,0,0,0,0,0,0,0,0,0,0,0,0,0,494.8,FLYING
496.88,APPROACH,ILS_TRACK,70.97,81,10.03,2299.81,-7.19,7.23,11.99,344.66,0.397,0.8,0,19.307,1,0.6,3.907,1.375,0.35,0.0168,0.4,345.02,0.706,0,0,0,0,0,0,0,0,267.76,0,0,0,0,0,0,0,0,0,0,0,0,0,0,0,497.04,FLYING
500.15,APPROACH,ILS_TRACK,72.93,80.6,7.67,2273.14,-10.06,5.51,11.98,344.38,1.513,1,0,19.21,1,0.6,3.914,1.375,0.35,0.0168,0.4,205.4,0,-118.65,-1041.38,58.016,64.068,1978.62,0,0,0,267.76,0,0,0,0,0,0,0,0,0,0,0,0,0,0,0,500.29,FLYING
501.6,APPROACH,ILS_TRACK,74.6,80.2,5.6,2265.01,-10.64,4.76,11.71,341.47,13.789,1,0,19.114,1,0.6,3.92,1.375,0.35,0.0168,0.4,159.3,0,-70.79,-1070.42,58.184,-21.096,367.587,0,0,0,267.76,0,0,0,0,0,0,0,0,0,0,0,0,0,0,0,501.64,FLYING
502.38,APPROACH,ILS_TRACK,75.59,79.8,4.21,2259.05,-11.24,3.13,10.62,339.15,19.99,0.8,0,20,1,0.6,3.925,1.375,0.35,0.0168,0.4,172.14,0,-50.25,-1082.56,58.251,-8.259,344.199,0,0,0,267.76,0,0,0,0,0,0,0,0,0,0,0,0,0,0,0,502.44,FLYING
503.18,APPROACH,ILS_TRACK,76.94,79.4,2.46,2249.43,-13.16,-0.95,7.95,337.12,29.063,0.6,0,20,1,0.6,3.929,1.375,0.35,0.0168,0.4,172.56,0,-27.21,-1096.12,58.32,-7.839,350.526,0,0,0,267.76,0,0,0,0,0,0,0,0,0,0,0,0,0,0,0,503.24,FLYING
503.98,APPROACH,ILS_TRACK,78.66,79,0.34,2241.6,-15.85,-3.19,8.04,333.65,38.22,0.4,0,20,1,0.6,3.932,1.375,0.35,0.0168,0.4,179.57,0,-1.71,-1111.21,58.389,-0.833,357.515,0,0,0,267.76,0,0,0,0,0,0,0,0,0,0,0,0,0,0,0,504.04,FLYING
504.78,APPROACH,ILS_TRACK,80.47,78.6,-1.87,2231.12,-18.56,-4.13,8.98,329.93,39.875,0.2,0,19.9,1,0.6,3.935,1.375,0.35,0.0168,0.4,177.92,0,27.04,-1128.4,58.459,-2.483,366.025,0,0,0,267.76,0,0,0,0,0,0,0,0,0,0,0,0,0,0,0,504.82,FLYING
505.58,APPROACH,ILS_TRACK,82.3,78.2,-4.1,2221.07,-21.05,-5.68,8.65,327.22,40.794,0,0,19.8,1,0.6,3.936,1.375,0.35,0.0168,0.4,177.64,0,59.69,-1147.7,58.528,-2.759,375.189,0,0,0,267.76,0,0,0,0,0,0,0,0,0,0,0,0,0,0,0,505.62,FLYING
506.38,APPROACH,ILS_TRACK,84.08,77.8,-6.28,2206.23,-23.57,-7.31,8.45,324.16,42.692,0,0,19.701,1,0.6,3.938,1.32,0.35,0.0168,0.4,176.71,0,96.31,-1168.96,58.596,-3.692,384.707,0,0,0,267.76,0,0,0,0,0,0,0,0,0,0,0,0,0,0,0,506.44,FLYING
507.18,APPROACH,ILS_TRACK,85.76,77.4,-8.36,2184.95,-26.23,-9.08,8.28,320.8,45.782,0,0,19.603,1,0.6,3.939,1.267,0.35,0.0168,0.4,175.19,0,136.99,-1192.23,58.664,-5.207,394.897,0,0,0,267.76,0,0,0,0,0,0,0,0,0,0,0,0,0,0,0,507.24,FLYING
508,APPROACH,ILS_TRACK,87.45,77,-10.45,2161.2,-29.19,-11.09,7.93,317.33,48.485,0,0,19.505,1,0.6,3.939,1.216,0.35,0.0168,0.4,173.78,0,183,-1218.28,58.731,-6.625,407.168,0,0,0,267.76,0,0,0,0,0,0,0,0,0,0,0,0,0,0,0,508.06,FLYING
508.82,APPROACH,ILS_TRACK,89.11,77.4,-11.71,2141.6,-32.36,-12.67,8.34,313.07,51.737,0,0,19.407,1,0.6,3.94,1.168,0.35,0.0168,0.4,172.61,0,233.44,-1246.71,58.797,-7.794,419.494,0,0,0,267.76,0,0,0,0,0,0,0,0,0,0,0,0,0,0,0,508.86,FLYING
509.62,APPROACH,ILS_TRACK,90.71,77.8,-12.91,2116.5,-35.76,-14.86,8.38,308.6,55.04,0,0,19.31,1,0.6,3.941,1.121,0.35,0.0168,0.4,170.39,0,287.02,-1276.88,58.858,-10.008,431.331,0,0,0,267.76,0,0,0,0,0,0,0,0,0,0,0,0,0,0,0,509.66,FLYING
510.42,APPROACH,ILS_TRACK,92.34,78.2,-14.14,2092.76,-39.35,-16.88,8.63,303.81,57.481,0,0,19.214,1,0.6,3.942,1.076,0.35,0.0168,0.4,169.48,0,345.08,-1309.62,58.915,-10.919,445.273,0,0,0,267.76,0,0,0,0,0,0,0,0,0,0,0,0,0,0,0,510.46,FLYING
511.22,APPROACH,ILS_TRACK,94.02,78.6,-15.42,2071.49,-43.27,-18.96,8.74,298.85,57.742,0,0,19.118,1,0.6,3.943,1.033,0.35,0.0168,0.4,168.94,0,407.53,-1345.12,58.968,-11.458,460.333,0,0,0,267.76,0,0,0,0,0,0,0,0,0,0,0,0,0,0,0,511.26,FLYING
512.02,APPROACH,ILS_TRACK,95.77,79,-16.77,2048.7,-47.07,-20.59,9,293.66,57.01,0,0,19.022,1,0.6,3.944,0.992,0.35,0.0168,0.4,169.31,0,474.29,-1383.4,59.016,-11.091,476.268,0,0,0,267.76,0,0,0,0,0,0,0,0,0,0,0,0,0,0,0,512.06,FLYING
512.82,APPROACH,ILS_TRACK,97.57,79.4,-18.17,2020.32,-50.68,-22.07,9.17,288.3,56.013,0,0,18.927,1,0.6,3.946,0.952,0.35,0.0168,0.4,169.78,0,545.08,-1424.34,59.058,-10.616,492.812,0,0,0,267.76,0,0,0,0,0,0,0,0,0,0,0,0,0,0,0,512.86,FLYING
513.62,APPROACH,ILS_TRACK,99.4,79.8,-19.6,1992,-54.03,-23.31,9.39,282.68,54.851,0,0,18.832,1,0.6,3.949,0.914,0.35,0.0168,0.4,170.36,0,619.61,-1467.74,59.094,-10.045,509.76,0,0,0,267.76,0,0,0,0,0,0,0,0,0,0,0,0,0,0,0,513.66,FLYING
514.42,APPROACH,ILS_TRACK,101.26,80.2,-21.06,1956.42,-57.04,-24.3,9.58,276.89,53.564,0,0,18.738,1,0.6,3.951,0.878,0.35,0.0168,0.4,170.99,0,697.45,-1513.34,59.123,-9.41,526.954,0,0,0,267.76,0,0,0,0,0,0,0,0,0,0,0,0,0,0,0,514.46,FLYING
515.22,APPROACH,ILS_TRACK,103.39,80.6,-22.79,1922.43,-60.41,-27.71,4.08,277.67,49.776,0,0,18.645,1,0.6,3.955,0.842,0.35,0.0168,0.4,172.4,0,778.13,-1561.11,59.144,-8,544.777,0,0,0,267.76,0,0,0,0,0,0,0,0,0,0,0,0,0,0,0,515.26,FLYING
516.02,APPROACH,ILS_TRACK,106.23,81,-25.23,1882.86,-64.12,-27.06,7.11,271.1,47.089,0,0,18.551,1,0.6,3.958,0.809,0.35,0.0168,0.4,174.27,0,860.71,-1611.33,59.159,-6.132,563.75,0,0,0,267.76,0,0,0,0,0,0,0,0,0,0,0,0,0,0,0,516.06,FLYING
516.82,APPROACH,ILS_TRACK,108.41,81,-27.41,1840.01,-65.72,-26.41,9.57,262.91,49.279,0,0,18.459,1,0.6,3.963,0.776,0.35,0.0168,0.4,173.4,0,945.14,-1663.4,59.168,-6.997,582.321,0,0,0,267.76,0,0,0,0,0,0,0,0,0,0,0,0,0,0,0,516.86,FLYING
517.62,APPROACH,ILS_TRACK,110.19,81,-29.19,1799.81,-66.81,-26.3,10.1,256.05,48.738,0,0,18.366,1,0.6,3.968,0.75,0.35,0.0168,0.4,173.45,0,1031.06,-1716.28,59.169,-6.953,599.508,0,0,0,267.76,0,0,0,0,0,0,0,0,0,0,0,0,0,0,0,517.66,FLYING
518.42,APPROACH,ILS_TRACK,111.8,81,-30.8,1757.05,-67.27,-25.81,10.28,249.54,47.805,0,0,18.274,1,0.6,3.974,0.75,0.35,0.0168,0.4,173.89,0,1117.43,-1769.33,59.159,-6.505,615.671,0,0,0,267.76,0,0,0,0,0,0,0,0,0,0,0,0,0,0,0,518.46,FLYING
519.22,APPROACH,ILS_TRACK,113.27,81,-32.27,1707.99,-67.04,-24.98,10.43,243.1,46.72,0,0,18.183,1,0.6,3.98,0.75,0.35,0.0168,0.4,174.43,0,1203.27,-1822.01,59.14,-5.974,630.89,0,0,0,267.76,0,0,0,0,0,0,0,0,0,0,0,0,0,0,0,519.26,FLYING
520.02,APPROACH,ILS_TRACK,114.57,81,-33.57,1659.15,-66.06,-23.81,10.56,236.79,45.563,0,0,18.092,1,0.6,3.988,0.75,0.35,0.0168,0.4,175,0,1287.51,-1873.75,59.11,-5.401,644.911,0,0,0,267.76,0,0,0,0,0,0,0,0,0,0,0,0,0,0,0,520.06,FLYING
520.82,APPROACH,ILS_TRACK,115.66,81,-34.66,1608.27,-64.29,-22.33,10.66,230.65,44.379,0,0,18.002,1,0.6,3.997,0.75,0.35,0.0168,0.4,175.59,0,1369.13,-1923.95,59.071,-4.81,657.499,0,0,0,267.76,0,0,0,0,0,0,0,0,0,0,0,0,0,0,0,520.86,FLYING
521.62,APPROACH,ILS_TRACK,116.53,81,-35.53,1556.83,-61.73,-20.56,10.75,224.72,43.19,0,0,17.912,1,0.6,4.007,0.75,0.35,0.0168,0.4,176.18,0,1447.13,-1971.99,59.022,-4.216,668.464,0,0,0,267.76,0,0,0,0,0,0,0,0,0,0,0,0,0,0,0,521.66,FLYING
522.42,APPROACH,ILS_TRACK,117.14,81,-36.14,1507.34,-58.42,-18.53,10.83,219.03,42.007,0,0,17.822,1,0.6,4.018,0.75,0.35,0.0168,0.4,176.78,0,1520.57,-2017.29,58.963,-3.624,677.661,0,0,0,267.76,0,0,0,0,0,0,0,0,0,0,0,0,0,0,0,522.46,FLYING
523.22,APPROACH,ILS_TRACK,117.49,81,-36.49,1459.43,-54.42,-16.29,10.9,213.58,40.823,0,0,17.733,1,0.6,4.03,0.75,0.35,0.0168,0.4,177.37,0,1588.61,-2059.29,58.896,-3.033,684.997,0,0,0,267.76,0,0,0,0,0,0,0,0,0,0,0,0,0,0,0,523.26,FLYING
524.02,APPROACH,ILS_TRACK,117.55,81,-36.55,1414.1,-49.82,-13.88,10.96,208.39,39.625,0,0,17.644,1,0.6,4.042,0.75,0.35,0.0168,0.4,177.96,0,1650.53,-2097.52,58.822,-2.436,690.424,0,0,0,267.76,0,0,0,0,0,0,0,0,0,0,0,0,0,0,0,524.06,FLYING
524.82,APPROACH,ILS_TRACK,117.31,81,-36.31,1372.41,-44.68,-11.52,10.77,203.67,38.336,0,0,17.556,1,0.6,4.056,0.75,0.35,0.0168,0.4,178.58,0,1705.75,-2131.57,58.741,-1.822,693.944,0,0,0,267.76,0,0,0,0,0,0,0,0,0,0,0,0,0,0,0,524.86,FLYING
525.62,APPROACH,ILS_TRACK,117.03,81,-36.03,1332.11,-39.83,-10.03,9.53,200.29,35.867,0,0,17.468,1,0.6,4.069,0.75,0.35,0.0168,0.4,179.69,0,1753.97,-2161.38,58.654,-0.706,696.118,0,0,0,267.76,0,0,0,0,0,0,0,0,0,0,0,0,0,0,0,525.66,FLYING
526.42,APPROACH,ILS_TRACK,116.88,81,-35.88,1293.69,-35.56,-8.47,8.51,197.87,31.307,0,0,17.381,1,0.6,4.084,0.75,0.35,0.0168,0.4,155.4,0,1795.66,-2187.29,58.563,-29.691,697.646,0,0,0,267.76,0,0,0,0,0,0,0,0,0,0,0,0,0,0,0,526.46,FLYING
527.22,APPROACH,ILS_TRACK,116.4,81,-35.4,1264.56,-30.72,-5.82,9.79,192.65,37.627,0,0,17.294,1,0.6,4.098,0.75,0.35,0.0168,0.4,180.09,0,1831.76,-2209.32,58.469,-0.311,698.034,0,0,0,267.76,0,0,0,0,0,0,0,0,0,0,0,0,0,0,0,527.26,FLYING
528.02,APPROACH,ILS_TRACK,116.06,81,-35.06,1243.18,-28.59,-7.42,6.75,190.52,37.39,0,0,17.208,1,0.6,4.113,0.75,0.35,0.0168,0.4,178.53,0,1861.35,-2228.38,58.373,-1.874,699.02,0,0,0,267.76,0,0,0,0,0,0,0,0,0,0,0,0,0,0,0,528.06,FLYING
528.82,APPROACH,ILS_TRACK,115.89,81,-34.89,1217.44,-26.15,-5.26,7.09,188.68,26.582,0,0,-0.249,1,0.6,4.128,0.75,0.35,0.0168,0.4,155.4,0,1885.01,-2245.33,58.275,-51.786,700.709,0,0,0,267.76,0,0,0,0,0,0,0,0,0,0,0,0,0,0,0,528.86,FLYING
529.62,APPROACH,ILS_TRACK,115.27,81,-34.27,1191.99,-21.6,-1.82,8.78,185.37,27.851,0,0,-0.248,1,0.6,4.142,0.75,0.35,0.0168,0.4,155.4,0,1903.93,-2259.57,58.176,-71.539,700.652,0,0,0,267.76,0,0,0,0,0,0,0,0,0,0,0,0,0,0,0,529.66,FLYING
530.42,APPROACH,ILS_TRACK,114.14,81,-33.14,1166.22,-17.54,-1.26,8.59,180.45,39.345,0,0,-0.247,1,0.6,4.157,0.75,0.35,0.0168,0.4,179.25,0,1917.93,-2270.43,58.076,-1.151,698.516,0,0,0,267.76,0,0,0,0,0,0,0,0,0,0,0,0,0,0,0,530.46,FLYING
531.22,APPROACH,ILS_TRACK,113.67,81,-32.67,1139.91,-18.32,-6.59,2.12,181.79,37.656,0,0,-0.245,1,0.6,4.172,0.75,0.35,0.0168,0.4,178.26,0,1925.68,-2279.77,57.976,-2.139,698.871,0,0,0,267.76,0,0,0,0,0,0,0,0,0,0,0,0,0,0,0,531.26,FLYING
532.02,APPROACH,ILS_TRACK,113.77,81,-32.77,1111.3,-19.37,-3.69,5.47,179.04,25.632,0,0,-0.244,1,0.6,4.186,0.75,0.35,0.0168,0.4,155.4,0,1929.54,-2289.48,57.876,-51.233,702.374,0,0,0,267.76,0,0,0,0,0,0,0,0,0,0,0,0,0,0,0,532.06,FLYING
532.82,APPROACH,ILS_TRACK,113.23,81,-32.23,1085.6,-16.41,-0.52,7.61,176.07,25.145,0,0,-0.243,1,0.6,4.2,0.75,0.35,0.0168,0.4,155.4,0,1929.99,-2298.67,57.776,-77.423,704.318,0,0,0,267.76,0,0,0,0,0,0,0,0,0,0,0,0,0,0,0,532.86,FLYING
533.62,APPROACH,ILS_TRACK,112.34,81,-31.34,1062.12,-13.75,-0.41,7.11,172.41,33.375,0,0,-15.957,1,0.6,4.213,0.75,0.35,0.0168,0.4,163.92,0,1926.54,-2305.86,57.677,-16.481,703.257,0,0,0,267.76,0,0,0,0,0,0,0,0,0,0,0,0,0,0,0,533.66,FLYING
