t_s,phase,subphase,ias_ms,vapp_ms,spd_err_ms,agl_m,vs_ms,pitch_deg,aoa_deg,hdg_deg,bank_deg,thr_cmd,thr_cur,thr_intg,at_gain,at_tau_s,at_a_up,at_a_dn,at_kp_thr,at_ki_spd,at_thr_slew,aa_hdg_cmd_deg,aa_fpa_cmd_deg,ils_loc_m,ils_gs_m,ils_dist_km,loc_corr_deg,gs_corr_deg,flare_fpa_cmd,flare_tgt_vs,flare_frac,steer_hdg_deg,steer_blend,ro_loc_corr_deg,ro_hdg_err_deg,ro_yaw_tgt,ro_yaw_scale,ro_yaw_gate,yaw_cmd,roll_cmd,pitch_cmd,ro_pitch_tgt_deg,ro_pitch_err_deg,ro_pitch_ff,ro_roll_assist,flaps_cur,flaps_tgt,asc_j_ab,asc_j_rk,asc_validity,asc_q_pa,asc_q_raw_pa,asc_mach,asc_apo_m,asc_drag_n,asc_w_prop,asc_edot_aero,asc_edot_orb,asc_pitch_bias,asc_blend,asc_spooling,asc_ab_thr_ratio,asc_ab_t_now,asc_ab_t_avail,asc_ab_ign_on,asc_ab_flameouts,asc_rk_t_now,asc_rk_t_avail,asc_rk_ign_on,asc_rk_flameouts,ship_thrust,ship_avail_thrust,ship_ign_on,ship_flameouts,ifc_raw_dt_s,ifc_dt_s,ifc_loop_n,ifc_hz_est,ifc_raw_dt_max_s,ifc_raw_dt_min_s,phase_el_s,status
0.94,TAKEOFF,TO_PREFLIGHT,0.35,80,79.65,4.34,-0.28,2.11,65.78,88.92,-0.046,0.2,0,0,0,0,0,0,0,0,0,90.4,0,0,0,0,0,0,0,0,0,90.4,1,0,-1.487,0,0,1,0,0,0,0,0,0,0,1,2,0,0,VALID,0,0,0,0,0,1,0,0,0,0,0,0,0,0,0,0,0,0,0,0,0,888.41,2,0,0.78,0.5,1,0.19,0.78,0.02,0.22,LANDED
6.36,TAKEOFF,TO_PREFLIGHT,0.16,80,79.84,3.59,0,-0.23,-0.94,89.16,-0.061,1,0,0,0,0,0,0,0,0,0,90.4,0,0,0,0,0,0,0,0,0,90.4,1,0,-1.487,0,0,1,0,0,0,0,0,0,0,2,2,0,0,VALID,0,0,0,0,0,1,0,0,0,0,0,0,0,0,0,0,0,0,0,0,495.11,888.39,2,0,0.62,0.5,10,1.66,0.78,0.52,5.64,LANDED
11.38,TAKEOFF,TO_GROUND_ROLL,6.04,80,73.96,3.62,0,-0.11,-0.1,89.69,-0.048,1,0,0,0,0,0,0,0,0,0,90.41,0,0,0,0,0.02,0,0,0,0,90.41,1,0.02,-0.732,0.02,0.607,0,0.02,0,0,0,0,0,0,2,2,0,0,VALID,0,0,0,0,0,1,0,0,0,0,0,0,0,0,0,0,0,0,0,0,744.98,888.18,2,0,0.66,0.5,18,1.59,0.66,0.58,10.66,LANDED
16.64,TAKEOFF,TO_GROUND_ROLL,32.11,80,47.89,3.62,-0.07,-0.09,0.02,90.57,-0.033,1,0,0,0,0,0,0,0,0,0,90.4,0,0,0,0,0.05,0,0,0,0,90.4,1,0.05,0.133,-0.0107,0.867,0,-0.0107,0,0,0,0,0,0,2,2,0,0,VALID,0,0,0,0,0,1,0,0,0,0,0,0,0,0,0,0,0,0,0,0,834.62,884.29,2,0,0.68,0.5,26,1.53,0.72,0.62,15.92,LANDED
21.94,TAKEOFF,TO_GROUND_ROLL,60.15,80,19.85,3.62,-0.1,-0.08,0.01,91.61,-0.028,1,0,0,0,0,0,0,0,0,0,90.26,0,0,0,0,-0.094,0,0,0,0,90.26,1,-0.094,1.322,-0.0684,1,0,-0.0684,0,0,0,0,0,0,2,2,0,0,VALID,0,0,0,0,0,1,0,0,0,0,0,0,0,0,0,0,0,0,0,0,862.77,879.85,2,0,0.68,0.5,34,1.52,0.72,0.62,21.22,LANDED
27.24,TAKEOFF,TO_GROUND_ROLL,88.99,80,-8.99,3.63,-0.07,0,0.05,92.2,-0.04,1,0,0,0,0,0,0,0,0,0,89.75,0,0,0,0,-0.621,0,0,0,0,89.75,1,-0.621,2.442,-0.1199,1,0,-0.1199,0,0,0,0,0,0,2,2,0,0,VALID,0,0,0,0,0,1,0,0,0,0,0,0,0,0,0,0,0,0,0,0,903.49,909.89,2,0,0.68,0.5,42,1.52,0.72,0.62,26.52,LANDED
32.54,TAKEOFF,TO_GROUND_ROLL,120.46,80,-40.46,3.62,0.03,0,-0.01,90.56,-0.184,1,0,0,0,0,0,0,0,0,0,89.27,0,0,0,0,-1.3,0,0,0,0,89.27,1,-1.3,1.397,-0.0449,1,0,-0.0449,0,0,0,0,0,0,2,2,0,0,VALID,0,0,0,0,0,1,0,0,0,0,0,0,0,0,0,0,0,0,0,0,1018.59,1021.46,2,0,0.68,0.5,50,1.52,0.72,0.62,31.82,LANDED
37.86,TAKEOFF,TO_GROUND_ROLL,156.6,80,-76.6,3.63,0.23,0.1,0.02,89.84,0.005,1,0,0,0,0,0,0,0,0,0,89.38,0,0,0,0,-1.033,0,0,0,0,89.38,1,-1.033,0.461,-0.0208,1,0,-0.0208,0,0,0,0,0,0,2,2,0,0,VALID,0,0,0,0,0,1,0,0,0,0,0,0,0,0,0,0,0,0,0,0,1164.78,1166.35,2,0,0.68,0.5,58,1.51,0.72,0.62,37.14,LANDED
42.98,TAKEOFF,TO_CLIMB,186.2,80,-106.2,37.6,5.91,21.33,19.53,90.41,-1.777,1,0,0,0,0,0,0,0,0,0,90.4,11.5,0,0,0,0,0,0,0,0,90.4,1,0,0.009,0,0,3,0,0,0,11.5,-9.707,0,0,2,2,0,0,VALID,0,0,0,0,0,1,0,0,0,0,0,0,0,0,0,0,0,0,0,0,1304.32,1304.89,2,0,0.6,0.5,66,1.57,0.72,0.56,42.24,FLYING
48.22,TAKEOFF,TO_CLIMB,202.84,80,-122.84,172.43,24.14,16.88,10.08,90.44,-0.502,0.82,0,0,0,0,0,0,0,0,0,90.4,7,0,0,0,0,0,0,0,0,90.4,1,0,0.042,0,0,3,0,0,0,11.5,-9.707,0,0,1,1,0,0,VALID,0,0,0,0,0,1,0,0,0,0,0,0,0,0,0,0,0,0,0,0,1201.8,1380.4,2,0,0.54,0.5,75,1.72,0.7,0.54,47.5,FLYING
53.56,ASCENT,,229.27,80,-149.27,311.45,28.14,14.96,7.94,90.39,-0.043,0.82,0,0,0,0,0,0,0,0,0,90.4,7,0,0,0,0,0,0,0,0,90.4,1,0,-0.011,0,0,3,0,0,0,11.5,-9.707,0,0,1,1,0,0,VALID,0,0,0,0,0,1,0,0,0,0,0,0,0,0,0,0,0,0,0,0,1248.89,1509.21,2,0,0.6,0.5,84,1.69,0.68,0.54,0.1,FLYING
58.68,ASCENT,AB_CORRIDOR,261.52,80,-181.52,467.62,34.18,14.4,6.87,90.4,-0.09,0.9408,0,0,0,0,0,0,0,0,0,90.4,8.42,0,0,0,0,0,0,0,0,90.4,1,0,-0.011,0,0,3,0,0,0,11.5,-9.707,0,0,1,1,18.747,3.303,VALID,33944.5,36061.2,0.738,435,0,1.1169,2377.14,2631.54,0.891,0,0,0.908,1511.43,1664.56,2,0,1512.91,416.32,2,0,1528.32,1677.58,2,0,0.82,0.5,90,1.17,0.98,0.6,5.22,FLYING
64.4,ASCENT,AB_CORRIDOR,300.12,80,-220.12,728.34,60.7,19.82,8.05,90.4,0.008,0.7984,0,0,0,0,0,0,0,0,0,90.4,14.018,0,0,0,0,0,0,0,0,90.4,1,0,-0.011,0,0,3,0,0,0,11.5,-9.707,0,0,1,1,15.141,2.822,VALID,43439.1,45867.3,0.848,686,0,1.1179,3948.72,4451.06,2.322,0,0,0.8698,1628.83,1872.72,2,0,1628.5,468.31,2,0,1623.9,1880.66,2,0,0.78,0.5,97,1.22,0.86,0.78,10.94,FLYING
70.2,ASCENT,AB_CORRIDOR,321.62,80,-241.62,1207.28,105.54,27.64,8.54,90.4,0.01,0.6971,0,0,0,0,0,0,0,0,0,90.4,21.976,0,0,0,0,0,0,0,0,90.4,1,0,-0.011,0,0,3,0,0,0,11.5,-9.707,0,0,1,1,14.028,2.763,VALID,50194.9,51280.1,0.928,1285,0,1.119,4456.67,4231.27,3.008,0,0,0.7539,1483.71,1967.98,2,0,1482.54,491.96,2,0,1472.43,1967.86,2,0,0.84,0.5,104,1.21,0.94,0.78,16.74,FLYING
75.92,ASCENT,AB_CORRIDOR,324.65,80,-244.65,1933.24,140.73,29.64,4.92,90.4,0.016,0.6844,0,0,0,0,0,0,0,0,0,90.4,25,0,0,0,0,0,0,0,0,90.4,1,0,-0.011,0,0,3,0,0,0,11.5,-9.707,0,0,1,1,14.271,2.927,VALID,51043,51083.5,0.979,2317,0,1.1199,4349.85,3747.73,3.056,0,0,0.6953,1346.49,1936.68,2,0,1346.25,484.16,2,0,1343.93,1936.32,2,0,0.78,0.5,111,1.22,0.88,0.78,22.46,FLYING
81.72,ASCENT,AB_CORRIDOR,330.69,80,-250.69,2778.75,150.39,29.45,4.42,90.4,0,0.6804,0,0,0,0,0,0,0,0,0,90.4,25,0,0,0,0,0,0,0,0,90.4,1,0,-0.011,0,0,3,0,0,0,11.5,-9.707,0,0,1,1,15.29,3.342,VALID,51307.4,51316.1,1.049,3358,0,1.1208,4335.2,4628.82,3.083,0,0,0.6834,1321.16,1933.2,2,0,1321.1,483.3,2,0,1320.59,1933.32,2,0,0.84,0.5,118,1.21,0.94,0.78,28.26,FLYING
87.46,ASCENT,AB_CORRIDOR,334.4,80,-254.4,3666.66,158.9,29.37,4.23,90.4,-0.014,0.6859,0,0,0,0,0,0,0,0,0,90.4,25,0,0,0,0,0,0,0,0,90.4,1,0,-0.011,0,0,3,0,0,0,11.5,-9.707,0,0,1,1,16.134,3.785,VALID,50939.6,50774.4,1.121,4386,0,1.1217,4433.05,5034.34,3.101,0,0,0.6822,1325.78,1943.27,2,0,1325.87,485.84,2,0,1326.94,1944.5,2,0,0.78,0.5,125,1.22,0.88,0.78,34,FLYING
93.2,ASCENT,AB_CORRIDOR,336.46,80,-256.46,4602.66,167.36,29.23,4.04,90.4,-0.037,0.6995,0,0,0,0,0,0,0,0,0,90.4,25,0,0,0,0,0,0,0,0,90.4,1,0,-0.011,0,0,3,0,0,0,11.5,-9.707,0,0,1,1,11.885,4.267,DEGRADED,50031.1,49744.8,1.2,5449,0,1.1226,4639.36,5413.75,2.966,0,0,0.6887,1360.56,1975.51,2,0,1360.83,493.92,2,0,1363.62,1978.28,2,0,0.82,0.5,132,1.22,0.92,0.78,39.74,FLYING
98.9,ASCENT,AB_CORRIDOR,336.85,80,-256.85,5582.16,176.92,28.19,2.86,90.4,-0.078,0.7197,0,0,0,0,0,0,0,0,0,90.4,25,0,0,0,0,0,0,0,0,90.4,1,0,-0.011,0,0,3,0,0,0,11.5,-9.707,0,0,1,1,12.545,4.804,DEGRADED,48688.6,48291.8,1.286,6575,0,1.1235,4978.99,5762.48,2.837,0,0,0.702,1427.25,2033.08,2,0,1427.73,508.34,2,0,1432.82,2038.18,2,0,0.78,0.5,139,1.23,0.88,0.78,45.44,FLYING
104.68,ASCENT,AB_CORRIDOR,338.17,80,-258.17,6631.73,186.95,28.51,3.3,90.4,-0.038,0.7391,0,0,0,0,0,0,0,0,0,90.4,25,0,0,0,0,0,0,0,0,90.4,1,0,-0.011,0,0,3,0,0,0,11.5,-9.707,0,0,1,1,13.316,5.424,DEGRADED,47396.3,47070.8,1.394,7781,0,1.1245,5495.54,6733.42,2.713,0,0,0.7205,1543.12,2141.85,2,0,1543.82,535.58,2,0,1551.08,2149.7,2,0,0.84,0.5,146,1.21,0.92,0.78,51.22,FLYING
110.38,ASCENT,AB_CORRIDOR,338.77,80,-258.77,7731.78,199.48,28.96,3.75,90.4,-0.022,0.7584,0,0,0,0,0,0,0,0,0,90.4,25,0,0,0,0,0,0,0,0,90.4,1,0,-0.011,0,0,3,0,0,0,11.5,-9.707,0,0,1,1,14.108,6.105,DEGRADED,46108.4,45763.5,1.521,9101,0,1.1256,6231.02,7719.55,2.567,0,0,0.7391,1695.61,2294.22,2,0,1696.51,573.71,2,0,1705.77,2304.51,2,0,0.78,0.5,153,1.23,0.88,0.78,56.92,FLYING
116.1,ASCENT,AB_CORRIDOR,337.7,80,-257.7,8914.76,214.62,29.37,4.16,90.4,-0.02,0.7795,0,0,0,0,0,0,0,0,0,90.4,25,0,0,0,0,0,0,0,0,90.4,1,0,-0.011,0,0,3,0,0,0,11.5,-9.707,0,0,1,1,14.905,6.82,DEGRADED,44698.1,44277.9,1.675,10562,0,1.1268,7183.85,9141.52,2.401,0,0,0.7588,1860.2,2451.51,2,0,1860.59,612.91,2,0,1864.64,2453.54,2,0,0.82,0.5,160,1.22,0.92,0.78,62.64,FLYING
121.82,ASCENT,AB_CORRIDOR,325.92,80,-245.92,10190.08,231.57,29.95,4.73,90.4,-0.017,0.8287,0,0,0,0,0,0,0,0,0,90.4,25,0,0,0,0,0,0,0,0,90.4,1,0,-0.011,0,0,3,0,0,0,11.5,-9.707,0,0,1,1,15.439,7.415,DEGRADED,41422.8,40421,1.813,12199,0,1.128,8104.22,10558.09,1.989,0,0,0.7874,1931.67,2453.28,2,0,1932.03,613.29,2,0,1935.78,2451.37,2,0,0.78,0.5,167,1.22,0.88,0.78,68.36,FLYING
127.54,ASCENT,AB_CORRIDOR,310.87,80,-230.87,11565.85,249.76,30.66,5.42,90.4,-0.013,0.8906,0,0,0,0,0,0,0,0,0,90.4,25,0,0,0,0,0,0,0,0,90.4,1,0,-0.011,0,0,3,0,0,0,11.5,-9.707,0,0,1,1,16.263,8.136,DEGRADED,37294.4,36163.4,1.962,14016,0,1.1293,8972.7,11903.14,1.367,0,0,0.8352,1998.23,2392.56,2,0,1998.5,598.06,2,0,2001.25,2387.11,2,0,0.82,0.5,174,1.22,0.92,0.78,74.08,FLYING
133.22,ASCENT,AB_CORRIDOR,292.51,80,-212.51,13037.77,268.78,31.52,6.27,90.4,-0.015,0.9579,0,0,0,0,0,0,0,0,0,90.4,25,0,0,0,0,0,0,0,0,90.4,1,0,-0.011,0,0,3,0,0,0,11.5,-9.707,0,0,1,1,17.125,8.947,DEGRADED,32804.3,31602.9,2.117,16021,0,1.1307,9811.69,13133.33,0.508,0,0,0.8942,2045.15,2287.17,2,0,2045.37,571.69,2,0,2047.59,2280.49,2,0,0.78,0.5,181,1.23,0.88,0.78,79.76,FLYING
138.94,ASCENT,AB_CORRIDOR,270.98,80,-190.98,14630.78,287.63,31.55,6.42,90.4,-0.026,1,0,0,0,0,0,0,0,0,0,90.4,24.455,0,0,0,0,0,0,0,0,90.4,1,0,-0.011,0,0,3,0,0,0,11.5,-9.707,0,0,1,1,18.156,9.928,DEGRADED,28073.3,26813.2,2.279,18223,0,1.132,10648.06,14466.11,-0.684,0,0,0.9574,2081.14,2173.71,2,0,2081.16,543.33,2,0,2081.06,2167.58,2,0,0.82,0.5,188,1.22,0.92,0.78,85.48,FLYING
144.58,ASCENT,AB_CORRIDOR,249.18,80,-169.18,16256.56,285.6,25.58,2.4,90.41,-0.144,1,0,0,0,0,0,0,0,0,0,90.4,21.227,0,0,0,0,0,0,0,0,90.4,1,0,-0.011,0,0,3,0,0,0,11.5,-9.707,0,0,1,1,19.158,11.117,DEGRADED,23556.4,22441.5,2.445,20239,0,1.1334,11437.51,16164.96,-2.013,0,0,0.9864,2043.18,2071.35,2,0,2042.71,517.73,2,0,2037.94,2064.22,2,0,0.78,0.5,195,1.24,0.86,0.76,91.12,FLYING
150.26,ASCENT,AB_ZOOM,228.27,80,-148.27,17823.64,261.41,16,-3.82,90.4,0.062,1,0,0,0,0,0,0,0,0,0,90.4,17.076,0,0,0,0,0,0,0,0,90.4,1,0,-0.011,0,0,3,0,0,0,11.5,-9.707,0,0,1,1,19.735,11.893,DEGRADED,19598.2,18650.7,2.601,21606,0,1.1347,11764.92,17356.54,-2.79,0,0,0.996,1879.95,1887.44,2,0,1878.75,471.65,2,0,1867.83,1874.75,2,0,0.78,0.5,202,1.23,0.92,0.76,96.8,FLYING
155.76,ASCENT,AB_ZOOM,209.97,80,-129.97,19220.39,251.03,29.2,11.2,90.4,-0.019,1,0,0,0,0,0,0,0,0,0,90.4,17.767,0,0,0,0,0,0,0,0,90.4,1,0,-0.011,0,0,3,0,0,0,11.5,-9.707,0,0,1,1,19.326,11.902,DEGRADED,16489,15716.7,2.733,22571,0,1.1358,11195.81,16093.4,-0.165,0,0,0.9992,1620.29,1621.55,2,0,1618.64,405.11,2,0,1603.77,1604.87,2,0,0.76,0.5,209,1.27,0.84,0.74,102.3,FLYING
160.96,ASCENT,RKT_SUSTAIN,188.71,80,-108.71,20558.94,263.62,33.39,14.99,90.31,0.283,1,0,0,0,0,0,0,0,0,0,90.35,18.488,0,0,0,0,0,0,0,0,90.4,1,0,-0.011,0,0,3,0,0,0,11.5,-9.707,0,0,1,1,0,20.436,DEGRADED,13392.7,12656.7,2.791,24112,0,1.1259,5529.19,11198.76,2.21,0.65,0,0,0,0,0,0,1578.06,1594.08,2,0,1583.43,1594.13,2,0,0.68,0.5,216,1.35,0.9,0.64,107.5,FLYING
166.38,ASCENT,RKT_SUSTAIN,168.44,80,-88.44,22036.07,283.59,39.1,19.85,90.17,0.407,1,0,0,0,0,0,0,0,0,0,90.29,22.124,0,0,0,0,0,0,0,0,90.4,1,0,-0.011,0,0,3,0,0,0,11.5,-9.707,0,0,1,1,0,16.141,DEGRADED,10682.4,10075.9,2.864,26164,0,1.099,1506.65,9889.83,6.21,1,0,0,0,0,0,0,1595.51,1595.52,2,0,1595.56,1595.57,2,0,0.7,0.5,224,1.48,0.72,0.64,112.92,FLYING
171.9,ASCENT,RKT_SUSTAIN,147.79,80,-67.79,23666.81,306.34,40.2,19.93,90.3,0.101,1,0,0,0,0,0,0,0,0,0,90.28,25,0,0,0,0,0,0,0,0,90.4,1,0,-0.011,0,0,3,0,0,0,11.5,-9.707,0,0,1,1,0,17.126,DEGRADED,8258,7744.2,2.93,28645,0,1.0715,410.55,9926.92,10.21,1,0,0,0,0,0,0,1596.7,1596.72,2,0,1596.74,1596.75,2,0,0.7,0.5,232,1.45,0.74,0.66,118.44,FLYING
177.46,ASCENT,RKT_SUSTAIN,129.05,80,-49.05,25424.57,325.3,40.9,20.01,90.32,0.038,1,0,0,0,0,0,0,0,0,0,90.28,25,0,0,0,0,0,0,0,0,90.4,1,0,-0.011,0,0,3,0,0,0,11.5,-9.707,0,0,1,1,0,19.026,DEGRADED,6296.8,5891,3.008,31286,0,1.0439,111.87,11080.74,12.503,1,0,0,0,0,0,0,1597.62,1597.63,2,0,1597.65,1597.65,2,0,0.72,0.5,240,1.44,0.76,0.66,124,FLYING
183,ASCENT,RKT_SUSTAIN,111.68,80,-31.68,27272.72,341.45,41.21,20.01,90.36,-0.04,1,0,0,0,0,0,0,0,0,0,90.28,25,0,0,0,0,0,0,0,0,90.4,1,0,-0.011,0,0,3,0,0,0,11.5,-9.707,0,0,1,1,0,21.221,VALID,4731.9,4404,3.074,34012,0,1.0163,30.48,12416.85,13.403,1,0,0,0,0,0,0,1598.3,1598.3,2,0,1598.32,1598.32,2,0,0.7,0.5,248,1.44,0.76,0.66,129.54,FLYING
188.54,ASCENT,RKT_SUSTAIN,95.9,80,-15.9,29204.7,355.75,41.31,20.01,90.39,-0.112,1,0,0,0,0,0,0,0,0,0,90.28,25,0,0,0,0,0,0,0,0,90.4,1,0,-0.011,0,0,3,0,0,0,11.5,-9.707,0,0,1,1,0,23.506,VALID,3493.2,3241.7,3.139,36815,0,1,8.31,13841.71,14.307,1,0,0,0,0,0,0,1598.8,1598.8,2,0,1598.81,1598.82,2,0,0.7,0.5,256,1.44,0.76,0.66,135.08,FLYING
193.98,ASCENT,RKT_SUSTAIN,82.64,80,-2.64,31175.91,368.86,41.28,20.01,90.43,-0.173,1,0,0,0,0,0,0,0,0,0,90.29,25,0,0,0,0,0,0,0,0,90.4,1,0,-0.011,0,0,3,0,0,0,11.5,-9.707,0,0,1,1,0,25.656,VALID,2578.2,2399.4,3.209,39707,0,1,2.26,15018.38,15.237,1,0,0,0,0,0,0,1599.15,1599.15,2,0,1599.16,1599.16,2,0,0.68,0.5,264,1.47,0.76,0.64,140.5,FLYING
199.34,ASCENT,RKT_SUSTAIN,71.67,80,8.33,33187.2,381.64,41.19,20.01,90.45,-0.207,1,0,0,0,0,0,0,0,0,0,90.29,25,0,0,0,0,0,0,0,0,90.4,1,0,-0.011,0,0,3,0,0,0,11.5,-9.707,0,0,1,1,0,28.015,VALID,1930.9,1801,3.281,42677,0,1,0.62,16153.15,16.234,1,0,0,0,0,0,0,1599.39,1599.39,2,0,1599.4,1599.4,2,0,0.68,0.5,272,1.49,0.72,0.64,145.86,FLYING
204.72,ASCENT,RKT_SUSTAIN,61.82,80,18.18,35275.78,394.88,41.08,20.01,90.47,-0.229,1,0,0,0,0,0,0,0,0,0,90.3,25,0,0,0,0,0,0,0,0,90.4,1,0,-0.011,0,0,3,0,0,0,11.5,-9.707,0,0,1,1,0,30.38,VALID,1439.3,1338.4,3.359,45829,0,1,0.17,17423,17.351,1,0,0,0,0,0,0,1599.57,1599.57,2,0,1599.57,1599.57,2,0,0.68,0.5,280,1.49,0.74,0.64,151.24,FLYING
210.08,ASCENT,RKT_SUSTAIN,53.22,80,26.78,37429.46,408.89,40.99,20.01,90.48,-0.243,1,0,0,0,0,0,0,0,0,0,90.31,25,0,0,0,0,0,0,0,0,90.4,1,0,-0.011,0,0,3,0,0,0,11.5,-9.707,0,0,1,1,0,32.117,VALID,1065.3,990,3.443,49206,0,1,0.05,18694.5,18.619,1,0,0,0,0,0,0,1599.69,1599.7,2,0,1599.7,1599.7,2,0,0.68,0.5,288,1.49,0.72,0.64,156.6,FLYING
215.44,ASCENT,RKT_SUSTAIN,46.49,80,33.51,39661.41,424.17,40.92,20.01,90.49,-0.243,1,0,0,0,0,0,0,0,0,0,90.32,25,0,0,0,0,0,0,0,0,90.4,1,0,-0.011,0,0,3,0,0,0,11.5,-9.707,0,0,1,1,0,34.002,VALID,803.1,752.7,3.569,52880,0,1,0.01,20011.59,20.086,1,0,0,0,0,0,0,1599.78,1599.78,2,0,1599.79,1599.79,2,0,0.68,0.5,296,1.49,0.72,0.64,161.96,FLYING
220.82,ASCENT,RKT_SUSTAIN,40.87,80,39.13,41988.38,441.15,40.91,20.01,90.49,-0.236,1,0,0,0,0,0,0,0,0,0,90.32,25,0,0,0,0,0,0,0,0,90.4,1,0,-0.011,0,0,3,0,0,0,11.5,-9.707,0,0,1,1,0,35.998,VALID,617.1,580.1,3.732,56947,0,1,0,21393.72,21.811,1,0,0,0,0,0,0,1599.85,1599.85,2,0,1599.85,1599.85,2,0,0.68,0.5,304,1.49,0.74,0.64,167.34,FLYING
226.2,ASCENT,RKT_SUSTAIN,35.63,80,44.37,44411.85,460.07,40.96,20.01,90.49,-0.224,1,0,0,0,0,0,0,0,0,0,90.33,25,0,0,0,0,0,0,0,0,90.4,1,0,-0.011,0,0,3,0,0,0,11.5,-9.707,0,0,1,1,0,38.128,VALID,471.2,440.1,3.944,61496,0,1,0,22805.13,23.85,1,0,0,0,0,0,0,1599.9,1599.9,2,0,1599.9,1599.9,2,0,0.68,0.5,312,1.49,0.74,0.64,172.72,FLYING
231.56,ASCENT,RKT_SUSTAIN,30.66,80,49.34,46933.18,481.06,41.07,20.01,90.49,-0.212,1,0,0,0,0,0,0,0,0,0,90.33,25,0,0,0,0,0,0,0,0,90.4,1,0,-0.011,0,0,3,0,0,0,11.5,-9.707,0,0,1,1,0,40.39,VALID,350.6,325.3,4.171,66632,0,1,0,24251.31,25,1,0,0,0,0,0,0,1599.93,1599.93,2,0,1599.93,1599.93,2,0,0.68,0.5,320,1.49,0.72,0.64,178.08,FLYING
236.94,ASCENT,RKT_SUSTAIN,25.99,80,54.01,49583.46,504.54,41.26,20.01,90.48,-0.199,1,0,0,0,0,0,0,0,0,0,90.34,25,0,0,0,0,0,0,0,0,90.4,1,0,-0.011,0,0,3,0,0,0,11.5,-9.707,0,0,1,1,0,42.811,VALID,253.6,233.4,4.418,72543,0,1,0,25840.07,25,1,0,0,0,0,0,0,1599.96,1599.96,2,0,1599.96,1599.96,2,0,0.68,0.5,328,1.49,0.74,0.64,183.46,FLYING
242.36,ASCENT,RKT_SUSTAIN,21.1,80,58.9,52361.61,508.1,41.72,20.7,90.49,-0.191,1,0,0,0,0,0,0,0,0,0,90.34,25,0,0,0,0,0,0,0,0,90.4,1,0,-0.011,0,0,3,0,0,0,11.5,-9.707,0,0,1,1,0,0,VALID,172.7,154.3,4.598,78324,0,1,0,16201.65,25,1,0,0,0,0,0,0,0,0,2,2,0,0,2,2,0.7,0.5,336,1.48,0.74,0.64,188.9,FLYING
247.82,ASCENT,RKT_SUSTAIN,16.61,80,63.39,55065.21,482.31,42.49,22.34,90.45,-0.109,1,0,0,0,0,0,0,0,0,0,90.34,25,0,0,0,0,0,0,0,0,90.4,1,0,-0.011,0,0,3,0,0,0,11.5,-9.707,0,0,1,1,0,0,VALID,107.6,95.5,4.637,79753,0,1,0,4294.63,25,1,0,0,0,0,0,0,0,0,2,2,0,0,2,2,0.7,0.5,344,1.47,0.74,0.64,194.36,FLYING
253.28,ASCENT,RKT_SUSTAIN,13.13,80,66.87,57627.98,456.55,42.89,23.64,90.42,-0.064,1,0,0,0,0,0,0,0,0,0,90.34,25,0,0,0,0,0,0,0,0,90.4,1,0,-0.011,0,0,3,0,0,0,11.5,-9.707,0,0,1,1,0,0,VALID,67.2,59.7,4.676,80004,0,1,0,1079.43,25,1,0,0,0,0,0,0,0,0,2,2,0,0,2,2,0.7,0.5,352,1.47,0.74,0.64,199.82,FLYING
258.76,ASCENT,RKT_SUSTAIN,10.23,80,69.77,60058.58,430.72,42.51,24.18,90.4,-0.034,1,0,0,0,0,0,0,0,0,0,90.33,25,0,0,0,0,0,0,0,0,90.4,1,0,-0.011,0,0,3,0,0,0,11.5,-9.707,0,0,1,1,0,0,VALID,41.2,36.3,4.644,80053,0,1,0,234.97,25,1,0,0,0,0,0,0,0,0,2,2,0,0,2,2,0.7,0.5,360,1.46,0.74,0.64,205.3,FLYING
264.22,ASCENT,RKT_SUSTAIN,8,80,72,62340.56,405.06,45.83,28.46,90.4,-0.023,1,0,0,0,0,0,0,0,0,0,90.33,25,0,0,0,0,0,0,0,0,90.4,1,0,-0.011,0,0,3,0,0,0,11.5,-9.707,0,0,1,1,0,0,VALID,25.1,22.2,4.574,80064,0,1,0,15.66,24.494,1,0,0,0,0,0,0,0,0,2,2,0,0,2,2,0.68,0.5,368,1.47,0.74,0.64,210.76,FLYING
269.6,ASCENT,RKT_SUSTAIN,6.06,80,73.94,64451.62,379.85,46.07,29.67,90.39,-0.019,1,0,0,0,0,0,0,0,0,0,90.33,25,0,0,0,0,0,0,0,0,90.4,1,0,-0.011,0,0,3,0,0,0,11.5,-9.707,0,0,1,1,0,0,VALID,14.9,12.8,4.526,80069,0,1,0,-34.66,23,1,0,0,0,0,0,0,0,0,2,2,0,0,2,2,0.68,0.5,376,1.49,0.74,0.64,216.14,FLYING
274.86,ASCENT,RKT_SUSTAIN,4.12,80,75.88,66383.88,355.28,42.77,27.33,90.39,-0.02,1,0,0,0,0,0,0,0,0,0,90.33,25,0,0,0,0,0,0,0,0,90.4,1,0,-0.011,0,0,3,0,0,0,11.5,-9.707,0,0,1,1,0,0,VALID,7.4,6,4.511,80070,0,1,0,-33.16,21.539,1,0,0,0,0,0,0,0,0,2,2,0,0,2,2,0.66,0.5,384,1.52,0.74,0.6,221.4,FLYING
279.98,ASCENT,RKT_SUSTAIN,2.2,80,77.8,68139.8,331.42,35.98,21.5,90.39,-0.022,1,0,0,0,0,0,0,0,0,0,90.33,25,0,0,0,0,0,0,0,0,90.4,1,0,-0.011,0,0,3,0,0,0,11.5,-9.707,0,0,1,1,0,0,VALID,2.6,1.8,4.511,80070,0,1,0,-22.26,20.116,1,0,0,0,0,0,0,0,0,2,2,0,0,2,2,0.66,0.5,392,1.56,0.7,0.6,226.52,FLYING
285.06,ASCENT,RKT_SUSTAIN,0.3,80,79.7,69760.38,307.82,25.84,12.32,90.38,-0.025,1,0,0,0,0,0,0,0,0,0,90.33,25,0,0,0,0,0,0,0,0,90.4,1,0,-0.011,0,0,3,0,0,0,11.5,-9.707,0,0,1,1,0,0,VALID,0.3,0,4.495,80070,0,1,0,-14.58,18.705,1,0,0,0,0,0,0,0,0,2,2,0,0,2,2,0.64,0.5,400,1.57,0.7,0.6,231.6,FLYING
290.22,ASCENT,RKT_SUSTAIN,0,80,80,71284.39,283.93,16.86,4.31,90.38,-0.027,1,0,0,0,0,0,0,0,0,0,90.32,25,0,0,0,0,0,0,0,0,90.4,1,0,-0.011,0,0,3,0,0,0,11.5,-9.707,0,0,1,1,0,0,VALID,0,0,0,80070,0,1,0,-9.84,17.272,1,0,0,0,0,0,0,0,0,2,2,0,0,2,2,0.66,0.5,408,1.55,0.7,0.6,236.76,SUB_ORBITAL
295.38,ASCENT,RKT_SUSTAIN,0,80,80,72686.25,260.1,11.54,-0.03,90.37,-0.028,1,0,0,0,0,0,0,0,0,0,90.32,25,0,0,0,0,0,0,0,0,90.4,1,0,-0.011,0,0,3,0,0,0,11.5,-9.707,0,0,1,1,0,0,VALID,0,0,0,80070,0,1,0,-7.07,15.838,1,0,0,0,0,0,0,0,0,2,2,0,0,2,2,0.66,0.5,416,1.55,0.7,0.6,241.92,SUB_ORBITAL
300.52,ASCENT,RKT_SUSTAIN,0,80,80,73961.75,236.42,9.89,-0.69,90.37,-0.027,1,0,0,0,0,0,0,0,0,0,90.32,23.606,0,0,0,0,0,0,0,0,90.4,1,0,-0.011,0,0,3,0,0,0,11.5,-9.707,0,0,1,1,0,0,VALID,0,0,0,80070,0,1,0,-4.63,14.41,1,0,0,0,0,0,0,0,0,2,2,0,0,2,2,0.66,0.5,424,1.56,0.7,0.6,247.06,SUB_ORBITAL
305.66,ASCENT,RKT_SUSTAIN,0,80,80,75115.89,212.8,9.62,0.06,90.37,-0.027,1,0,0,0,0,0,0,0,0,0,90.32,21.288,0,0,0,0,0,0,0,0,90.4,1,0,-0.011,0,0,3,0,0,0,11.5,-9.707,0,0,1,1,0,0,VALID,0,0,0,80069,0,1,0,-3.82,12.983,1,0,0,0,0,0,0,0,0,2,2,0,0,2,2,0.66,0.5,432,1.56,0.7,0.6,252.2,SUB_ORBITAL
310.8,ASCENT,RKT_SUSTAIN,0,80,80,76148.46,189.23,8.56,0.02,90.36,-0.027,1,0,0,0,0,0,0,0,0,0,90.32,18.964,0,0,0,0,0,0,0,0,90.4,1,0,-0.011,0,0,3,0,0,0,11.5,-9.707,0,0,1,1,0,0,VALID,0,0,0,80069,0,1,0,-3.87,11.555,1,0,0,0,0,0,0,0,0,2,2,0,0,2,2,0.66,0.5,440,1.56,0.7,0.6,257.34,SUB_ORBITAL
315.94,ASCENT,RKT_SUSTAIN,0,80,80,77060.01,165.7,7.52,0.02,90.36,-0.027,1,0,0,0,0,0,0,0,0,0,90.31,16.634,0,0,0,0,0,0,0,0,90.4,1,0,-0.011,0,0,3,0,0,0,11.5,-9.707,0,0,1,1,0,0,VALID,0,0,0,80069,0,1,0,-3.85,10.127,1,0,0,0,0,0,0,0,0,2,2,0,0,2,2,0.66,0.5,448,1.56,0.7,0.6,262.48,SUB_ORBITAL
321.1,ASCENT,RKT_SUSTAIN,0,80,80,77853.58,142.13,6.47,0.02,90.36,-0.027,1,0,0,0,0,0,0,0,0,0,90.31,14.29,0,0,0,0,0,0,0,0,90.4,1,0,-0.011,0,0,3,0,0,0,11.5,-9.707,0,0,1,1,0,0,VALID,0,0,0,80069,0,1,0,-3.83,8.694,1,0,0,0,0,0,0,0,0,2,2,0,0,2,2,0.66,0.5,456,1.55,0.7,0.6,267.64,SUB_ORBITAL
326.24,ASCENT,RKT_SUSTAIN,0,80,80,78523.21,118.67,5.42,0.02,90.36,-0.028,1,0,0,0,0,0,0,0,0,0,90.31,11.95,0,0,0,0,0,0,0,0,90.4,1,0,-0.011,0,0,3,0,0,0,11.5,-9.707,0,0,1,1,0,0,VALID,0,0,0,80068,0,1,0,-3.79,7.266,1,0,0,0,0,0,0,0,0,2,2,0,0,2,2,0.66,0.5,464,1.56,0.7,0.6,272.78,SUB_ORBITAL
331.38,ASCENT,RKT_SUSTAIN,0,80,80,79072.35,95.25,4.37,0.02,90.36,-0.028,1,0,0,0,0,0,0,0,0,0,90.31,9.606,0,0,0,0,0,0,0,0,90.4,1,0,-0.011,0,0,3,0,0,0,11.5,-9.707,0,0,1,1,0,0,VALID,0,0,0,80068,0,1,0,-3.78,5.838,1,0,0,0,0,0,0,0,0,2,2,0,0,2,2,0.66,0.5,472,1.56,0.7,0.6,277.92,SUB_ORBITAL
336.56,ASCENT,RKT_SUSTAIN,0,80,80,79504,71.66,3.3,0.02,90.35,-0.028,1,0,0,0,0,0,0,0,0,0,90.3,7.241,0,0,0,0,0,0,0,0,90.4,1,0,-0.011,0,0,3,0,0,0,11.5,-9.707,0,0,1,1,0,0,VALID,0,0,0,80068,0,1,0,-3.8,4.399,1,0,0,0,0,0,0,0,0,2,2,0,0,2,2,0.66,0.5,480,1.54,0.7,0.6,283.1,SUB_ORBITAL
341.74,ASCENT,RKT_SUSTAIN,0,80,80,79813.53,48.1,2.22,0.02,90.35,-0.029,1,0,0,0,0,0,0,0,0,0,90.3,4.874,0,0,0,0,0,0,0,0,90.4,1,0,-0.011,0,0,3,0,0,0,11.5,-9.707,0,0,1,1,0,0,VALID,0,0,0,80067,0,1,0,-3.79,2.96,1,0,0,0,0,0,0,0,0,2,2,0,0,2,2,0.66,0.5,488,1.54,0.7,0.6,288.28,SUB_ORBITAL
346.9,ASCENT,RKT_SUSTAIN,0,80,80,80000.52,24.63,1.15,0.02,90.35,-0.029,1,0,0,0,0,0,0,0,0,0,90.3,2.515,0,0,0,0,0,0,0,0,90.4,1,0,-0.011,0,0,3,0,0,0,11.5,-9.707,0,0,1,1,0,0,VALID,0,0,0,80067,0,1,0,-3.77,1.527,1,0,0,0,0,0,0,0,0,2,2,0,0,2,2,0.66,0.5,496,1.55,0.7,0.6,293.44,SUB_ORBITAL
352.1,ASCENT,RKT_SUSTAIN,0,80,80,80066.5,0.99,0.07,0.02,90.35,-0.029,1,0,0,0,0,0,0,0,0,0,90.3,0.136,0,0,0,0,0,0,0,0,90.4,1,0,-0.011,0,0,3,0,0,0,11.5,-9.707,0,0,1,1,0,0,VALID,0,0,0,80067,0,1,0,-3.76,0.083,1,0,0,0,0,0,0,0,0,2,2,0,0,2,2,0.66,0.5,504,1.54,0.7,0.62,298.64,SUB_ORBITAL
357.28,ASCENT,RKT_SUSTAIN,0,80,80,80009.99,-22.56,-1.01,0.02,90.34,-0.03,1,0,0,0,0,0,0,0,0,0,90.3,3.205,0,0,0,0,0,0,0,0,90.4,1,0,-0.011,0,0,3,0,0,0,11.5,-9.707,0,0,1,1,0,0,VALID,0,0,0,80067,0,1,0,-3.76,4.083,1,0,0,0,0,0,0,0,0,2,2,0,0,2,2,0.66,0.5,512,1.54,0.7,0.6,303.82,SUB_ORBITAL
362.46,ASCENT,RKT_SUSTAIN,0,80,80,79831.47,-46.12,-2.09,0.02,90.34,-0.03,1,0,0,0,0,0,0,0,0,0,90.29,6.275,0,0,0,0,0,0,0,0,90.4,1,0,-0.011,0,0,3,0,0,0,11.5,-9.707,0,0,1,1,0,0,VALID,0,0,0,80066,0,1,0,-3.77,8.083,1,0,0,0,0,0,0,0,0,2,2,0,0,2,2,0.66,0.5,520,1.54,0.7,0.6,309,SUB_ORBITAL
