t_s,phase,subphase,ias_ms,vapp_ms,spd_err_ms,agl_m,gear_h_m,vs_ms,pitch_deg,aoa_deg,hdg_deg,bank_deg,thr_cmd,thr_cur,thr_intg,at_gain,at_tau_s,at_a_up,at_a_dn,at_kp_thr,at_ki_spd,at_thr_slew,as_cmd_deg,as_cap_deg,as_raw_deg,as_spd_err_ms,as_active,aa_hdg_cmd_deg,aa_fpa_cmd_deg,aa_fbw,aa_dir,actual_fpa_deg,ftf_hdg_err_deg,ftf_fix_idx,kos_steer_pit_deg,kos_steer_hdg_deg,aa_dir_vx,aa_dir_vy,aa_dir_vz,aa_dir_pitch_deg,aa_dir_hdg_deg,ils_loc_m,ils_gs_m,ils_dist_km,loc_corr_deg,gs_corr_deg,gs_latched,active_gs_ang_deg,ils_intercept_alt_m,d_gs_ms,fpa_preclamped_deg,gs_nom_alt_m,flare_fpa_cmd,flare_tgt_vs,flare_frac,flare_mode,flare_auth_limited,flare_vs_err,flare_fpa_err,flare_pitch_err,flare_req_up_a,flare_thr_floor,flare_tecs_et_err,flare_tecs_eb_err,flare_tecs_h_ref,flare_tecs_v_ref,flare_gamma_ref,flare_gamma_eb_term,flare_gamma_unsat,steer_hdg_deg,steer_blend,ro_loc_corr_deg,ro_hdg_err_deg,ro_yaw_tgt,ro_yaw_scale,ro_yaw_gate,yaw_cmd,roll_cmd,pitch_cmd,ro_pitch_tgt_deg,ro_pitch_err_deg,ro_pitch_ff,ro_roll_assist,flaps_cur,flaps_tgt,asc_j_ab,asc_j_rk,asc_validity,asc_q_pa,asc_q_raw_pa,asc_mach,asc_apo_m,asc_drag_n,asc_w_prop,asc_edot_aero,asc_edot_orb,asc_pitch_bias,asc_blend,asc_spooling,asc_ab_thr_ratio,asc_ab_t_now,asc_ab_t_avail,asc_ab_ign_on,asc_ab_flameouts,asc_rk_t_now,asc_rk_t_avail,asc_rk_ign_on,asc_rk_flameouts,ship_thrust,ship_avail_thrust,ship_ign_on,ship_flameouts,ifc_raw_dt_s,ifc_dt_s,ifc_loop_n,ifc_hz_est,ifc_raw_dt_max_s,ifc_raw_dt_min_s,phase_el_s,status,craft_name,cfg_file
0.16,APPROACH,ILS_TRACK,151.33,152,0.67,767.41,693.11,1.37,11.62,11.14,269.85,0.128,0,0,0,0,0,0,0,0,0,0,0,0,0,0,0,0,0,1,0,0.5,0,0,0,90,0,0,0,0,0,3.96,-414.78,21.14,0,0,0,3,767.41,0,0,1182.19,0,0,0,,0,0,0,0,0,0,0,0,0,0,0,0,0,269.85,0,0,0,0,0,0,0,0,0,0,0,0,0,0,0,0,0,VALID,0,0,0,0,0,1,0,0,0,0,0,0,0,0,0,0,0,0,0,0,314.42,1066.89,2,0,0.14,0.14,1,3.7,0.14,0.02,0.16,FLYING,X10-H,0:/Integrated Flight Computer/aircraft/x10_h_cfg.ks (inferred preloaded)
0.42,APPROACH,ILS_TRACK,151.17,152,0.83,767.55,693.5,1.55,10.82,10.2,269.84,0.045,0.096,0,0.192,1,0.6,1.441,0.75,0.35,0.0168,0.4,0,22.124,0,-0.828,0,269.96,-0.001,0,1,0.59,0,0,0,261.7,0.5372,-0.0006,0.8434,0,269.96,3.85,-412.81,21.105,-0.037,0,0,3,767.41,8.951,-0.001,1180.34,0,0,0,,0,0,0,0,0,0,0,0,0,0,0,0,0,269.85,0,0,0,0,0,0,0,0,0,0,0,0,0,1,3,0,0,VALID,0,0,0,0,0,1,0,0,0,0,0,0,0,0,0,0,0,0,0,0,290.44,1066.14,2,0,0.12,0.12,3,7.69,0.14,0.12,0.42,FLYING,X10-H,0:/Integrated Flight Computer/aircraft/x10_h_cfg.ks (inferred preloaded)
0.68,APPROACH,ILS_TRACK,151.08,152,0.92,767.68,693.88,1.62,9.85,9.19,269.78,-0.4,0.1743,0,0.425,1,0.6,2.659,0.75,0.35,0.0168,0.4,0,22.15,0,-0.919,0,269.96,-0.001,0,1,0.62,0,0,0,269.97,0.5373,-0.0006,0.8434,0,269.96,3.73,-410.48,21.063,-0.036,0,0,3,767.41,8.882,-0.001,1178.15,0,0,0,,0,0,0,0,0,0,0,0,0,0,0,0,0,269.85,0,0,0,0,0,0,0,0,0,0,0,0,0,1,3,0,0,VALID,0,0,0,0,0,1,0,0,0,0,0,0,0,0,0,0,0,0,0,0,275.65,1065.71,2,0,0.12,0.12,5,7.69,0.14,0.12,0.68,FLYING,X10-H,0:/Integrated Flight Computer/aircraft/x10_h_cfg.ks (inferred preloaded)
0.94,APPROACH,ILS_TRACK,151.02,152,0.98,767.84,694.28,1.3,8.99,8.48,269.79,-0.005,0.1717,0,0.676,1,0.6,3.691,0.75,0.35,0.0168,0.4,0,22.166,0,-0.975,0,269.99,-0.002,0,1,0.52,0,0,0,269.98,0.5374,-0.0001,0.8433,0,269.99,3.6,-408.15,21.021,-0.009,0,0,3,767.41,9.053,-0.002,1175.96,0,0,0,,0,0,0,0,0,0,0,0,0,0,0,0,0,269.85,0,0,0,0,0,0,0,0,0,0,0,0,0,2,3,0,0,VALID,0,0,0,0,0,1,0,0,0,0,0,0,0,0,0,0,0,0,0,0,267.65,1065.45,2,0,0.12,0.12,7,7.69,0.14,0.12,0.94,FLYING,X10-H,0:/Integrated Flight Computer/aircraft/x10_h_cfg.ks (inferred preloaded)
1.3,APPROACH,ILS_TRACK,150.94,152,1.06,768.25,694.6,0.72,9.02,8.81,269.86,0.369,0.1749,0,1.043,1,0.6,4.5,0.75,0.35,0.0168,0.4,0,22.187,0,-1.05,0,270,-0.004,0,1,0.28,0,0,0,269.99,0.5375,0,0.8433,0,270,3.41,-404.74,20.963,-0.003,0,0,3,767.41,9.715,-0.004,1172.93,0,0,0,,0,0,0,0,0,0,0,0,0,0,0,0,0,269.85,0,0,0,0,0,0,0,0,0,0,0,0,0,3,3,0,0,VALID,0,0,0,0,0,1,0,0,0,0,0,0,0,0,0,0,0,0,0,0,257.25,1065.1,2,0,0.12,0.12,10,8.33,0.12,0.12,1.3,FLYING,X10-H,0:/Integrated Flight Computer/aircraft/x10_h_cfg.ks (inferred preloaded)
1.66,APPROACH,ILS_TRACK,150.82,152,1.18,768.68,694.86,0.74,9.66,9.41,269.91,0.515,0.2092,0,1.45,1,0.6,4.5,0.75,0.35,0.0168,0.4,0,22.222,0,-1.174,0,269.99,-0.006,0,1,0.28,0,0,0,270,0.5376,-0.0001,0.8432,-0.01,269.99,3.23,-401.27,20.906,-0.008,0,0,3,767.41,9.451,-0.006,1169.91,0,0,0,,0,0,0,0,0,0,0,0,0,0,0,0,0,269.85,0,0,0,0,0,0,0,0,0,0,0,0,0,3,3,0,0,VALID,0,0,0,0,0,1,0,0,0,0,0,0,0,0,0,0,0,0,0,0,249.83,1064.56,2,0,0.12,0.12,13,8.33,0.12,0.12,1.66,FLYING,X10-H,0:/Integrated Flight Computer/aircraft/x10_h_cfg.ks (inferred preloaded)
2.02,APPROACH,ILS_TRACK,150.65,152,1.35,768.97,695.11,0.71,9.81,9.56,269.94,0.586,0.2559,0,1.91,1,0.6,4.5,0.75,0.35,0.0168,0.4,0,22.267,0,-1.336,0,270,-0.008,0,1,0.27,0,0,-0.01,269.98,0.5377,-0.0001,0.8431,-0.01,270,3.06,-397.94,20.848,-0.003,0,0,3,767.41,9.182,-0.008,1166.89,0,0,0,,0,0,0,0,0,0,0,0,0,0,0,0,0,269.85,0,0,0,0,0,0,0,0,0,0,0,0,0,3,3,0,0,VALID,0,0,0,0,0,1,0,0,0,0,0,0,0,0,0,0,0,0,0,0,248.03,1063.85,2,0,0.12,0.12,16,8.33,0.12,0.12,2.02,FLYING,X10-H,0:/Integrated Flight Computer/aircraft/x10_h_cfg.ks (inferred preloaded)
2.38,APPROACH,ILS_TRACK,150.48,152,1.52,769.24,695.36,0.66,9.88,9.65,269.95,0.584,0.2981,0,2.434,1,0.6,4.5,0.75,0.35,0.0168,0.4,0,22.318,0,-1.514,0,269.99,-0.009,0,1,0.25,0,0,-0.01,269.99,0.5378,-0.0001,0.8431,-0.01,269.99,2.91,-394.66,20.79,-0.007,0,0,3,767.41,9.101,-0.009,1163.87,0,0,0,,0,0,0,0,0,0,0,0,0,0,0,0,0,269.85,0,0,0,0,0,0,0,0,0,0,0,0,0,3,3,0,0,VALID,0,0,0,0,0,1,0,0,0,0,0,0,0,0,0,0,0,0,0,0,250.47,1063.08,2,0,0.12,0.12,19,8.33,0.12,0.12,2.38,FLYING,X10-H,0:/Integrated Flight Computer/aircraft/x10_h_cfg.ks (inferred preloaded)
2.74,APPROACH,ILS_TRACK,150.3,152,1.7,769.48,695.59,0.63,9.92,9.69,269.96,0.552,0.3274,0,3.021,1,0.6,4.5,0.75,0.35,0.0168,0.4,0,22.366,0,-1.686,0,269.98,-0.01,0,1,0.24,0,0,-0.01,269.99,0.5379,-0.0004,0.843,-0.01,269.98,2.77,-391.4,20.733,-0.024,0,0,3,767.41,9.037,-0.01,1160.85,0,0,0,,0,0,0,0,0,0,0,0,0,0,0,0,0,269.85,0,0,0,0,0,0,0,0,0,0,0,0,0,3,3,0,0,VALID,0,0,0,0,0,1,0,0,0,0,0,0,0,0,0,0,0,0,0,0,255.59,1062.34,2,0,0.12,0.12,22,8.33,0.12,0.12,2.74,FLYING,X10-H,0:/Integrated Flight Computer/aircraft/x10_h_cfg.ks (inferred preloaded)
3.1,APPROACH,ILS_TRACK,150.15,152,1.85,769.73,695.81,0.52,10.03,9.88,269.96,0.496,0.3461,0,3.665,1,0.6,4.5,0.75,0.35,0.0168,0.4,0,22.41,0,-1.843,0,269.98,-0.012,0,1,0.19,0,0,-0.01,269.99,0.538,-0.0004,0.8429,-0.01,269.98,2.64,-388.14,20.675,-0.023,0,0,3,767.41,9.156,-0.012,1157.84,0,0,0,,0,0,0,0,0,0,0,0,0,0,0,0,0,269.85,0,0,0,0,0,0,0,0,0,0,0,0,0,3,3,0,0,VALID,0,0,0,0,0,1,0,0,0,0,0,0,0,0,0,0,0,0,0,0,262.24,1061.67,2,0,0.12,0.12,25,8.33,0.12,0.12,3.1,FLYING,X10-H,0:/Integrated Flight Computer/aircraft/x10_h_cfg.ks (inferred preloaded)
3.36,APPROACH,ILS_TRACK,150.02,152,1.98,769.88,695.98,0.71,10.06,9.78,269.96,0.449,0.3704,0,4.169,1,0.6,4.5,0.75,0.35,0.0168,0.4,0,22.446,0,-1.971,0,269.98,-0.012,0,1,0.27,0,0,-0.01,269.97,0.5381,-0.0003,0.8429,-0.01,269.98,2.55,-385.8,20.634,-0.017,0,0,3,767.41,8.839,-0.012,1155.66,0,0,0,,0,0,0,0,0,0,0,0,0,0,0,0,0,269.85,0,0,0,0,0,0,0,0,0,0,0,0,0,3,3,0,0,VALID,0,0,0,0,0,1,0,0,0,0,0,0,0,0,0,0,0,0,0,0,267.64,1061.12,2,0,0.12,0.12,27,7.69,0.14,0.12,3.36,FLYING,X10-H,0:/Integrated Flight Computer/aircraft/x10_h_cfg.ks (inferred preloaded)
3.72,APPROACH,ILS_TRACK,149.91,152,2.09,770.04,696.2,0.52,9.77,9.58,269.96,0.404,0.366,0,4.91,1,0.6,4.5,0.75,0.35,0.0168,0.4,0,22.48,0,-2.09,0,269.98,-0.013,0,1,0.21,0,0,-0.01,269.98,0.5382,-0.0004,0.8428,-0.01,269.98,2.44,-382.64,20.576,-0.023,0,0,3,767.41,8.845,-0.013,1152.66,0,0,0,,0,0,0,0,0,0,0,0,0,0,0,0,0,269.85,0,0,0,0,0,0,0,0,0,0,0,0,0,3,3,0,0,VALID,0,0,0,0,0,1,0,0,0,0,0,0,0,0,0,0,0,0,0,0,276.37,1060.62,2,0,0.12,0.12,30,8.33,0.12,0.12,3.72,FLYING,X10-H,0:/Integrated Flight Computer/aircraft/x10_h_cfg.ks (inferred preloaded)
4.08,APPROACH,ILS_TRACK,149.81,152,2.19,770.35,696.37,0.48,10.3,10.16,269.96,0.333,0.3631,0,5.684,1,0.6,4.5,0.75,0.35,0.0168,0.4,0,22.506,0,-2.182,0,269.98,-0.015,0,1,0.16,0,0,-0.01,269.97,0.5383,-0.0003,0.8428,-0.01,269.98,2.34,-379.33,20.519,-0.019,0,0,3,767.41,9.32,-0.015,1149.65,0,0,0,,0,0,0,0,0,0,0,0,0,0,0,0,0,269.85,0,0,0,0,0,0,0,0,0,0,0,0,0,3,3,0,0,VALID,0,0,0,0,0,1,0,0,0,0,0,0,0,0,0,0,0,0,0,0,283.81,1060.22,2,0,0.12,0.12,33,8.33,0.12,0.12,4.08,FLYING,X10-H,0:/Integrated Flight Computer/aircraft/x10_h_cfg.ks (inferred preloaded)
4.44,APPROACH,ILS_TRACK,149.64,152,2.36,770.39,696.62,0.8,9.73,9.36,269.96,0.305,0.4162,0,6.51,1,0.6,4.5,0.75,0.35,0.0168,0.4,0,22.555,0,-2.356,0,269.98,-0.015,0,1,0.31,0,0,-0.01,269.97,0.5383,-0.0004,0.8427,-0.02,269.98,2.25,-376.25,20.462,-0.023,0,0,3,767.41,8.164,-0.015,1146.65,0,0,0,,0,0,0,0,0,0,0,0,0,0,0,0,0,269.85,0,0,0,0,0,0,0,0,0,0,0,0,0,3,3,0,0,VALID,0,0,0,0,0,1,0,0,0,0,0,0,0,0,0,0,0,0,0,0,291.73,1059.47,2,0,0.12,0.12,36,8.33,0.12,0.12,4.44,FLYING,X10-H,0:/Integrated Flight Computer/aircraft/x10_h_cfg.ks (inferred preloaded)
4.8,APPROACH,ILS_TRACK,149.67,152,2.33,770.36,696.82,0.3,8.78,8.64,269.96,0.277,0.3436,0,7.356,1,0.6,4.5,0.75,0.35,0.0168,0.4,0,22.547,0,-2.33,0,269.97,-0.015,0,1,0.14,0,0,-0.01,269.97,0.5384,-0.0006,0.8427,-0.02,269.97,2.17,-373.29,20.404,-0.032,0,0,3,767.41,8.346,-0.015,1143.64,0,0,0,,0,0,0,0,0,0,0,0,0,0,0,0,0,269.85,0,0,0,0,0,0,0,0,0,0,0,0,0,3,3,0,0,VALID,0,0,0,0,0,1,0,0,0,0,0,0,0,0,0,0,0,0,0,0,300.73,1059.59,2,0,0.12,0.12,39,8.33,0.12,0.12,4.8,FLYING,X10-H,0:/Integrated Flight Computer/aircraft/x10_h_cfg.ks (inferred preloaded)
5.16,APPROACH,ILS_TRACK,149.74,152,2.26,770.55,696.83,-0.16,9.31,9.44,269.96,0.209,0.2949,0,8.178,1,0.6,4.5,0.75,0.35,0.0168,0.4,0,22.529,0,-2.265,0,269.97,-0.016,0,1,-0.07,0,0,-0.01,269.97,0.5385,-0.0005,0.8426,-0.02,269.97,2.09,-370.12,20.347,-0.03,0,0,3,767.41,9.074,-0.016,1140.64,0,0,0,,0,0,0,0,0,0,0,0,0,0,0,0,0,269.85,0,0,0,0,0,0,0,0,0,0,0,0,0,3,3,0,0,VALID,0,0,0,0,0,1,0,0,0,0,0,0,0,0,0,0,0,0,0,0,303.93,1059.87,2,0,0.12,0.12,42,8.33,0.12,0.12,5.16,FLYING,X10-H,0:/Integrated Flight Computer/aircraft/x10_h_cfg.ks (inferred preloaded)
5.52,APPROACH,ILS_TRACK,149.75,152,2.25,770.67,696.83,0.04,9.88,9.87,269.95,0.158,0.3018,0,8.987,1,0.6,4.5,0.75,0.35,0.0168,0.4,0,22.525,0,-2.249,0,269.97,-0.016,0,1,0.01,0,0,-0.01,269.97,0.5386,-0.0005,0.8426,-0.02,269.97,2.01,-366.96,20.29,-0.031,0,0,3,767.41,8.517,-0.016,1137.63,0,0,0,,0,0,0,0,0,0,0,0,0,0,0,0,0,269.85,0,0,0,0,0,0,0,0,0,0,0,0,0,3,3,0,0,VALID,0,0,0,0,0,1,0,0,0,0,0,0,0,0,0,0,0,0,0,0,304.49,1059.93,2,0,0.12,0.12,45,8.33,0.12,0.12,5.52,FLYING,X10-H,0:/Integrated Flight Computer/aircraft/x10_h_cfg.ks (inferred preloaded)
5.78,APPROACH,ILS_TRACK,149.77,152,2.23,770.69,696.85,0.05,9.91,9.89,269.95,0.131,0.3034,0,9.568,1,0.6,4.5,0.75,0.35,0.0168,0.4,0,22.519,0,-2.23,0,269.98,-0.016,0,1,0.02,0,0,-0.01,269.97,0.5387,-0.0004,0.8425,-0.02,269.98,1.96,-364.77,20.248,-0.021,0,0,3,767.41,8.411,-0.016,1135.46,0,0,0,,0,0,0,0,0,0,0,0,0,0,0,0,0,269.85,0,0,0,0,0,0,0,0,0,0,0,0,0,3,3,0,0,VALID,0,0,0,0,0,1,0,0,0,0,0,0,0,0,0,0,0,0,0,0,305.29,1060.01,2,0,0.12,0.12,47,7.69,0.14,0.12,5.78,FLYING,X10-H,0:/Integrated Flight Computer/aircraft/x10_h_cfg.ks (inferred preloaded)
6.14,APPROACH,ILS_TRACK,149.8,152,2.2,770.71,696.87,0.07,9.91,9.89,269.95,0.108,0.3097,0,10.365,1,0.6,4.5,0.75,0.35,0.0168,0.4,0,22.512,0,-2.205,0,269.98,-0.017,0,1,0.03,0,0,-0.01,269.97,0.5388,-0.0004,0.8425,-0.02,269.98,1.88,-361.75,20.191,-0.024,0,0,3,767.41,8.41,-0.017,1132.46,0,0,0,,0,0,0,0,0,0,0,0,0,0,0,0,0,269.85,0,0,0,0,0,0,0,0,0,0,0,0,0,3,3,0,0,VALID,0,0,0,0,0,1,0,0,0,0,0,0,0,0,0,0,0,0,0,0,306.57,1060.12,2,0,0.12,0.12,50,8.33,0.12,0.12,6.14,FLYING,X10-H,0:/Integrated Flight Computer/aircraft/x10_h_cfg.ks (inferred preloaded)
6.5,APPROACH,ILS_TRACK,149.83,152,2.17,770.74,696.9,0.08,9.9,9.87,269.95,0.091,0.3153,0,11.152,1,0.6,4.5,0.75,0.35,0.0168,0.4,0,22.504,0,-2.174,0,269.97,-0.017,0,1,0.03,0,0,-0.02,269.97,0.5388,-0.0004,0.8424,-0.02,269.97,1.82,-358.71,20.134,-0.025,0,0,3,767.41,8.424,-0.017,1129.45,0,0,0,,0,0,0,0,0,0,0,0,0,0,0,0,0,269.85,0,0,0,0,0,0,0,0,0,0,0,0,0,3,3,0,0,VALID,0,0,0,0,0,1,0,0,0,0,0,0,0,0,0,0,0,0,0,0,308.25,1060.25,2,0,0.12,0.12,53,8.33,0.12,0.12,6.5,FLYING,X10-H,0:/Integrated Flight Computer/aircraft/x10_h_cfg.ks (inferred preloaded)
6.86,APPROACH,ILS_TRACK,149.87,152,2.13,770.77,696.93,0.09,9.89,9.86,269.95,0.086,0.3193,0,11.926,1,0.6,4.5,0.75,0.35,0.0168,0.4,0,22.493,0,-2.136,0,269.97,-0.017,0,1,0.03,0,0,-0.02,269.98,0.5389,-0.0005,0.8424,-0.02,269.97,1.75,-355.68,20.076,-0.029,0,0,3,767.41,8.434,-0.017,1126.44,0,0,0,,0,0,0,0,0,0,0,0,0,0,0,0,0,269.85,0,0,0,0,0,0,0,0,0,0,0,0,0,3,3,0,0,VALID,0,0,0,0,0,1,0,0,0,0,0,0,0,0,0,0,0,0,0,0,310.2,1060.4,2,0,0.12,0.12,56,8.33,0.12,0.12,6.86,FLYING,X10-H,0:/Integrated Flight Computer/aircraft/x10_h_cfg.ks (inferred preloaded)
7.22,APPROACH,ILS_TRACK,149.91,152,2.09,770.8,696.97,0.1,9.88,9.85,269.95,0.085,0.3219,0,12.684,1,0.6,4.5,0.75,0.35,0.0168,0.4,0,22.48,0,-2.091,0,269.98,-0.017,0,1,0.04,0,0,-0.02,269.98,0.539,-0.0004,0.8423,-0.02,269.98,1.68,-352.64,20.019,-0.024,0,0,3,767.41,8.448,-0.017,1123.44,0,0,0,,0,0,0,0,0,0,0,0,0,0,0,0,0,269.85,0,0,0,0,0,0,0,0,0,0,0,0,0,3,3,0,0,VALID,0,0,0,0,0,1,0,0,0,0,0,0,0,0,0,0,0,0,0,0,312.29,1060.59,2,0,0.12,0.12,59,8.33,0.12,0.12,7.22,FLYING,X10-H,0:/Integrated Flight Computer/aircraft/x10_h_cfg.ks (inferred preloaded)
7.58,APPROACH,ILS_TRACK,149.97,152,2.03,770.84,697.01,0.12,9.87,9.83,269.95,0.084,0.3229,0,13.424,1,0.6,4.5,0.75,0.35,0.0168,0.4,0,22.465,0,-2.036,0,269.98,-0.017,0,1,0.04,0,0,-0.02,269.97,0.5391,-0.0003,0.8423,-0.02,269.98,1.62,-349.6,19.961,-0.017,0,0,3,767.41,8.462,-0.017,1120.43,0,0,0,,0,0,0,0,0,0,0,0,0,0,0,0,0,269.85,0,0,0,0,0,0,0,0,0,0,0,0,0,3,3,0,0,VALID,0,0,0,0,0,1,0,0,0,0,0,0,0,0,0,0,0,0,0,0,314.41,1060.82,2,0,0.12,0.12,62,8.33,0.12,0.12,7.58,FLYING,X10-H,0:/Integrated Flight Computer/aircraft/x10_h_cfg.ks (inferred preloaded)
7.94,APPROACH,ILS_TRACK,150.03,152,1.97,770.88,697.05,0.13,9.85,9.81,269.95,0.082,0.3227,0,14.142,1,0.6,4.5,0.75,0.35,0.0168,0.4,0,22.447,0,-1.974,0,269.98,-0.017,0,1,0.05,0,0,-0.02,269.98,0.5392,-0.0004,0.8422,-0.02,269.98,1.56,-346.55,19.904,-0.024,0,0,3,767.41,8.473,-0.017,1117.42,0,0,0,,0,0,0,0,0,0,0,0,0,0,0,0,0,269.85,0,0,0,0,0,0,0,0,0,0,0,0,0,3,3,0,0,VALID,0,0,0,0,0,1,0,0,0,0,0,0,0,0,0,0,0,0,0,0,316.45,1061.08,2,0,0.12,0.12,65,8.33,0.12,0.12,7.94,FLYING,X10-H,0:/Integrated Flight Computer/aircraft/x10_h_cfg.ks (inferred preloaded)
8.2,APPROACH,ILS_TRACK,150.08,152,1.92,770.91,697.08,0.13,9.84,9.79,269.95,0.081,0.3222,0,14.645,1,0.6,4.5,0.75,0.35,0.0168,0.4,0,22.433,0,-1.923,0,269.99,-0.017,0,1,0.05,0,0,-0.02,269.98,0.5392,-0.0002,0.8422,-0.02,269.99,1.51,-344.34,19.863,-0.013,0,0,3,767.41,8.483,-0.017,1115.24,0,0,0,,0,0,0,0,0,0,0,0,0,0,0,0,0,269.85,0,0,0,0,0,0,0,0,0,0,0,0,0,3,3,0,0,VALID,0,0,0,0,0,1,0,0,0,0,0,0,0,0,0,0,0,0,0,0,317.83,1061.29,2,0,0.12,0.12,67,7.69,0.14,0.12,8.2,FLYING,X10-H,0:/Integrated Flight Computer/aircraft/x10_h_cfg.ks (inferred preloaded)
8.56,APPROACH,ILS_TRACK,150.16,152,1.84,770.95,697.13,0.14,9.82,9.77,269.95,0.08,0.3204,0,15.32,1,0.6,4.5,0.75,0.35,0.0168,0.4,0,22.411,0,-1.847,0,269.99,-0.018,0,1,0.05,0,0,-0.02,269.99,0.5393,-0.0003,0.8421,-0.02,269.99,1.45,-341.28,19.805,-0.015,0,0,3,767.41,8.495,-0.018,1112.23,0,0,0,,0,0,0,0,0,0,0,0,0,0,0,0,0,269.85,0,0,0,0,0,0,0,0,0,0,0,0,0,3,3,0,0,VALID,0,0,0,0,0,1,0,0,0,0,0,0,0,0,0,0,0,0,0,0,319.57,1061.61,2,0,0.12,0.12,70,8.33,0.12,0.12,8.56,FLYING,X10-H,0:/Integrated Flight Computer/aircraft/x10_h_cfg.ks (inferred preloaded)
8.92,APPROACH,ILS_TRACK,150.24,152,1.76,771,697.19,0.15,9.81,9.75,269.96,0.081,0.3179,0,15.965,1,0.6,4.5,0.75,0.35,0.0168,0.4,0,22.388,0,-1.763,0,269.99,-0.018,0,1,0.06,0,0,-0.02,269.98,0.5394,-0.0002,0.8421,-0.02,269.99,1.39,-338.22,19.748,-0.011,0,0,3,767.41,8.51,-0.018,1109.22,0,0,0,,0,0,0,0,0,0,0,0,0,0,0,0,0,269.85,0,0,0,0,0,0,0,0,0,0,0,0,0,3,3,0,0,VALID,0,0,0,0,0,1,0,0,0,0,0,0,0,0,0,0,0,0,0,0,321.05,1061.96,2,0,0.12,0.12,73,8.33,0.12,0.12,8.92,FLYING,X10-H,0:/Integrated Flight Computer/aircraft/x10_h_cfg.ks (inferred preloaded)
9.28,APPROACH,ILS_TRACK,150.33,152,1.67,771.05,697.24,0.16,9.79,9.73,269.96,0.081,0.3153,0,16.578,1,0.6,4.5,0.75,0.35,0.0168,0.4,0,22.363,0,-1.674,0,269.99,-0.018,0,1,0.06,0,0,-0.02,269.98,0.5395,-0.0002,0.842,-0.02,269.99,1.34,-335.16,19.69,-0.013,0,0,3,767.41,8.523,-0.018,1106.2,0,0,0,,0,0,0,0,0,0,0,0,0,0,0,0,0,269.85,0,0,0,0,0,0,0,0,0,0,0,0,0,3,3,0,0,VALID,0,0,0,0,0,1,0,0,0,0,0,0,0,0,0,0,0,0,0,0,322.26,1062.33,2,0,0.12,0.12,76,8.33,0.12,0.12,9.28,FLYING,X10-H,0:/Integrated Flight Computer/aircraft/x10_h_cfg.ks (inferred preloaded)
9.64,APPROACH,ILS_TRACK,150.43,152,1.57,771.1,697.3,0.17,9.77,9.71,269.96,0.08,0.3126,0,17.158,1,0.6,4.5,0.75,0.35,0.0168,0.4,0,22.336,0,-1.579,0,269.99,-0.018,0,1,0.06,0,0,-0.02,269.99,0.5396,-0.0002,0.8419,-0.02,269.99,1.28,-332.08,19.632,-0.009,0,0,3,767.41,8.536,-0.018,1103.18,0,0,0,,0,0,0,0,0,0,0,0,0,0,0,0,0,269.85,0,0,0,0,0,0,0,0,0,0,0,0,0,3,3,0,0,VALID,0,0,0,0,0,1,0,0,0,0,0,0,0,0,0,0,0,0,0,0,323.2,1062.73,2,0,0.12,0.12,79,8.33,0.12,0.12,9.64,FLYING,X10-H,0:/Integrated Flight Computer/aircraft/x10_h_cfg.ks (inferred preloaded)
10,APPROACH,ILS_TRACK,150.53,152,1.47,771.16,697.37,0.18,9.75,9.68,269.96,0.08,0.3099,0,17.703,1,0.6,4.5,0.75,0.35,0.0168,0.4,0,22.308,0,-1.48,0,269.98,-0.019,0,1,0.07,0,0,-0.02,269.99,0.5397,-0.0003,0.8419,-0.02,269.98,1.23,-329.01,19.575,-0.019,0,0,3,767.41,8.547,-0.019,1100.16,0,0,0,,0,0,0,0,0,0,0,0,0,0,0,0,0,269.85,0,0,0,0,0,0,0,0,0,0,0,0,0,3,3,0,0,VALID,0,0,0,0,0,1,0,0,0,0,0,0,0,0,0,0,0,0,0,0,323.89,1063.14,2,0,0.12,0.12,82,8.33,0.12,0.12,10,FLYING,X10-H,0:/Integrated Flight Computer/aircraft/x10_h_cfg.ks (inferred preloaded)
10.36,APPROACH,ILS_TRACK,150.63,152,1.37,771.22,697.43,0.19,9.73,9.66,269.96,0.079,0.3074,0,18.211,1,0.6,4.5,0.75,0.35,0.0168,0.4,0,22.279,0,-1.378,0,269.99,-0.019,0,1,0.07,0,0,-0.02,270,0.5397,-0.0002,0.8418,-0.02,269.99,1.18,-325.93,19.517,-0.014,0,0,3,767.41,8.561,-0.019,1097.14,0,0,0,,0,0,0,0,0,0,0,0,0,0,0,0,0,269.85,0,0,0,0,0,0,0,0,0,0,0,0,0,3,3,0,0,VALID,0,0,0,0,0,1,0,0,0,0,0,0,0,0,0,0,0,0,0,0,324.36,1063.56,2,0,0.12,0.12,85,8.33,0.12,0.12,10.36,FLYING,X10-H,0:/Integrated Flight Computer/aircraft/x10_h_cfg.ks (inferred preloaded)
10.62,APPROACH,ILS_TRACK,150.7,152,1.3,771.27,697.48,0.19,9.72,9.65,269.96,0.079,0.3057,0,18.555,1,0.6,4.5,0.75,0.35,0.0168,0.4,0,22.258,0,-1.303,0,269.99,-0.019,0,1,0.07,0,0,-0.02,269.99,0.5398,-0.0001,0.8418,-0.02,269.99,1.14,-323.7,19.476,-0.007,0,0,3,767.41,8.571,-0.019,1094.96,0,0,0,,0,0,0,0,0,0,0,0,0,0,0,0,0,269.85,0,0,0,0,0,0,0,0,0,0,0,0,0,3,3,0,0,VALID,0,0,0,0,0,1,0,0,0,0,0,0,0,0,0,0,0,0,0,0,324.57,1063.87,2,0,0.12,0.12,87,7.69,0.14,0.12,10.62,FLYING,X10-H,0:/Integrated Flight Computer/aircraft/x10_h_cfg.ks (inferred preloaded)
10.98,APPROACH,ILS_TRACK,150.81,152,1.19,771.33,697.55,0.2,9.7,9.63,269.96,0.079,0.3034,0,18.999,1,0.6,4.5,0.75,0.35,0.0168,0.4,0,22.229,0,-1.198,0,269.99,-0.02,0,1,0.07,0,0,-0.02,269.98,0.5399,-0.0002,0.8417,-0.02,269.99,1.1,-320.61,19.418,-0.011,0,0,3,767.41,8.587,-0.02,1091.93,0,0,0,,0,0,0,0,0,0,0,0,0,0,0,0,0,269.85,0,0,0,0,0,0,0,0,0,0,0,0,0,3,3,0,0,VALID,0,0,0,0,0,1,0,0,0,0,0,0,0,0,0,0,0,0,0,0,324.68,1064.31,2,0,0.12,0.12,90,8.33,0.12,0.12,10.98,FLYING,X10-H,0:/Integrated Flight Computer/aircraft/x10_h_cfg.ks (inferred preloaded)
11.34,APPROACH,ILS_TRACK,150.91,152,1.09,771.4,697.62,0.2,9.68,9.6,269.97,0.08,0.301,0,19.405,1,0.6,4.5,0.75,0.35,0.0168,0.4,0,22.199,0,-1.092,0,269.99,-0.02,0,1,0.08,0,0,-0.02,269.99,0.54,-0.0002,0.8417,-0.02,269.99,1.05,-317.52,19.36,-0.011,0,0,3,767.41,8.596,-0.02,1088.91,0,0,0,,0,0,0,0,0,0,0,0,0,0,0,0,0,269.85,0,0,0,0,0,0,0,0,0,0,0,0,0,3,3,0,0,VALID,0,0,0,0,0,1,0,0,0,0,0,0,0,0,0,0,0,0,0,0,324.51,1064.75,2,0,0.12,0.12,93,8.33,0.12,0.12,11.34,FLYING,X10-H,0:/Integrated Flight Computer/aircraft/x10_h_cfg.ks (inferred preloaded)
11.7,APPROACH,ILS_TRACK,151.02,152,0.98,771.47,697.7,0.21,9.66,9.58,269.97,0.079,0.2988,0,19.773,1,0.6,4.5,0.75,0.35,0.0168,0.4,0,22.169,0,-0.986,0,269.99,-0.02,0,1,0.08,0,0,-0.02,270,0.5401,-0.0002,0.8416,-0.02,269.99,1,-314.42,19.302,-0.014,0,0,3,767.41,8.607,-0.02,1085.88,0,0,0,,0,0,0,0,0,0,0,0,0,0,0,0,0,269.85,0,0,0,0,0,0,0,0,0,0,0,0,0,3,3,0,0,VALID,0,0,0,0,0,1,0,0,0,0,0,0,0,0,0,0,0,0,0,0,324.08,1065.19,2,0,0.12,0.12,96,8.33,0.12,0.12,11.7,FLYING,X10-H,0:/Integrated Flight Computer/aircraft/x10_h_cfg.ks (inferred preloaded)
12.06,APPROACH,ILS_TRACK,151.13,152,0.87,771.54,697.77,0.21,9.64,9.56,269.97,0.079,0.2955,0,20,1,0.6,4.5,0.75,0.35,0.0168,0.4,0,22.139,0,-0.881,0,269.99,-0.021,0,1,0.08,0,0,-0.02,270,0.5401,-0.0002,0.8416,-0.02,269.99,0.96,-311.32,19.244,-0.009,0,0,3,767.41,8.618,-0.021,1082.85,0,0,0,,0,0,0,0,0,0,0,0,0,0,0,0,0,269.85,0,0,0,0,0,0,0,0,0,0,0,0,0,3,3,0,0,VALID,0,0,0,0,0,1,0,0,0,0,0,0,0,0,0,0,0,0,0,0,323.47,1065.63,2,0,0.12,0.12,99,8.33,0.12,0.12,12.06,FLYING,X10-H,0:/Integrated Flight Computer/aircraft/x10_h_cfg.ks (inferred preloaded)
12.42,APPROACH,ILS_TRACK,151.23,152,0.77,771.61,697.85,0.22,9.62,9.55,269.97,0.078,0.2893,0,20,1,0.6,4.5,0.75,0.35,0.0168,0.4,0,22.11,0,-0.778,0,270,-0.021,0,1,0.08,0,0,-0.02,269.99,0.5402,0,0.8415,-0.02,270,0.91,-308.21,19.187,0,0,0,3,767.41,8.631,-0.021,1079.81,0,0,0,,0,0,0,0,0,0,0,0,0,0,0,0,0,269.85,0,0,0,0,0,0,0,0,0,0,0,0,0,3,3,0,0,VALID,0,0,0,0,0,1,0,0,0,0,0,0,0,0,0,0,0,0,0,0,322.34,1066.06,2,0,0.12,0.12,102,8.33,0.12,0.12,12.42,FLYING,X10-H,0:/Integrated Flight Computer/aircraft/x10_h_cfg.ks (inferred preloaded)
12.78,APPROACH,ILS_TRACK,151.33,152,0.67,771.68,697.93,0.22,9.61,9.53,269.97,0.078,0.285,0,20,1,0.6,4.5,0.75,0.35,0.0168,0.4,0,22.082,0,-0.679,0,269.99,-0.021,0,1,0.08,0,0,-0.02,269.99,0.5403,-0.0001,0.8415,-0.02,269.99,0.87,-305.1,19.129,-0.007,0,0,3,767.41,8.643,-0.021,1076.78,0,0,0,,0,0,0,0,0,0,0,0,0,0,0,0,0,269.85,0,0,0,0,0,0,0,0,0,0,0,0,0,3,3,0,0,VALID,0,0,0,0,0,1,0,0,0,0,0,0,0,0,0,0,0,0,0,0,320.63,1066.47,2,0,0.12,0.12,105,8.33,0.12,0.12,12.78,FLYING,X10-H,0:/Integrated Flight Computer/aircraft/x10_h_cfg.ks (inferred preloaded)
13.04,APPROACH,ILS_TRACK,151.39,152,0.61,771.74,697.99,0.22,9.6,9.52,269.97,0.077,0.283,0,20,1,0.6,4.5,0.75,0.35,0.0168,0.4,0,22.063,0,-0.611,0,270,-0.022,0,1,0.08,0,0,-0.02,270,0.5404,0,0.8414,-0.02,270,0.84,-302.86,19.087,-0.002,0,0,3,767.41,8.648,-0.022,1074.59,0,0,0,,0,0,0,0,0,0,0,0,0,0,0,0,0,269.85,0,0,0,0,0,0,0,0,0,0,0,0,0,3,3,0,0,VALID,0,0,0,0,0,1,0,0,0,0,0,0,0,0,0,0,0,0,0,0,319.22,1066.75,2,0,0.12,0.12,107,7.69,0.14,0.12,13.04,FLYING,X10-H,0:/Integrated Flight Computer/aircraft/x10_h_cfg.ks (inferred preloaded)
13.4,APPROACH,ILS_TRACK,151.48,152,0.52,771.82,698.07,0.23,9.59,9.51,269.97,0.076,0.2823,0,20,1,0.6,4.5,0.75,0.35,0.0168,0.4,0,22.038,0,-0.524,0,269.99,-0.022,0,1,0.09,0,0,-0.02,269.99,0.5405,-0.0001,0.8414,-0.02,269.99,0.81,-299.74,19.029,-0.005,0,0,3,767.41,8.658,-0.022,1071.55,0,0,0,,0,0,0,0,0,0,0,0,0,0,0,0,0,269.85,0,0,0,0,0,0,0,0,0,0,0,0,0,3,3,0,0,VALID,0,0,0,0,0,1,0,0,0,0,0,0,0,0,0,0,0,0,0,0,317.23,1067.11,2,0,0.12,0.12,110,8.33,0.12,0.12,13.4,FLYING,X10-H,0:/Integrated Flight Computer/aircraft/x10_h_cfg.ks (inferred preloaded)
13.76,APPROACH,ILS_TRACK,151.56,152,0.44,771.9,698.15,0.23,9.58,9.5,269.98,0.074,0.2827,0,20,1,0.6,4.5,0.75,0.35,0.0168,0.4,0,22.016,0,-0.443,0,270,-0.022,0,1,0.09,0,0,-0.02,269.99,0.5406,0,0.8413,-0.02,270,0.77,-296.62,18.971,0.002,0,0,3,767.41,8.668,-0.022,1068.51,0,0,0,,0,0,0,0,0,0,0,0,0,0,0,0,0,269.85,0,0,0,0,0,0,0,0,0,0,0,0,0,3,3,0,0,VALID,0,0,0,0,0,1,0,0,0,0,0,0,0,0,0,0,0,0,0,0,315.44,1067.44,2,0,0.12,0.12,113,8.33,0.12,0.12,13.76,FLYING,X10-H,0:/Integrated Flight Computer/aircraft/x10_h_cfg.ks (inferred preloaded)
14.12,APPROACH,ILS_TRACK,151.63,152,0.37,771.98,698.23,0.23,9.57,9.48,269.98,0.073,0.2836,0,20,1,0.6,4.5,0.75,0.35,0.0168,0.4,0,21.995,0,-0.369,0,269.99,-0.023,0,1,0.09,0,0,-0.02,270,0.5406,-0.0002,0.8413,-0.02,269.99,0.73,-293.5,18.913,-0.009,0,0,3,767.41,8.674,-0.023,1065.47,0,0,0,,0,0,0,0,0,0,0,0,0,0,0,0,0,269.85,0,0,0,0,0,0,0,0,0,0,0,0,0,3,3,0,0,VALID,0,0,0,0,0,1,0,0,0,0,0,0,0,0,0,0,0,0,0,0,313.94,1067.75,2,0,0.12,0.12,116,8.33,0.12,0.12,14.12,FLYING,X10-H,0:/Integrated Flight Computer/aircraft/x10_h_cfg.ks (inferred preloaded)
14.48,APPROACH,ILS_TRACK,151.7,152,0.3,772.06,698.32,0.24,9.56,9.47,269.98,0.071,0.2843,0,20,1,0.6,4.5,0.75,0.35,0.0168,0.4,0,21.975,0,-0.3,0,269.99,-0.023,0,1,0.09,0,0,-0.02,269.99,0.5407,-0.0001,0.8412,-0.02,269.99,0.7,-290.37,18.855,-0.005,0,0,3,767.41,8.68,-0.023,1062.43,0,0,0,,0,0,0,0,0,0,0,0,0,0,0,0,0,269.85,0,0,0,0,0,0,0,0,0,0,0,0,0,3,3,0,0,VALID,0,0,0,0,0,1,0,0,0,0,0,0,0,0,0,0,0,0,0,0,312.73,1068.03,2,0,0.12,0.12,119,8.33,0.12,0.12,14.48,FLYING,X10-H,0:/Integrated Flight Computer/aircraft/x10_h_cfg.ks (inferred preloaded)
14.84,APPROACH,ILS_TRACK,151.77,152,0.23,772.14,698.4,0.24,9.55,9.46,269.98,0.071,0.2846,0,20,1,0.6,4.5,0.75,0.35,0.0168,0.4,0,21.957,0,-0.235,0,269.99,-0.024,0,1,0.09,0,0,-0.02,270,0.5408,-0.0002,0.8411,-0.02,269.99,0.67,-287.25,18.797,-0.01,0,0,3,767.41,8.687,-0.024,1059.38,0,0,0,,0,0,0,0,0,0,0,0,0,0,0,0,0,269.85,0,0,0,0,0,0,0,0,0,0,0,0,0,3,3,0,0,VALID,0,0,0,0,0,1,0,0,0,0,0,0,0,0,0,0,0,0,0,0,311.75,1068.3,2,0,0.12,0.12,122,8.33,0.12,0.12,14.84,FLYING,X10-H,0:/Integrated Flight Computer/aircraft/x10_h_cfg.ks (inferred preloaded)
15.2,APPROACH,ILS_TRACK,151.83,152,0.17,772.23,698.49,0.24,9.54,9.45,269.98,0.069,0.2843,0,20,1,0.6,4.5,0.75,0.35,0.0168,0.4,0,21.94,0,-0.174,0,269.99,-0.024,0,1,0.09,0,0,-0.02,270,0.5409,-0.0001,0.8411,-0.02,269.99,0.63,-284.12,18.739,-0.006,0,0,3,767.41,8.693,-0.024,1056.34,0,0,0,,0,0,0,0,0,0,0,0,0,0,0,0,0,269.85,0,0,0,0,0,0,0,0,0,0,0,0,0,3,3,0,0,VALID,0,0,0,0,0,1,0,0,0,0,0,0,0,0,0,0,0,0,0,0,310.89,1068.55,2,0,0.12,0.12,125,8.33,0.12,0.12,15.2,FLYING,X10-H,0:/Integrated Flight Computer/aircraft/x10_h_cfg.ks (inferred preloaded)
15.46,APPROACH,ILS_TRACK,151.87,152,0.13,772.29,698.55,0.24,9.53,9.45,269.98,0.069,0.2837,0,20,1,0.6,4.5,0.75,0.35,0.0168,0.4,0,21.928,0,-0.131,0,269.99,-0.024,0,1,0.09,0,0,-0.02,270,0.541,-0.0001,0.841,-0.02,269.99,0.61,-281.86,18.697,-0.006,0,0,3,767.41,8.695,-0.024,1054.14,0,0,0,,0,0,0,0,0,0,0,0,0,0,0,0,0,269.85,0,0,0,0,0,0,0,0,0,0,0,0,0,3,3,0,0,VALID,0,0,0,0,0,1,0,0,0,0,0,0,0,0,0,0,0,0,0,0,310.31,1068.73,2,0,0.12,0.12,127,7.69,0.14,0.12,15.46,FLYING,X10-H,0:/Integrated Flight Computer/aircraft/x10_h_cfg.ks (inferred preloaded)
15.82,APPROACH,ILS_TRACK,151.93,152,0.07,772.37,698.64,0.25,9.52,9.44,269.98,0.067,0.283,0,20,1,0.6,4.5,0.75,0.35,0.0168,0.4,0,21.912,0,-0.075,0,270,-0.025,0,1,0.09,0,0,-0.02,270,0.5411,-0.0001,0.841,-0.03,270,0.58,-278.73,18.638,-0.004,0,0,3,767.41,8.702,-0.025,1051.09,0,0,0,,0,0,0,0,0,0,0,0,0,0,0,0,0,269.85,0,0,0,0,0,0,0,0,0,0,0,0,0,3,3,0,0,VALID,0,0,0,0,0,1,0,0,0,0,0,0,0,0,0,0,0,0,0,0,309.5,1068.96,2,0,0.12,0.12,130,8.33,0.12,0.12,15.82,FLYING,X10-H,0:/Integrated Flight Computer/aircraft/x10_h_cfg.ks (inferred preloaded)
16.18,APPROACH,ILS_TRACK,151.98,152,0.02,772.46,698.73,0.25,9.51,9.43,269.98,0.063,0.2822,0,20,1,0.6,4.5,0.75,0.35,0.0168,0.4,0,21.897,0,-0.021,0,270,-0.025,0,1,0.09,0,0,-0.02,269.99,0.5411,0.0001,0.8409,-0.03,270,0.55,-275.59,18.58,0.004,0,0,3,767.41,8.708,-0.025,1048.04,0,0,0,,0,0,0,0,0,0,0,0,0,0,0,0,0,269.85,0,0,0,0,0,0,0,0,0,0,0,0,0,3,3,0,0,VALID,0,0,0,0,0,1,0,0,0,0,0,0,0,0,0,0,0,0,0,0,308.71,1069.18,2,0,0.12,0.12,133,8.33,0.12,0.12,16.18,FLYING,X10-H,0:/Integrated Flight Computer/aircraft/x10_h_cfg.ks (inferred preloaded)
16.54,APPROACH,ILS_TRACK,152.03,152,-0.03,772.55,698.82,0.25,9.51,9.42,269.98,0.063,0.2813,0,19.995,1,0.6,4.5,0.75,0.35,0.0168,0.4,0,21.882,0,0.03,0,269.99,-0.026,0,1,0.09,0,0,-0.02,270,0.5412,-0.0001,0.8409,-0.03,269.99,0.53,-272.46,18.522,-0.009,0,0,3,767.41,8.712,-0.026,1044.99,0,0,0,,0,0,0,0,0,0,0,0,0,0,0,0,0,269.85,0,0,0,0,0,0,0,0,0,0,0,0,0,3,3,0,0,VALID,0,0,0,0,0,1,0,0,0,0,0,0,0,0,0,0,0,0,0,0,307.9,1069.39,2,0,0.12,0.12,136,8.33,0.12,0.12,16.54,FLYING,X10-H,0:/Integrated Flight Computer/aircraft/x10_h_cfg.ks (inferred preloaded)
16.9,APPROACH,ILS_TRACK,152.08,152,-0.08,772.63,698.91,0.25,9.5,9.41,269.98,0.061,0.2803,0,19.972,1,0.6,4.5,0.75,0.35,0.0168,0.4,0,21.869,0,0.079,0,270,-0.026,0,1,0.09,0,0,-0.02,269.99,0.5413,-0.0001,0.8408,-0.03,270,0.5,-269.32,18.464,-0.004,0,0,3,767.41,8.716,-0.026,1041.94,0,0,0,,0,0,0,0,0,0,0,0,0,0,0,0,0,269.85,0,0,0,0,0,0,0,0,0,0,0,0,0,3,3,0,0,VALID,0,0,0,0,0,1,0,0,0,0,0,0,0,0,0,0,0,0,0,0,307.08,1069.58,2,0,0.12,0.12,139,8.33,0.12,0.12,16.9,FLYING,X10-H,0:/Integrated Flight Computer/aircraft/x10_h_cfg.ks (inferred preloaded)
17.26,APPROACH,ILS_TRACK,152.13,152,-0.13,772.72,699,0.25,9.49,9.4,269.99,0.06,0.2793,0,19.933,1,0.6,4.5,0.75,0.35,0.0168,0.4,0,21.856,0,0.124,0,269.99,-0.027,0,1,0.09,0,0,-0.02,270,0.5414,-0.0001,0.8408,-0.03,269.99,0.48,-266.18,18.406,-0.006,0,0,3,767.41,8.719,-0.027,1038.89,0,0,0,,0,0,0,0,0,0,0,0,0,0,0,0,0,269.85,0,0,0,0,0,0,0,0,0,0,0,0,0,3,3,0,0,VALID,0,0,0,0,0,1,0,0,0,0,0,0,0,0,0,0,0,0,0,0,306.24,1069.77,2,0,0.12,0.12,142,8.33,0.12,0.12,17.26,FLYING,X10-H,0:/Integrated Flight Computer/aircraft/x10_h_cfg.ks (inferred preloaded)
17.62,APPROACH,ILS_TRACK,152.17,152,-0.17,772.81,699.09,0.25,9.49,9.4,269.99,0.057,0.2783,0,19.878,1,0.6,4.5,0.75,0.35,0.0168,0.4,0,21.844,0,0.166,0,270,-0.027,0,1,0.09,0,0,-0.03,270,0.5415,-0.0001,0.8407,-0.03,270,0.45,-263.04,18.348,-0.003,0,0,3,767.41,8.723,-0.027,1035.84,0,0,0,,0,0,0,0,0,0,0,0,0,0,0,0,0,269.85,0,0,0,0,0,0,0,0,0,0,0,0,0,3,3,0,0,VALID,0,0,0,0,0,1,0,0,0,0,0,0,0,0,0,0,0,0,0,0,305.36,1069.94,2,0,0.12,0.12,145,8.33,0.12,0.12,17.62,FLYING,X10-H,0:/Integrated Flight Computer/aircraft/x10_h_cfg.ks (inferred preloaded)
17.88,APPROACH,ILS_TRACK,152.2,152,-0.2,772.88,699.16,0.25,9.48,9.39,269.99,0.057,0.2774,0,19.829,1,0.6,4.5,0.75,0.35,0.0168,0.4,0,21.836,0,0.195,0,269.99,-0.027,0,1,0.09,0,0,-0.03,270,0.5416,-0.0001,0.8407,-0.03,269.99,0.44,-260.77,18.305,-0.007,0,0,3,767.41,8.724,-0.027,1033.64,0,0,0,,0,0,0,0,0,0,0,0,0,0,0,0,0,269.85,0,0,0,0,0,0,0,0,0,0,0,0,0,3,3,0,0,VALID,0,0,0,0,0,1,0,0,0,0,0,0,0,0,0,0,0,0,0,0,304.71,1070.06,2,0,0.12,0.12,147,7.69,0.14,0.12,17.88,FLYING,X10-H,0:/Integrated Flight Computer/aircraft/x10_h_cfg.ks (inferred preloaded)
18.24,APPROACH,ILS_TRACK,152.23,152,-0.23,772.96,699.25,0.25,9.48,9.39,269.99,0.056,0.2767,0,19.75,1,0.6,4.5,0.75,0.35,0.0168,0.4,0,21.826,0,0.232,0,270,-0.028,0,1,0.09,0,0,-0.03,270,0.5416,-0.0001,0.8406,-0.03,270,0.42,-257.63,18.247,-0.004,0,0,3,767.41,8.729,-0.028,1030.59,0,0,0,,0,0,0,0,0,0,0,0,0,0,0,0,0,269.85,0,0,0,0,0,0,0,0,0,0,0,0,0,3,3,0,0,VALID,0,0,0,0,0,1,0,0,0,0,0,0,0,0,0,0,0,0,0,0,303.79,1070.21,2,0,0.12,0.12,150,8.33,0.12,0.12,18.24,FLYING,X10-H,0:/Integrated Flight Computer/aircraft/x10_h_cfg.ks (inferred preloaded)
18.6,APPROACH,ILS_TRACK,152.27,152,-0.27,773.05,699.34,0.25,9.47,9.38,269.99,0.054,0.2759,0,19.658,1,0.6,4.5,0.75,0.35,0.0168,0.4,0,21.816,0,0.265,0,270,-0.028,0,1,0.09,0,0,-0.03,270,0.5417,-0.0001,0.8405,-0.03,270,0.4,-254.49,18.189,-0.004,0,0,3,767.41,8.732,-0.028,1027.53,0,0,0,,0,0,0,0,0,0,0,0,0,0,0,0,0,269.85,0,0,0,0,0,0,0,0,0,0,0,0,0,3,3,0,0,VALID,0,0,0,0,0,1,0,0,0,0,0,0,0,0,0,0,0,0,0,0,302.88,1070.34,2,0,0.12,0.12,153,8.33,0.12,0.12,18.6,FLYING,X10-H,0:/Integrated Flight Computer/aircraft/x10_h_cfg.ks (inferred preloaded)
18.96,APPROACH,ILS_TRACK,152.3,152,-0.3,773.14,699.43,0.25,9.47,9.38,269.99,0.053,0.2752,0,19.555,1,0.6,4.5,0.75,0.35,0.0168,0.4,0,21.808,0,0.296,0,269.99,-0.029,0,1,0.1,0,0,-0.03,269.99,0.5418,-0.0001,0.8405,-0.03,269.99,0.38,-251.34,18.131,-0.007,0,0,3,767.41,8.734,-0.029,1024.48,0,0,0,,0,0,0,0,0,0,0,0,0,0,0,0,0,269.85,0,0,0,0,0,0,0,0,0,0,0,0,0,3,3,0,0,VALID,0,0,0,0,0,1,0,0,0,0,0,0,0,0,0,0,0,0,0,0,301.99,1070.46,2,0,0.12,0.12,156,8.33,0.12,0.12,18.96,FLYING,X10-H,0:/Integrated Flight Computer/aircraft/x10_h_cfg.ks (inferred preloaded)
19.32,APPROACH,ILS_TRACK,152.32,152,-0.32,773.23,699.52,0.25,9.46,9.37,269.99,0.05,0.2745,0,19.442,1,0.6,4.5,0.75,0.35,0.0168,0.4,0,21.8,0,0.323,0,270,-0.029,0,1,0.1,0,0,-0.03,269.99,0.5419,0,0.8404,-0.03,270,0.36,-248.2,18.072,0.001,0,0,3,767.41,8.737,-0.029,1021.42,0,0,0,,0,0,0,0,0,0,0,0,0,0,0,0,0,269.85,0,0,0,0,0,0,0,0,0,0,0,0,0,3,3,0,0,VALID,0,0,0,0,0,1,0,0,0,0,0,0,0,0,0,0,0,0,0,0,301.11,1070.57,2,0,0.12,0.12,159,8.33,0.12,0.12,19.32,FLYING,X10-H,0:/Integrated Flight Computer/aircraft/x10_h_cfg.ks (inferred preloaded)
19.68,APPROACH,ILS_TRACK,152.35,152,-0.35,773.32,699.61,0.25,9.46,9.37,269.99,0.047,0.2739,0,19.32,1,0.6,4.5,0.75,0.35,0.0168,0.4,0,21.793,0,0.347,0,270,-0.03,0,1,0.1,0,0,-0.03,270,0.542,0,0.8404,-0.03,270,0.34,-245.05,18.014,-0.001,0,0,3,767.41,8.738,-0.03,1018.37,0,0,0,,0,0,0,0,0,0,0,0,0,0,0,0,0,269.85,0,0,0,0,0,0,0,0,0,0,0,0,0,3,3,0,0,VALID,0,0,0,0,0,1,0,0,0,0,0,0,0,0,0,0,0,0,0,0,300.26,1070.66,2,0,0.12,0.12,162,8.33,0.12,0.12,19.68,FLYING,X10-H,0:/Integrated Flight Computer/aircraft/x10_h_cfg.ks (inferred preloaded)
20.04,APPROACH,ILS_TRACK,152.37,152,-0.37,773.41,699.7,0.25,9.46,9.37,269.99,0.047,0.2734,0,19.19,1,0.6,4.5,0.75,0.35,0.0168,0.4,0,21.787,0,0.368,0,269.99,-0.03,0,1,0.1,0,0,-0.03,270,0.5421,-0.0001,0.8403,-0.03,269.99,0.33,-241.91,17.956,-0.007,0,0,3,767.41,8.739,-0.03,1015.31,0,0,0,,0,0,0,0,0,0,0,0,0,0,0,0,0,269.85,0,0,0,0,0,0,0,0,0,0,0,0,0,3,3,0,0,VALID,0,0,0,0,0,1,0,0,0,0,0,0,0,0,0,0,0,0,0,0,299.43,1070.74,2,0,0.12,0.12,165,8.33,0.12,0.12,20.04,FLYING,X10-H,0:/Integrated Flight Computer/aircraft/x10_h_cfg.ks (inferred preloaded)
20.3,APPROACH,ILS_TRACK,152.38,152,-0.38,773.48,699.77,0.25,9.46,9.37,269.99,0.044,0.2728,0,19.092,1,0.6,4.5,0.75,0.35,0.0168,0.4,0,21.784,0,0.381,0,269.99,-0.03,0,1,0.09,0,0,-0.03,270,0.5422,-0.0001,0.8403,-0.03,269.99,0.31,-239.64,17.914,-0.008,0,0,3,767.41,8.738,-0.03,1013.11,0,0,0,,0,0,0,0,0,0,0,0,0,0,0,0,0,269.85,0,0,0,0,0,0,0,0,0,0,0,0,0,3,3,0,0,VALID,0,0,0,0,0,1,0,0,0,0,0,0,0,0,0,0,0,0,0,0,298.85,1070.79,2,0,0.12,0.12,167,7.69,0.14,0.12,20.3,FLYING,X10-H,0:/Integrated Flight Computer/aircraft/x10_h_cfg.ks (inferred preloaded)
20.66,APPROACH,ILS_TRACK,152.4,152,-0.4,773.57,699.86,0.25,9.45,9.37,269.99,0.042,0.2725,0,18.951,1,0.6,4.5,0.75,0.35,0.0168,0.4,0,21.779,0,0.396,0,270,-0.031,0,1,0.09,0,0,-0.03,270,0.5422,0,0.8402,-0.03,270,0.3,-236.49,17.855,-0.002,0,0,3,767.41,8.741,-0.031,1010.05,0,0,0,,0,0,0,0,0,0,0,0,0,0,0,0,0,269.85,0,0,0,0,0,0,0,0,0,0,0,0,0,3,3,0,0,VALID,0,0,0,0,0,1,0,0,0,0,0,0,0,0,0,0,0,0,0,0,298.06,1070.85,2,0,0.12,0.12,170,8.33,0.12,0.12,20.66,FLYING,X10-H,0:/Integrated Flight Computer/aircraft/x10_h_cfg.ks (inferred preloaded)
21.02,APPROACH,ILS_TRACK,152.41,152,-0.41,773.66,699.95,0.25,9.45,9.36,269.99,0.039,0.272,0,18.805,1,0.6,4.5,0.75,0.35,0.0168,0.4,0,21.776,0,0.409,0,270,-0.031,0,1,0.09,0,0,-0.03,270,0.5423,0.0001,0.8402,-0.03,270,0.28,-233.34,17.797,0.003,0,0,3,767.41,8.742,-0.031,1006.99,0,0,0,,0,0,0,0,0,0,0,0,0,0,0,0,0,269.85,0,0,0,0,0,0,0,0,0,0,0,0,0,3,3,0,0,VALID,0,0,0,0,0,1,0,0,0,0,0,0,0,0,0,0,0,0,0,0,297.31,1070.9,2,0,0.12,0.12,173,8.33,0.12,0.12,21.02,FLYING,X10-H,0:/Integrated Flight Computer/aircraft/x10_h_cfg.ks (inferred preloaded)
21.38,APPROACH,ILS_TRACK,152.42,152,-0.42,773.75,700.04,0.25,9.45,9.36,269.99,0.038,0.2716,0,18.656,1,0.6,4.5,0.75,0.35,0.0168,0.4,0,21.773,0,0.419,0,269.99,-0.032,0,1,0.09,0,0,-0.03,270,0.5424,-0.0001,0.8401,-0.03,269.99,0.27,-230.19,17.739,-0.006,0,0,3,767.41,8.742,-0.032,1003.94,0,0,0,,0,0,0,0,0,0,0,0,0,0,0,0,0,269.85,0,0,0,0,0,0,0,0,0,0,0,0,0,3,3,0,0,VALID,0,0,0,0,0,1,0,0,0,0,0,0,0,0,0,0,0,0,0,0,296.59,1070.93,2,0,0.12,0.12,176,8.33,0.12,0.12,21.38,FLYING,X10-H,0:/Integrated Flight Computer/aircraft/x10_h_cfg.ks (inferred preloaded)
21.74,APPROACH,ILS_TRACK,152.43,152,-0.43,773.84,700.13,0.25,9.45,9.36,269.99,0.035,0.2712,0,18.503,1,0.6,4.5,0.75,0.35,0.0168,0.4,0,21.771,0,0.426,0,270,-0.032,0,1,0.09,0,0,-0.03,270,0.5425,-0.0001,0.8401,-0.03,270,0.26,-227.05,17.68,-0.005,0,0,3,767.41,8.743,-0.032,1000.88,0,0,0,,0,0,0,0,0,0,0,0,0,0,0,0,0,269.85,0,0,0,0,0,0,0,0,0,0,0,0,0,3,3,0,0,VALID,0,0,0,0,0,1,0,0,0,0,0,0,0,0,0,0,0,0,0,0,295.91,1070.96,2,0,0.12,0.12,179,8.33,0.12,0.12,21.74,FLYING,X10-H,0:/Integrated Flight Computer/aircraft/x10_h_cfg.ks (inferred preloaded)
22.1,APPROACH,ILS_TRACK,152.43,152,-0.43,773.93,700.22,0.25,9.45,9.36,269.99,0.034,0.2709,0,18.348,1,0.6,4.5,0.75,0.35,0.0168,0.4,0,21.769,0,0.431,0,269.99,-0.033,0,1,0.09,0,0,-0.03,270,0.5426,-0.0001,0.84,-0.03,269.99,0.25,-223.9,17.622,-0.006,0,0,3,767.41,8.742,-0.033,997.82,0,0,0,,0,0,0,0,0,0,0,0,0,0,0,0,0,269.85,0,0,0,0,0,0,0,0,0,0,0,0,0,3,3,0,0,VALID,0,0,0,0,0,1,0,0,0,0,0,0,0,0,0,0,0,0,0,0,295.25,1070.97,2,0,0.12,0.12,182,8.33,0.12,0.12,22.1,FLYING,X10-H,0:/Integrated Flight Computer/aircraft/x10_h_cfg.ks (inferred preloaded)
22.46,APPROACH,ILS_TRACK,152.43,152,-0.43,774.02,700.31,0.25,9.45,9.36,269.99,0.033,0.2706,0,18.193,1,0.6,4.5,0.75,0.35,0.0168,0.4,0,21.769,0,0.433,0,270,-0.033,0,1,0.09,0,0,-0.03,270,0.5427,0,0.8399,-0.03,270,0.23,-220.75,17.564,-0.001,0,0,3,767.41,8.742,-0.033,994.76,0,0,0,,0,0,0,0,0,0,0,0,0,0,0,0,0,269.85,0,0,0,0,0,0,0,0,0,0,0,0,0,3,3,0,0,VALID,0,0,0,0,0,1,0,0,0,0,0,0,0,0,0,0,0,0,0,0,294.63,1070.97,2,0,0.12,0.12,185,8.33,0.12,0.12,22.46,FLYING,X10-H,0:/Integrated Flight Computer/aircraft/x10_h_cfg.ks (inferred preloaded)
22.72,APPROACH,ILS_TRACK,152.43,152,-0.43,774.09,700.38,0.25,9.45,9.36,269.99,0.032,0.2702,0,18.08,1,0.6,4.5,0.75,0.35,0.0168,0.4,0,21.769,0,0.434,0,270.01,-0.033,0,1,0.09,0,0,-0.03,270,0.5427,0.0001,0.8399,-0.03,270.01,0.22,-218.48,17.522,0.006,0,0,3,767.41,8.742,-0.033,992.56,0,0,0,,0,0,0,0,0,0,0,0,0,0,0,0,0,269.85,0,0,0,0,0,0,0,0,0,0,0,0,0,3,3,0,0,VALID,0,0,0,0,0,1,0,0,0,0,0,0,0,0,0,0,0,0,0,0,294.2,1070.97,2,0,0.12,0.12,187,7.69,0.14,0.12,22.72,FLYING,X10-H,0:/Integrated Flight Computer/aircraft/x10_h_cfg.ks (inferred preloaded)
23.08,APPROACH,ILS_TRACK,152.43,152,-0.43,774.18,700.47,0.25,9.45,9.37,269.99,0.032,0.2702,0,17.924,1,0.6,4.5,0.75,0.35,0.0168,0.4,0,21.769,0,0.432,0,270,-0.034,0,1,0.09,0,0,-0.03,270,0.5428,0,0.8398,-0.03,270,0.21,-215.33,17.463,0,0,0,3,767.41,8.742,-0.034,989.5,0,0,0,,0,0,0,0,0,0,0,0,0,0,0,0,0,269.85,0,0,0,0,0,0,0,0,0,0,0,0,0,3,3,0,0,VALID,0,0,0,0,0,1,0,0,0,0,0,0,0,0,0,0,0,0,0,0,293.62,1070.95,2,0,0.12,0.12,190,8.33,0.12,0.12,23.08,FLYING,X10-H,0:/Integrated Flight Computer/aircraft/x10_h_cfg.ks (inferred preloaded)
23.44,APPROACH,ILS_TRACK,152.43,152,-0.43,774.27,700.56,0.25,9.45,9.37,269.99,0.031,0.27,0,17.77,1,0.6,4.5,0.75,0.35,0.0168,0.4,0,21.77,0,0.428,0,270,-0.034,0,1,0.09,0,0,-0.03,270,0.5429,-0.0001,0.8398,-0.03,270,0.2,-212.19,17.405,-0.004,0,0,3,767.41,8.741,-0.034,986.44,0,0,0,,0,0,0,0,0,0,0,0,0,0,0,0,0,269.85,0,0,0,0,0,0,0,0,0,0,0,0,0,3,3,0,0,VALID,0,0,0,0,0,1,0,0,0,0,0,0,0,0,0,0,0,0,0,0,293.1,1070.93,2,0,0.12,0.12,193,8.33,0.12,0.12,23.44,FLYING,X10-H,0:/Integrated Flight Computer/aircraft/x10_h_cfg.ks (inferred preloaded)
23.8,APPROACH,ILS_TRACK,152.42,152,-0.42,774.36,700.65,0.25,9.45,9.37,269.99,0.029,0.2699,0,17.617,1,0.6,4.5,0.75,0.35,0.0168,0.4,0,21.772,0,0.422,0,270,-0.035,0,1,0.09,0,0,-0.03,270,0.543,0,0.8397,-0.04,270,0.19,-209.04,17.347,0,0,0,3,767.41,8.74,-0.035,983.39,0,0,0,,0,0,0,0,0,0,0,0,0,0,0,0,0,269.85,0,0,0,0,0,0,0,0,0,0,0,0,0,3,3,0,0,VALID,0,0,0,0,0,1,0,0,0,0,0,0,0,0,0,0,0,0,0,0,292.61,1070.9,2,0,0.12,0.12,196,8.33,0.12,0.12,23.8,FLYING,X10-H,0:/Integrated Flight Computer/aircraft/x10_h_cfg.ks (inferred preloaded)
24.16,APPROACH,ILS_TRACK,152.41,152,-0.41,774.45,700.74,0.25,9.46,9.37,269.99,0.028,0.2698,0,17.466,1,0.6,4.5,0.75,0.35,0.0168,0.4,0,21.774,0,0.415,0,270,-0.035,0,1,0.09,0,0,-0.03,270,0.5431,0,0.8397,-0.04,270,0.18,-205.89,17.288,-0.003,0,0,3,767.41,8.739,-0.035,980.33,0,0,0,,0,0,0,0,0,0,0,0,0,0,0,0,0,269.85,0,0,0,0,0,0,0,0,0,0,0,0,0,3,3,0,0,VALID,0,0,0,0,0,1,0,0,0,0,0,0,0,0,0,0,0,0,0,0,292.17,1070.86,2,0,0.12,0.12,199,8.33,0.12,0.12,24.16,FLYING,X10-H,0:/Integrated Flight Computer/aircraft/x10_h_cfg.ks (inferred preloaded)
24.52,APPROACH,ILS_TRACK,152.41,152,-0.41,774.53,700.82,0.24,9.46,9.37,269.99,0.026,0.2697,0,17.319,1,0.6,4.5,0.75,0.35,0.0168,0.4,0,21.777,0,0.406,0,270,-0.036,0,1,0.09,0,0,-0.03,270,0.5432,0,0.8396,-0.04,270,0.18,-202.75,17.23,0.001,0,0,3,767.41,8.738,-0.036,977.27,0,0,0,,0,0,0,0,0,0,0,0,0,0,0,0,0,269.85,0,0,0,0,0,0,0,0,0,0,0,0,0,3,3,0,0,VALID,0,0,0,0,0,1,0,0,0,0,0,0,0,0,0,0,0,0,0,0,291.77,1070.81,2,0,0.12,0.12,202,8.33,0.12,0.12,24.52,FLYING,X10-H,0:/Integrated Flight Computer/aircraft/x10_h_cfg.ks (inferred preloaded)
24.88,APPROACH,ILS_TRACK,152.39,152,-0.39,774.62,700.91,0.24,9.46,9.37,269.99,0.025,0.2697,0,17.176,1,0.6,4.5,0.75,0.35,0.0168,0.4,0,21.78,0,0.395,0,270,-0.036,0,1,0.09,0,0,-0.03,270,0.5433,0,0.8396,-0.04,270,0.17,-199.6,17.172,-0.002,0,0,3,767.41,8.737,-0.036,974.22,0,0,0,,0,0,0,0,0,0,0,0,0,0,0,0,0,269.85,0,0,0,0,0,0,0,0,0,0,0,0,0,3,3,0,0,VALID,0,0,0,0,0,1,0,0,0,0,0,0,0,0,0,0,0,0,0,0,291.4,1070.76,2,0,0.12,0.12,205,8.33,0.12,0.12,24.88,FLYING,X10-H,0:/Integrated Flight Computer/aircraft/x10_h_cfg.ks (inferred preloaded)
25.14,APPROACH,ILS_TRACK,152.39,152,-0.39,774.69,700.98,0.24,9.46,9.38,269.99,0.024,0.2696,0,17.075,1,0.6,4.5,0.75,0.35,0.0168,0.4,0,21.782,0,0.386,0,270,-0.036,0,1,0.09,0,0,-0.03,270,0.5433,-0.0001,0.8395,-0.04,270,0.16,-197.33,17.129,-0.005,0,0,3,767.41,8.734,-0.036,972.01,0,0,0,,0,0,0,0,0,0,0,0,0,0,0,0,0,269.85,0,0,0,0,0,0,0,0,0,0,0,0,0,3,3,0,0,VALID,0,0,0,0,0,1,0,0,0,0,0,0,0,0,0,0,0,0,0,0,291.16,1070.72,2,0,0.12,0.12,207,7.69,0.14,0.12,25.14,FLYING,X10-H,0:/Integrated Flight Computer/aircraft/x10_h_cfg.ks (inferred preloaded)
25.5,APPROACH,ILS_TRACK,152.37,152,-0.37,774.78,701.06,0.24,9.46,9.38,270,0.024,0.2697,0,16.939,1,0.6,4.5,0.75,0.35,0.0168,0.4,0,21.786,0,0.373,0,270,-0.037,0,1,0.09,0,0,-0.04,270,0.5434,0.0001,0.8395,-0.04,270,0.15,-194.19,17.071,0.004,0,0,3,767.41,8.735,-0.037,968.95,0,0,0,,0,0,0,0,0,0,0,0,0,0,0,0,0,269.85,0,0,0,0,0,0,0,0,0,0,0,0,0,3,3,0,0,VALID,0,0,0,0,0,1,0,0,0,0,0,0,0,0,0,0,0,0,0,0,290.85,1070.66,2,0,0.12,0.12,210,8.33,0.12,0.12,25.5,FLYING,X10-H,0:/Integrated Flight Computer/aircraft/x10_h_cfg.ks (inferred preloaded)
25.86,APPROACH,ILS_TRACK,152.36,152,-0.36,774.86,701.15,0.24,9.47,9.38,270,0.023,0.2698,0,16.808,1,0.6,4.5,0.75,0.35,0.0168,0.4,0,21.79,0,0.359,0,270,-0.037,0,1,0.09,0,0,-0.04,270,0.5435,0,0.8394,-0.04,270,0.15,-191.04,17.013,-0.001,0,0,3,767.41,8.733,-0.037,965.9,0,0,0,,0,0,0,0,0,0,0,0,0,0,0,0,0,269.85,0,0,0,0,0,0,0,0,0,0,0,0,0,3,3,0,0,VALID,0,0,0,0,0,1,0,0,0,0,0,0,0,0,0,0,0,0,0,0,290.58,1070.59,2,0,0.12,0.12,213,8.33,0.12,0.12,25.86,FLYING,X10-H,0:/Integrated Flight Computer/aircraft/x10_h_cfg.ks (inferred preloaded)
26.22,APPROACH,ILS_TRACK,152.34,152,-0.34,774.95,701.24,0.24,9.47,9.38,270,0.023,0.2699,0,16.682,1,0.6,4.5,0.75,0.35,0.0168,0.4,0,21.794,0,0.344,0,270,-0.038,0,1,0.09,0,0,-0.04,269.99,0.5436,0,0.8393,-0.04,270,0.14,-187.9,16.955,0.003,0,0,3,767.41,8.731,-0.038,962.84,0,0,0,,0,0,0,0,0,0,0,0,0,0,0,0,0,269.85,0,0,0,0,0,0,0,0,0,0,0,0,0,3,3,0,0,VALID,0,0,0,0,0,1,0,0,0,0,0,0,0,0,0,0,0,0,0,0,290.36,1070.52,2,0,0.12,0.12,216,8.33,0.12,0.12,26.22,FLYING,X10-H,0:/Integrated Flight Computer/aircraft/x10_h_cfg.ks (inferred preloaded)
26.58,APPROACH,ILS_TRACK,152.33,152,-0.33,775.04,701.32,0.24,9.47,9.39,270,0.022,0.27,0,16.562,1,0.6,4.5,0.75,0.35,0.0168,0.4,0,21.799,0,0.328,0,270,-0.038,0,1,0.09,0,0,-0.04,270,0.5437,0,0.8393,-0.04,270,0.13,-184.76,16.896,0,0,0,3,767.41,8.729,-0.038,959.78,0,0,0,,0,0,0,0,0,0,0,0,0,0,0,0,0,269.85,0,0,0,0,0,0,0,0,0,0,0,0,0,3,3,0,0,VALID,0,0,0,0,0,1,0,0,0,0,0,0,0,0,0,0,0,0,0,0,290.17,1070.44,2,0,0.12,0.12,219,8.33,0.12,0.12,26.58,FLYING,X10-H,0:/Integrated Flight Computer/aircraft/x10_h_cfg.ks (inferred preloaded)
26.94,APPROACH,ILS_TRACK,152.31,152,-0.31,775.13,701.41,0.24,9.47,9.39,270,0.021,0.2701,0,16.448,1,0.6,4.5,0.75,0.35,0.0168,0.4,0,21.803,0,0.311,0,270,-0.039,0,1,0.09,0,0,-0.04,269.99,0.5438,0,0.8392,-0.04,270,0.13,-181.61,16.838,0.002,0,0,3,767.41,8.728,-0.039,956.73,0,0,0,,0,0,0,0,0,0,0,0,0,0,0,0,0,269.85,0,0,0,0,0,0,0,0,0,0,0,0,0,3,3,0,0,VALID,0,0,0,0,0,1,0,0,0,0,0,0,0,0,0,0,0,0,0,0,290.01,1070.37,2,0,0.12,0.12,222,8.33,0.12,0.12,26.94,FLYING,X10-H,0:/Integrated Flight Computer/aircraft/x10_h_cfg.ks (inferred preloaded)
27.3,APPROACH,ILS_TRACK,152.29,152,-0.29,775.21,701.5,0.24,9.48,9.39,270,0.022,0.2702,0,16.34,1,0.6,4.5,0.75,0.35,0.0168,0.4,0,21.808,0,0.293,0,270,-0.039,0,1,0.09,0,0,-0.04,270,0.5439,0,0.8392,-0.04,270,0.12,-178.47,16.78,-0.002,0,0,3,767.41,8.725,-0.039,953.67,0,0,0,,0,0,0,0,0,0,0,0,0,0,0,0,0,269.85,0,0,0,0,0,0,0,0,0,0,0,0,0,3,3,0,0,VALID,0,0,0,0,0,1,0,0,0,0,0,0,0,0,0,0,0,0,0,0,289.88,1070.29,2,0,0.12,0.12,225,8.33,0.12,0.12,27.3,FLYING,X10-H,0:/Integrated Flight Computer/aircraft/x10_h_cfg.ks (inferred preloaded)
27.56,APPROACH,ILS_TRACK,152.28,152,-0.28,775.27,701.56,0.24,9.48,9.4,270,0.021,0.2703,0,16.267,1,0.6,4.5,0.75,0.35,0.0168,0.4,0,21.812,0,0.281,0,270,-0.039,0,1,0.09,0,0,-0.04,270,0.5439,0,0.8391,-0.04,270,0.12,-176.2,16.738,0.001,0,0,3,767.41,8.723,-0.039,951.47,0,0,0,,0,0,0,0,0,0,0,0,0,0,0,0,0,269.85,0,0,0,0,0,0,0,0,0,0,0,0,0,3,3,0,0,VALID,0,0,0,0,0,1,0,0,0,0,0,0,0,0,0,0,0,0,0,0,289.81,1070.23,2,0,0.12,0.12,227,7.69,0.14,0.12,27.56,FLYING,X10-H,0:/Integrated Flight Computer/aircraft/x10_h_cfg.ks (inferred preloaded)
27.92,APPROACH,ILS_TRACK,152.26,152,-0.26,775.36,701.64,0.23,9.48,9.4,270,0.02,0.2705,0,16.17,1,0.6,4.5,0.75,0.35,0.0168,0.4,0,21.817,0,0.262,0,270,-0.04,0,1,0.09,0,0,-0.04,270,0.544,0,0.8391,-0.04,270,0.11,-173.06,16.679,0.001,0,0,3,767.41,8.722,-0.04,948.41,0,0,0,,0,0,0,0,0,0,0,0,0,0,0,0,0,269.85,0,0,0,0,0,0,0,0,0,0,0,0,0,3,3,0,0,VALID,0,0,0,0,0,1,0,0,0,0,0,0,0,0,0,0,0,0,0,0,289.73,1070.14,2,0,0.12,0.12,230,8.33,0.12,0.12,27.92,FLYING,X10-H,0:/Integrated Flight Computer/aircraft/x10_h_cfg.ks (inferred preloaded)
28.28,APPROACH,ILS_TRACK,152.24,152,-0.24,775.44,701.73,0.23,9.48,9.4,270,0.019,0.2707,0,16.08,1,0.6,4.5,0.75,0.35,0.0168,0.4,0,21.822,0,0.244,0,270,-0.04,0,1,0.09,0,0,-0.04,270,0.5441,0,0.839,-0.04,270,0.1,-169.93,16.621,0.002,0,0,3,767.41,8.72,-0.04,945.36,0,0,0,,0,0,0,0,0,0,0,0,0,0,0,0,0,269.85,0,0,0,0,0,0,0,0,0,0,0,0,0,3,3,0,0,VALID,0,0,0,0,0,1,0,0,0,0,0,0,0,0,0,0,0,0,0,0,289.61,1070.06,2,0,0.12,0.12,233,8.33,0.12,0.12,28.28,FLYING,X10-H,0:/Integrated Flight Computer/aircraft/x10_h_cfg.ks (inferred preloaded)
28.64,APPROACH,ILS_TRACK,152.22,152,-0.22,775.53,701.81,0.23,9.49,9.4,270,0.019,0.271,0,15.997,1,0.6,4.5,0.75,0.35,0.0168,0.4,0,21.828,0,0.225,0,270,-0.041,0,1,0.09,0,0,-0.04,270,0.5442,0,0.839,-0.04,270,0.1,-166.79,16.563,-0.003,0,0,3,767.41,8.717,-0.041,942.31,0,0,0,,0,0,0,0,0,0,0,0,0,0,0,0,0,269.85,0,0,0,0,0,0,0,0,0,0,0,0,0,3,3,0,0,VALID,0,0,0,0,0,1,0,0,0,0,0,0,0,0,0,0,0,0,0,0,289.85,1069.97,2,0,0.12,0.12,236,8.33,0.12,0.12,28.64,FLYING,X10-H,0:/Integrated Flight Computer/aircraft/x10_h_cfg.ks (inferred preloaded)
29,APPROACH,ILS_TRACK,152.21,152,-0.21,775.61,701.9,0.23,9.49,9.41,270,0.017,0.2708,0,15.92,1,0.6,4.5,0.75,0.35,0.0168,0.4,0,21.833,0,0.207,0,270,-0.041,0,1,0.09,0,0,-0.04,270,0.5443,-0.0001,0.8389,-0.04,270,0.09,-163.65,16.504,-0.003,0,0,3,767.41,8.716,-0.041,939.25,0,0,0,,0,0,0,0,0,0,0,0,0,0,0,0,0,269.85,0,0,0,0,0,0,0,0,0,0,0,0,0,3,3,0,0,VALID,0,0,0,0,0,1,0,0,0,0,0,0,0,0,0,0,0,0,0,0,289.75,1069.89,2,0,0.12,0.12,239,8.33,0.12,0.12,29,FLYING,X10-H,0:/Integrated Flight Computer/aircraft/x10_h_cfg.ks (inferred preloaded)
29.36,APPROACH,ILS_TRACK,152.19,152,-0.19,775.7,701.98,0.23,9.49,9.41,270,0.017,0.271,0,15.85,1,0.6,4.5,0.75,0.35,0.0168,0.4,0,21.838,0,0.188,0,270,-0.041,0,1,0.09,0,0,-0.04,270,0.5444,0,0.8388,-0.04,270,0.09,-160.51,16.446,-0.002,0,0,3,767.41,8.714,-0.041,936.2,0,0,0,,0,0,0,0,0,0,0,0,0,0,0,0,0,269.85,0,0,0,0,0,0,0,0,0,0,0,0,0,3,3,0,0,VALID,0,0,0,0,0,1,0,0,0,0,0,0,0,0,0,0,0,0,0,0,289.72,1069.8,2,0,0.12,0.12,242,8.33,0.12,0.12,29.36,FLYING,X10-H,0:/Integrated Flight Computer/aircraft/x10_h_cfg.ks (inferred preloaded)
29.72,APPROACH,ILS_TRACK,152.17,152,-0.17,775.78,702.06,0.23,9.49,9.41,270,0.016,0.2714,0,15.787,1,0.6,4.5,0.75,0.35,0.0168,0.4,0,21.843,0,0.169,0,270,-0.042,0,1,0.09,0,0,-0.04,270,0.5445,0.0001,0.8388,-0.04,270,0.08,-157.38,16.388,0.004,0,0,3,767.41,8.712,-0.042,933.15,0,0,0,,0,0,0,0,0,0,0,0,0,0,0,0,0,269.85,0,0,0,0,0,0,0,0,0,0,0,0,0,3,3,0,0,VALID,0,0,0,0,0,1,0,0,0,0,0,0,0,0,0,0,0,0,0,0,289.72,1069.72,2,0,0.12,0.12,245,8.33,0.12,0.12,29.72,FLYING,X10-H,0:/Integrated Flight Computer/aircraft/x10_h_cfg.ks (inferred preloaded)
29.98,APPROACH,ILS_TRACK,152.15,152,-0.15,775.84,702.12,0.23,9.5,9.42,270,0.017,0.2717,0,15.746,1,0.6,4.5,0.75,0.35,0.0168,0.4,0,21.847,0,0.156,0,270,-0.042,0,1,0.09,0,0,-0.04,270,0.5445,0,0.8387,-0.04,270,0.08,-155.11,16.346,0,0,0,3,767.41,8.71,-0.042,930.94,0,0,0,,0,0,0,0,0,0,0,0,0,0,0,0,0,269.85,0,0,0,0,0,0,0,0,0,0,0,0,0,3,3,0,0,VALID,0,0,0,0,0,1,0,0,0,0,0,0,0,0,0,0,0,0,0,0,289.74,1069.66,2,0,0.12,0.12,247,7.69,0.14,0.12,29.98,FLYING,X10-H,0:/Integrated Flight Computer/aircraft/x10_h_cfg.ks (inferred preloaded)
30.34,APPROACH,ILS_TRACK,152.14,152,-0.14,775.93,702.2,0.23,9.5,9.42,270,0.017,0.2722,0,15.694,1,0.6,4.5,0.75,0.35,0.0168,0.4,0,21.852,0,0.137,0,270,-0.043,0,1,0.09,0,0,-0.04,270,0.5446,0,0.8387,-0.04,270,0.08,-151.98,16.288,-0.003,0,0,3,767.41,8.708,-0.043,927.89,0,0,0,,0,0,0,0,0,0,0,0,0,0,0,0,0,269.85,0,0,0,0,0,0,0,0,0,0,0,0,0,3,3,0,0,VALID,0,0,0,0,0,1,0,0,0,0,0,0,0,0,0,0,0,0,0,0,289.79,1069.57,2,0,0.12,0.12,250,8.33,0.12,0.12,30.34,FLYING,X10-H,0:/Integrated Flight Computer/aircraft/x10_h_cfg.ks (inferred preloaded)
30.7,APPROACH,ILS_TRACK,152.12,152,-0.12,776.01,702.29,0.23,9.5,9.42,270,0.016,0.2726,0,15.649,1,0.6,4.5,0.75,0.35,0.0168,0.4,0,21.857,0,0.119,0,270,-0.043,0,1,0.09,0,0,-0.04,270,0.5447,0,0.8386,-0.04,270,0.07,-148.84,16.229,-0.001,0,0,3,767.41,8.706,-0.043,924.84,0,0,0,,0,0,0,0,0,0,0,0,0,0,0,0,0,269.85,0,0,0,0,0,0,0,0,0,0,0,0,0,3,3,0,0,VALID,0,0,0,0,0,1,0,0,0,0,0,0,0,0,0,0,0,0,0,0,289.87,1069.49,2,0,0.12,0.12,253,8.33,0.12,0.12,30.7,FLYING,X10-H,0:/Integrated Flight Computer/aircraft/x10_h_cfg.ks (inferred preloaded)
31.06,APPROACH,ILS_TRACK,152.1,152,-0.1,776.09,702.37,0.23,9.5,9.42,270,0.015,0.2731,0,15.611,1,0.6,4.5,0.75,0.35,0.0168,0.4,0,21.863,0,0.101,0,270,-0.043,0,1,0.08,0,0,-0.04,270,0.5448,0,0.8386,-0.04,270,0.07,-145.71,16.171,-0.003,0,0,3,767.41,8.704,-0.043,921.79,0,0,0,,0,0,0,0,0,0,0,0,0,0,0,0,0,269.85,0,0,0,0,0,0,0,0,0,0,0,0,0,3,3,0,0,VALID,0,0,0,0,0,1,0,0,0,0,0,0,0,0,0,0,0,0,0,0,289.97,1069.4,2,0,0.12,0.12,256,8.33,0.12,0.12,31.06,FLYING,X10-H,0:/Integrated Flight Computer/aircraft/x10_h_cfg.ks (inferred preloaded)
31.42,APPROACH,ILS_TRACK,152.08,152,-0.08,776.17,702.45,0.22,9.51,9.43,270,0.015,0.2735,0,15.579,1,0.6,4.5,0.75,0.35,0.0168,0.4,0,21.868,0,0.083,0,270,-0.044,0,1,0.08,0,0,-0.04,270,0.5449,0,0.8385,-0.04,270,0.07,-142.57,16.113,0,0,0,3,767.41,8.702,-0.044,918.74,0,0,0,,0,0,0,0,0,0,0,0,0,0,0,0,0,269.85,0,0,0,0,0,0,0,0,0,0,0,0,0,3,3,0,0,VALID,0,0,0,0,0,1,0,0,0,0,0,0,0,0,0,0,0,0,0,0,290.1,1069.32,2,0,0.12,0.12,259,8.33,0.12,0.12,31.42,FLYING,X10-H,0:/Integrated Flight Computer/aircraft/x10_h_cfg.ks (inferred preloaded)
31.78,APPROACH,ILS_TRACK,152.06,152,-0.06,776.25,702.53,0.22,9.51,9.43,270,0.015,0.2739,0,15.553,1,0.6,4.5,0.75,0.35,0.0168,0.4,0,21.872,0,0.066,0,270,-0.044,0,1,0.08,0,0,-0.04,270,0.545,0,0.8385,-0.04,270,0.06,-139.44,16.055,-0.001,0,0,3,767.41,8.7,-0.044,915.69,0,0,0,,0,0,0,0,0,0,0,0,0,0,0,0,0,269.85,0,0,0,0,0,0,0,0,0,0,0,0,0,3,3,0,0,VALID,0,0,0,0,0,1,0,0,0,0,0,0,0,0,0,0,0,0,0,0,290.25,1069.24,2,0,0.12,0.12,262,8.33,0.12,0.12,31.78,FLYING,X10-H,0:/Integrated Flight Computer/aircraft/x10_h_cfg.ks (inferred preloaded)
32.14,APPROACH,ILS_TRACK,152.05,152,-0.05,776.33,702.61,0.22,9.51,9.43,270,0.015,0.2743,0,15.533,1,0.6,4.5,0.75,0.35,0.0168,0.4,0,21.877,0,0.049,0,270,-0.045,0,1,0.08,0,0,-0.04,270,0.545,0,0.8384,-0.04,270,0.06,-136.31,15.997,0.001,0,0,3,767.41,8.698,-0.045,912.64,0,0,0,,0,0,0,0,0,0,0,0,0,0,0,0,0,269.85,0,0,0,0,0,0,0,0,0,0,0,0,0,3,3,0,0,VALID,0,0,0,0,0,1,0,0,0,0,0,0,0,0,0,0,0,0,0,0,290.42,1069.17,2,0,0.12,0.12,265,8.33,0.12,0.12,32.14,FLYING,X10-H,0:/Integrated Flight Computer/aircraft/x10_h_cfg.ks (inferred preloaded)
32.4,APPROACH,ILS_TRACK,152.04,152,-0.04,776.39,702.67,0.22,9.51,9.43,270,0.014,0.2745,0,15.523,1,0.6,4.5,0.75,0.35,0.0168,0.4,0,21.88,0,0.037,0,270,-0.045,0,1,0.08,0,0,-0.04,270,0.5451,0,0.8384,-0.05,270,0.05,-134.05,15.955,0.002,0,0,3,767.41,8.695,-0.045,910.43,0,0,0,,0,0,0,0,0,0,0,0,0,0,0,0,0,269.85,0,0,0,0,0,0,0,0,0,0,0,0,0,3,3,0,0,VALID,0,0,0,0,0,1,0,0,0,0,0,0,0,0,0,0,0,0,0,0,290.55,1069.11,2,0,0.12,0.12,267,7.69,0.14,0.12,32.4,FLYING,X10-H,0:/Integrated Flight Computer/aircraft/x10_h_cfg.ks (inferred preloaded)
32.76,APPROACH,ILS_TRACK,152.02,152,-0.02,776.47,702.75,0.22,9.51,9.43,270,0.014,0.2749,0,15.513,1,0.6,4.5,0.75,0.35,0.0168,0.4,0,21.885,0,0.021,0,270,-0.045,0,1,0.08,0,0,-0.04,270,0.5452,-0.0001,0.8383,-0.05,270,0.05,-130.92,15.896,-0.004,0,0,3,767.41,8.695,-0.045,907.38,0,0,0,,0,0,0,0,0,0,0,0,0,0,0,0,0,269.85,0,0,0,0,0,0,0,0,0,0,0,0,0,3,3,0,0,VALID,0,0,0,0,0,1,0,0,0,0,0,0,0,0,0,0,0,0,0,0,290.75,1069.04,2,0,0.12,0.12,270,8.33,0.12,0.12,32.76,FLYING,X10-H,0:/Integrated Flight Computer/aircraft/x10_h_cfg.ks (inferred preloaded)
33.12,APPROACH,ILS_TRACK,152.01,152,-0.01,776.55,702.83,0.22,9.51,9.44,270,0.013,0.2752,0,15.509,1,0.6,4.5,0.75,0.35,0.0168,0.4,0,21.889,0,0.007,0,270,-0.046,0,1,0.08,0,0,-0.04,269.99,0.5453,0.0001,0.8383,-0.05,270,0.05,-127.79,15.838,0.004,0,0,3,767.41,8.693,-0.046,904.33,0,0,0,,0,0,0,0,0,0,0,0,0,0,0,0,0,269.85,0,0,0,0,0,0,0,0,0,0,0,0,0,3,3,0,0,VALID,0,0,0,0,0,1,0,0,0,0,0,0,0,0,0,0,0,0,0,0,290.95,1068.97,2,0,0.12,0.12,273,8.33,0.12,0.12,33.12,FLYING,X10-H,0:/Integrated Flight Computer/aircraft/x10_h_cfg.ks (inferred preloaded)
33.48,APPROACH,ILS_TRACK,151.99,152,0.01,776.63,702.91,0.22,9.51,9.44,270,0.013,0.2754,0,15.51,1,0.6,4.5,0.75,0.35,0.0168,0.4,0,21.893,0,-0.007,0,270,-0.046,0,1,0.08,0,0,-0.04,270.01,0.5454,0,0.8382,-0.05,270,0.04,-124.66,15.78,-0.001,0,0,3,767.41,8.691,-0.046,901.28,0,0,0,,0,0,0,0,0,0,0,0,0,0,0,0,0,269.85,0,0,0,0,0,0,0,0,0,0,0,0,0,3,3,0,0,VALID,0,0,0,0,0,1,0,0,0,0,0,0,0,0,0,0,0,0,0,0,291.16,1068.91,2,0,0.12,0.12,276,8.33,0.12,0.12,33.48,FLYING,X10-H,0:/Integrated Flight Computer/aircraft/x10_h_cfg.ks (inferred preloaded)
33.84,APPROACH,ILS_TRACK,151.98,152,0.02,776.71,702.99,0.22,9.52,9.44,270,0.013,0.2757,0,15.516,1,0.6,4.5,0.75,0.35,0.0168,0.4,0,21.897,0,-0.021,0,270,-0.046,0,1,0.08,0,0,-0.04,270,0.5455,-0.0001,0.8381,-0.05,270,0.04,-121.53,15.722,-0.003,0,0,3,767.41,8.688,-0.046,898.23,0,0,0,,0,0,0,0,0,0,0,0,0,0,0,0,0,269.85,0,0,0,0,0,0,0,0,0,0,0,0,0,3,3,0,0,VALID,0,0,0,0,0,1,0,0,0,0,0,0,0,0,0,0,0,0,0,0,291.38,1068.84,2,0,0.12,0.12,279,8.33,0.12,0.12,33.84,FLYING,X10-H,0:/Integrated Flight Computer/aircraft/x10_h_cfg.ks (inferred preloaded)
34.2,APPROACH,ILS_TRACK,151.97,152,0.03,776.79,703.06,0.22,9.52,9.44,270,0.013,0.2759,0,15.526,1,0.6,4.5,0.75,0.35,0.0168,0.4,0,21.9,0,-0.033,0,270,-0.047,0,1,0.08,0,0,-0.05,270,0.5455,0.0001,0.8381,-0.05,270,0.04,-118.41,15.664,0.003,0,0,3,767.41,8.687,-0.047,895.19,0,0,0,,0,0,0,0,0,0,0,0,0,0,0,0,0,269.85,0,0,0,0,0,0,0,0,0,0,0,0,0,3,3,0,0,VALID,0,0,0,0,0,1,0,0,0,0,0,0,0,0,0,0,0,0,0,0,291.6,1068.79,2,0,0.12,0.12,282,8.33,0.12,0.12,34.2,FLYING,X10-H,0:/Integrated Flight Computer/aircraft/x10_h_cfg.ks (inferred preloaded)
34.56,APPROACH,ILS_TRACK,151.96,152,0.04,776.87,703.14,0.21,9.52,9.44,270,0.012,0.2762,0,15.541,1,0.6,4.5,0.75,0.35,0.0168,0.4,0,21.903,0,-0.044,0,270,-0.047,0,1,0.08,0,0,-0.05,270,0.5456,0,0.838,-0.05,270,0.04,-115.28,15.605,-0.001,0,0,3,767.41,8.685,-0.047,892.14,0,0,0,,0,0,0,0,0,0,0,0,0,0,0,0,0,269.85,0,0,0,0,0,0,0,0,0,0,0,0,0,3,3,0,0,VALID,0,0,0,0,0,1,0,0,0,0,0,0,0,0,0,0,0,0,0,0,291.82,1068.73,2,0,0.12,0.12,285,8.33,0.12,0.12,34.56,FLYING,X10-H,0:/Integrated Flight Computer/aircraft/x10_h_cfg.ks (inferred preloaded)
34.82,APPROACH,ILS_TRACK,151.95,152,0.05,776.92,703.2,0.21,9.52,9.44,270,0.011,0.2764,0,15.554,1,0.6,4.5,0.75,0.35,0.0168,0.4,0,21.906,0,-0.052,0,270,-0.048,0,1,0.08,0,0,-0.05,270,0.5457,0,0.838,-0.05,270,0.04,-113.02,15.563,0.002,0,0,3,767.41,8.683,-0.048,889.93,0,0,0,,0,0,0,0,0,0,0,0,0,0,0,0,0,269.85,0,0,0,0,0,0,0,0,0,0,0,0,0,3,3,0,0,VALID,0,0,0,0,0,1,0,0,0,0,0,0,0,0,0,0,0,0,0,0,291.98,1068.7,2,0,0.12,0.12,287,7.69,0.14,0.12,34.82,FLYING,X10-H,0:/Integrated Flight Computer/aircraft/x10_h_cfg.ks (inferred preloaded)
35.18,APPROACH,ILS_TRACK,151.94,152,0.06,777,703.27,0.21,9.52,9.44,270,0.012,0.2766,0,15.575,1,0.6,4.5,0.75,0.35,0.0168,0.4,0,21.908,0,-0.062,0,270.01,-0.048,0,1,0.08,0,0,-0.05,270,0.5458,0.0001,0.8379,-0.05,270.01,0.03,-109.89,15.505,0.006,0,0,3,767.41,8.682,-0.048,886.89,0,0,0,,0,0,0,0,0,0,0,0,0,0,0,0,0,269.85,0,0,0,0,0,0,0,0,0,0,0,0,0,3,3,0,0,VALID,0,0,0,0,0,1,0,0,0,0,0,0,0,0,0,0,0,0,0,0,292.21,1068.65,2,0,0.12,0.12,290,8.33,0.12,0.12,35.18,FLYING,X10-H,0:/Integrated Flight Computer/aircraft/x10_h_cfg.ks (inferred preloaded)
35.54,APPROACH,ILS_TRACK,151.93,152,0.07,777.08,703.35,0.21,9.52,9.44,270,0.011,0.2767,0,15.6,1,0.6,4.5,0.75,0.35,0.0168,0.4,0,21.911,0,-0.071,0,270,-0.048,0,1,0.08,0,0,-0.05,270,0.5459,0,0.8379,-0.05,270,0.03,-106.77,15.447,0.002,0,0,3,767.41,8.681,-0.048,883.84,0,0,0,,0,0,0,0,0,0,0,0,0,0,0,0,0,269.85,0,0,0,0,0,0,0,0,0,0,0,0,0,3,3,0,0,VALID,0,0,0,0,0,1,0,0,0,0,0,0,0,0,0,0,0,0,0,0,292.43,1068.6,2,0,0.12,0.12,293,8.33,0.12,0.12,35.54,FLYING,X10-H,0:/Integrated Flight Computer/aircraft/x10_h_cfg.ks (inferred preloaded)
35.9,APPROACH,ILS_TRACK,151.92,152,0.08,777.15,703.43,0.21,9.52,9.45,270,0.012,0.277,0,15.628,1,0.6,4.5,0.75,0.35,0.0168,0.4,0,21.913,0,-0.079,0,270,-0.049,0,1,0.08,0,0,-0.05,270,0.546,0,0.8378,-0.05,270,0.03,-103.64,15.389,-0.001,0,0,3,767.41,8.68,-0.049,880.79,0,0,0,,0,0,0,0,0,0,0,0,0,0,0,0,0,269.85,0,0,0,0,0,0,0,0,0,0,0,0,0,3,3,0,0,VALID,0,0,0,0,0,1,0,0,0,0,0,0,0,0,0,0,0,0,0,0,292.66,1068.56,2,0,0.12,0.12,296,8.33,0.12,0.12,35.9,FLYING,X10-H,0:/Integrated Flight Computer/aircraft/x10_h_cfg.ks (inferred preloaded)
36.26,APPROACH,ILS_TRACK,151.91,152,0.09,777.23,703.5,0.21,9.52,9.45,270,0.012,0.2771,0,15.658,1,0.6,4.5,0.75,0.35,0.0168,0.4,0,21.915,0,-0.087,0,270,-0.049,0,1,0.08,0,0,-0.05,270,0.546,0,0.8378,-0.05,270,0.03,-100.52,15.331,0,0,0,3,767.41,8.678,-0.049,877.74,0,0,0,,0,0,0,0,0,0,0,0,0,0,0,0,0,269.85,0,0,0,0,0,0,0,0,0,0,0,0,0,3,3,0,0,VALID,0,0,0,0,0,1,0,0,0,0,0,0,0,0,0,0,0,0,0,0,292.88,1068.53,2,0,0.12,0.12,299,8.33,0.12,0.12,36.26,FLYING,X10-H,0:/Integrated Flight Computer/aircraft/x10_h_cfg.ks (inferred preloaded)
36.62,APPROACH,ILS_TRACK,151.91,152,0.09,777.31,703.58,0.21,9.52,9.45,270,0.012,0.2773,0,15.691,1,0.6,4.5,0.75,0.35,0.0168,0.4,0,21.917,0,-0.093,0,270,-0.049,0,1,0.08,0,0,-0.05,270,0.5461,0.0001,0.8377,-0.05,270,0.02,-97.4,15.273,0.004,0,0,3,767.41,8.676,-0.049,874.69,0,0,0,,0,0,0,0,0,0,0,0,0,0,0,0,0,269.85,0,0,0,0,0,0,0,0,0,0,0,0,0,3,3,0,0,VALID,0,0,0,0,0,1,0,0,0,0,0,0,0,0,0,0,0,0,0,0,293.1,1068.49,2,0,0.12,0.12,302,8.33,0.12,0.12,36.62,FLYING,X10-H,0:/Integrated Flight Computer/aircraft/x10_h_cfg.ks (inferred preloaded)
36.98,APPROACH,ILS_TRACK,151.9,152,0.1,777.38,703.66,0.21,9.52,9.45,270,0.012,0.2774,0,15.726,1,0.6,4.5,0.75,0.35,0.0168,0.4,0,21.919,0,-0.099,0,270,-0.05,0,1,0.08,0,0,-0.05,270,0.5462,0,0.8376,-0.05,270,0.02,-94.27,15.214,0,0,0,3,767.41,8.675,-0.05,871.65,0,0,0,,0,0,0,0,0,0,0,0,0,0,0,0,0,269.85,0,0,0,0,0,0,0,0,0,0,0,0,0,3,3,0,0,VALID,0,0,0,0,0,1,0,0,0,0,0,0,0,0,0,0,0,0,0,0,293.31,1068.46,2,0,0.12,0.12,305,8.33,0.12,0.12,36.98,FLYING,X10-H,0:/Integrated Flight Computer/aircraft/x10_h_cfg.ks (inferred preloaded)
37.24,APPROACH,ILS_TRACK,151.9,152,0.1,777.44,703.71,0.21,9.52,9.45,270,0.012,0.2775,0,15.752,1,0.6,4.5,0.75,0.35,0.0168,0.4,0,21.92,0,-0.102,0,270,-0.05,0,1,0.08,0,0,-0.05,270,0.5463,0,0.8376,-0.05,270,0.02,-92.02,15.172,0.001,0,0,3,767.41,8.673,-0.05,869.44,0,0,0,,0,0,0,0,0,0,0,0,0,0,0,0,0,269.85,0,0,0,0,0,0,0,0,0,0,0,0,0,3,3,0,0,VALID,0,0,0,0,0,1,0,0,0,0,0,0,0,0,0,0,0,0,0,0,293.46,1068.45,2,0,0.12,0.12,307,7.69,0.14,0.12,37.24,FLYING,X10-H,0:/Integrated Flight Computer/aircraft/x10_h_cfg.ks (inferred preloaded)
37.6,APPROACH,ILS_TRACK,151.89,152,0.11,777.51,703.78,0.21,9.52,9.45,270,0.011,0.2776,0,15.79,1,0.6,4.5,0.75,0.35,0.0168,0.4,0,21.921,0,-0.107,0,270,-0.05,0,1,0.08,0,0,-0.05,270,0.5464,0,0.8375,-0.05,270,0.02,-88.9,15.114,0.001,0,0,3,767.41,8.673,-0.05,866.4,0,0,0,,0,0,0,0,0,0,0,0,0,0,0,0,0,269.85,0,0,0,0,0,0,0,0,0,0,0,0,0,3,3,0,0,VALID,0,0,0,0,0,1,0,0,0,0,0,0,0,0,0,0,0,0,0,0,293.67,1068.42,2,0,0.12,0.12,310,8.33,0.12,0.12,37.6,FLYING,X10-H,0:/Integrated Flight Computer/aircraft/x10_h_cfg.ks (inferred preloaded)
