t_s,phase,subphase,ias_ms,vapp_ms,spd_err_ms,agl_m,vs_ms,pitch_deg,aoa_deg,hdg_deg,bank_deg,thr_cmd,thr_cur,thr_intg,at_gain,at_tau_s,at_a_up,at_a_dn,at_kp_thr,at_ki_spd,at_thr_slew,as_cmd_deg,as_cap_deg,as_raw_deg,as_spd_err_ms,as_active,aa_hdg_cmd_deg,aa_fpa_cmd_deg,aa_fbw,aa_dir,actual_fpa_deg,ftf_hdg_err_deg,ftf_fix_idx,kos_steer_pit_deg,kos_steer_hdg_deg,aa_dir_vx,aa_dir_vy,aa_dir_vz,aa_dir_pitch_deg,aa_dir_hdg_deg,ils_loc_m,ils_gs_m,ils_dist_km,loc_corr_deg,gs_corr_deg,gs_latched,active_gs_ang_deg,ils_intercept_alt_m,d_gs_ms,fpa_preclamped_deg,gs_nom_alt_m,flare_fpa_cmd,flare_tgt_vs,flare_frac,steer_hdg_deg,steer_blend,ro_loc_corr_deg,ro_hdg_err_deg,ro_yaw_tgt,ro_yaw_scale,ro_yaw_gate,yaw_cmd,roll_cmd,pitch_cmd,ro_pitch_tgt_deg,ro_pitch_err_deg,ro_pitch_ff,ro_roll_assist,flaps_cur,flaps_tgt,asc_j_ab,asc_j_rk,asc_validity,asc_q_pa,asc_q_raw_pa,asc_mach,asc_apo_m,asc_drag_n,asc_w_prop,asc_edot_aero,asc_edot_orb,asc_pitch_bias,asc_blend,asc_spooling,asc_ab_thr_ratio,asc_ab_t_now,asc_ab_t_avail,asc_ab_ign_on,asc_ab_flameouts,asc_rk_t_now,asc_rk_t_avail,asc_rk_ign_on,asc_rk_flameouts,ship_thrust,ship_avail_thrust,ship_ign_on,ship_flameouts,ifc_raw_dt_s,ifc_dt_s,ifc_loop_n,ifc_hz_est,ifc_raw_dt_max_s,ifc_raw_dt_min_s,phase_el_s,status,craft_name,cfg_file
0.2,TAKEOFF,TO_PREFLIGHT,1.26,80,78.74,3.61,-0.01,-0.18,0.13,89.54,0.111,0.072,0,0,0,0,0,0,0,0,0,0,0,0,0,0,90.4,0,1,0,-0.32,0,0,0,90,0,0,0,0,0,0,0,0,0,0,0,3,0,0,0,69,0,0,0,90.4,1,0,-0.856,0,0,1,0,0,0,0,0,0,0,0,1,0,0,VALID,0,0,0,0,0,1,0,0,0,0,0,0,0,0,0,0,0,0,0,0,0,517.77,2,0,0.18,0.18,1,3.7,0.18,0.02,0.02,PRELAUNCH,CF1-J,0:/Integrated Flight Computer/aircraft/cf1_j_cfg.ks (inferred preloaded)
0.46,TAKEOFF,TO_PREFLIGHT,1.26,80,78.74,3.61,0,-0.2,0.03,89.54,0.111,0.112,0,0,0,0,0,0,0,0,0,0,0,0,0,0,90.4,0,1,0,-0.23,0,0,0,90,0,0,0,0,0,0,0,0,0,0,0,3,0,0,0,69,0,0,0,90.4,1,0,-0.858,0,0,1,0,0,0,0,0,0,0,1,1,0,0,VALID,0,0,0,0,0,1,0,0,0,0,0,0,0,0,0,0,0,0,0,0,0.43,517.77,2,0,0.04,0.04,6,19.23,0.18,0.04,0.28,PRELAUNCH,CF1-J,0:/Integrated Flight Computer/aircraft/cf1_j_cfg.ks (inferred preloaded)
0.72,TAKEOFF,TO_PREFLIGHT,1.13,80,78.87,3.6,0,-0.28,-0.3,89.54,0.11,0.216,0,0,0,0,0,0,0,0,0,0,0,0,0,0,90.4,0,1,0,0.03,0,0,0,90,0,0,0,0,0,0,0,0,0,0,0,3,0,0,0,69,0,0,0,90.4,1,0,-0.858,0,0,1,0,0,0,0,0,0,0,1,1,0,0,VALID,0,0,0,0,0,1,0,0,0,0,0,0,0,0,0,0,0,0,0,0,1.52,517.8,2,0,0.04,0.04,11,19.23,0.08,0.04,0.54,PRELAUNCH,CF1-J,0:/Integrated Flight Computer/aircraft/cf1_j_cfg.ks (inferred preloaded)
0.98,TAKEOFF,TO_PREFLIGHT,0.81,80,79.19,3.59,0,-0.33,-0.2,89.55,0.112,0.32,0,0,0,0,0,0,0,0,0,0,0,0,0,0,90.4,0,1,0,-0.11,0,0,0,90,0,0,0,0,0,0,0,0,0,0,0,3,0,0,0,69,0,0,0,90.4,1,0,-0.858,0,0,1,0,0,0,0,0,0,0,1,1,0,0,VALID,0,0,0,0,0,1,0,0,0,0,0,0,0,0,0,0,0,0,0,0,3.43,517.88,2,0,0.04,0.04,16,19.23,0.08,0.04,0.8,PRELAUNCH,CF1-J,0:/Integrated Flight Computer/aircraft/cf1_j_cfg.ks (inferred preloaded)
1.24,TAKEOFF,TO_PREFLIGHT,0.34,80,79.66,3.59,0,-0.35,-0.4,89.56,0.114,0.424,0,0,0,0,0,0,0,0,0,0,0,0,0,0,90.4,0,1,0,-0.03,0,0,0,90,0,0,0,0,0,0,0,0,0,0,0,3,0,0,0,69,0,0,0,90.4,1,0,-0.858,0,0,1,0,0,0,0,0,0,0,1,1,0,0,VALID,0,0,0,0,0,1,0,0,0,0,0,0,0,0,0,0,0,0,0,0,6.14,517.99,2,0,0.04,0.04,21,19.23,0.08,0.04,1.06,PRELAUNCH,CF1-J,0:/Integrated Flight Computer/aircraft/cf1_j_cfg.ks (inferred preloaded)
1.5,TAKEOFF,TO_PREFLIGHT,0.05,80,79.95,3.61,-0.02,-0.21,13.01,89.55,0.113,0.528,0,0,0,0,0,0,0,0,0,0,0,0,0,0,90.4,0,1,0,-1.11,0,0,0,90,0,0,0,0,0,0,0,0,0,0,0,3,0,0,0,69,0,0,0,90.4,1,0,-0.858,0,0,1,0,0,0,0,0,0,0,1,1,0,0,VALID,0,0,0,0,0,1,0,0,0,0,0,0,0,0,0,0,0,0,0,0,9.65,518.06,2,0,0.04,0.04,26,19.23,0.08,0.04,1.32,PRELAUNCH,CF1-J,0:/Integrated Flight Computer/aircraft/cf1_j_cfg.ks (inferred preloaded)
1.76,TAKEOFF,TO_PREFLIGHT,0.04,80,79.96,3.62,0.01,-0.1,-50.99,89.55,0.109,0.632,0,0,0,0,0,0,0,0,0,0,0,0,0,0,90.4,0,1,0,0.52,0,0,0,90,0,0,0,0,0,0,0,0,0,0,0,3,0,0,0,69,0,0,0,90.4,1,0,-0.858,0,0,1,0,0,0,0,0,0,0,1,1,0,0,VALID,0,0,0,0,0,1,0,0,0,0,0,0,0,0,0,0,0,0,0,0,13.93,518.06,2,0,0.04,0.04,31,19.23,0.08,0.04,1.58,PRELAUNCH,CF1-J,0:/Integrated Flight Computer/aircraft/cf1_j_cfg.ks (inferred preloaded)
2.02,TAKEOFF,TO_PREFLIGHT,0.06,80,79.94,3.6,0.01,-0.24,-8.16,89.54,0.107,0.736,0,0,0,0,0,0,0,0,0,0,0,0,0,0,90.4,0,1,0,0.44,0,0,0,90,0,0,0,0,0,0,0,0,0,0,0,3,0,0,0,69,0,0,0,90.4,1,0,-0.858,0,0,1,0,0,0,0,0,0,0,1,1,0,0,VALID,0,0,0,0,0,1,0,0,0,0,0,0,0,0,0,0,0,0,0,0,18.99,518.06,2,0,0.04,0.04,36,19.23,0.08,0.04,1.84,PRELAUNCH,CF1-J,0:/Integrated Flight Computer/aircraft/cf1_j_cfg.ks (inferred preloaded)
2.34,TAKEOFF,TO_PREFLIGHT,0.01,80,79.99,3.61,-0.01,-0.23,58.67,89.53,0.11,0.864,0,0,0,0,0,0,0,0,0,0,0,0,0,0,90.4,0,1,0,-0.47,0,0,0,90,0,0,0,0,0,0,0,0,0,0,0,3,0,0,0,69,0,0,0,90.4,1,0,-0.858,0,0,1,0,0,0,0,0,0,0,1,1,0,0,VALID,0,0,0,0,0,1,0,0,0,0,0,0,0,0,0,0,0,0,0,0,26.24,518.07,2,0,0.08,0.08,41,15.63,0.08,0.04,2.16,PRELAUNCH,CF1-J,0:/Integrated Flight Computer/aircraft/cf1_j_cfg.ks (inferred preloaded)
2.62,TAKEOFF,TO_PREFLIGHT,0.01,80,79.99,3.61,0,-0.18,-3.7,89.53,0.113,0.976,0,0,0,0,0,0,0,0,0,0,0,0,0,0,90.4,0,1,0,0.11,0,0,0,90,0,0,0,0,0,0,0,0,0,0,0,3,0,0,0,69,0,0,0,90.4,1,0,-0.858,0,0,1,0,0,0,0,0,0,0,1,1,0,0,VALID,0,0,0,0,0,1,0,0,0,0,0,0,0,0,0,0,0,0,0,0,33.49,518.07,2,0,0.08,0.08,45,14.29,0.08,0.06,2.44,PRELAUNCH,CF1-J,0:/Integrated Flight Computer/aircraft/cf1_j_cfg.ks (inferred preloaded)
2.9,TAKEOFF,TO_PREFLIGHT,0.04,80,79.96,3.6,0,-0.24,-4.66,89.52,0.113,1,0,0,0,0,0,0,0,0,0,0,0,0,0,0,90.4,0,1,0,0.19,0,0,0,90,0,0,0,0,0,0,0,0,0,0,0,3,0,0,0,69,0,0,0,90.4,1,0,-0.858,0,0,1,0,0,0,0,0,0,0,1,1,0,0,VALID,0,0,0,0,0,1,0,0,0,0,0,0,0,0,0,0,0,0,0,0,41.45,518.06,2,0,0.08,0.08,49,14.29,0.08,0.06,2.72,PRELAUNCH,CF1-J,0:/Integrated Flight Computer/aircraft/cf1_j_cfg.ks (inferred preloaded)
3.18,TAKEOFF,TO_PREFLIGHT,0.04,80,79.96,3.6,0,-0.25,4.51,89.52,0.112,1,0,0,0,0,0,0,0,0,0,0,0,0,0,0,90.4,0,1,0,-0.14,0,0,0,90,0,0,0,0,0,0,0,0,0,0,0,3,0,0,0,69,0,0,0,90.4,1,0,-0.858,0,0,1,0,0,0,0,0,0,0,1,1,0,0,VALID,0,0,0,0,0,1,0,0,0,0,0,0,0,0,0,0,0,0,0,0,49.4,518.06,2,0,0.08,0.08,53,14.29,0.08,0.06,3,PRELAUNCH,CF1-J,0:/Integrated Flight Computer/aircraft/cf1_j_cfg.ks (inferred preloaded)
3.46,TAKEOFF,TO_GROUND_ROLL,0.04,80,79.96,3.61,0,-0.21,0.37,89.51,0.11,1,0,0,0,0,0,0,0,0,0,0,0,0,0,0,90.4,0,1,0,-0.11,0,0,0,90,0,0,0,0,0,0,0,0,0,0,0,3,0,0,0,69,0,0,0,90.4,1,0,-0.895,0,0,3,0,0,0,0,0,0,0,1,1,0,0,VALID,0,0,0,0,0,1,0,0,0,0,0,0,0,0,0,0,0,0,0,0,57.21,518.06,2,0,0.08,0.08,57,14.29,0.08,0.06,3.3,PRELAUNCH,CF1-J,0:/Integrated Flight Computer/aircraft/cf1_j_cfg.ks (inferred preloaded)
3.74,TAKEOFF,TO_GROUND_ROLL,0.27,80,79.73,3.62,-0.01,-0.13,0.98,89.5,0.109,1,0,0,0,0,0,0,0,0,0,0,0,0,0,0,90.4,0,1,0,-0.37,0,0,0,90,0,0,0,0,0,0,0,0,0,0,0,3,0,0,0,69,0,0,0,90.4,1,0,-0.898,0,0,3,0,0,0,0,0,0,0,1,1,0,0,VALID,0,0,0,0,0,1,0,0,0,0,0,0,0,0,0,0,0,0,0,0,64.89,518,2,0,0.08,0.08,61,14.29,0.08,0.06,3.58,PRELAUNCH,CF1-J,0:/Integrated Flight Computer/aircraft/cf1_j_cfg.ks (inferred preloaded)
4.02,TAKEOFF,TO_GROUND_ROLL,0.62,80,79.38,3.61,0,-0.17,-0.27,89.5,0.109,1,0,0,0,0,0,0,0,0,0,0,0,0,0,0,90.4,0,1,0,0.01,0,0,0,90,0,0,0,0,0,0,0,0,0,0,0,3,0,0,0,69,0,0,0,90.4,1,0,-0.894,0,0,3,0,0,0,0,0,0,0,1,1,0,0,VALID,0,0,0,0,0,1,0,0,0,0,0,0,0,0,0,0,0,0,0,0,72.43,517.92,2,0,0.08,0.08,65,14.29,0.08,0.06,3.86,PRELAUNCH,CF1-J,0:/Integrated Flight Computer/aircraft/cf1_j_cfg.ks (inferred preloaded)
4.3,TAKEOFF,TO_GROUND_ROLL,1,80,79,3.62,-0.01,-0.16,0.35,89.51,0.111,1,0,0,0,0,0,0,0,0,0,0,0,0,0,0,90.39,0,1,0,-0.58,0,0,0,90,0,0,0,0,0,0,0,0,0,0,0,3,0,0,0,69,0,0,0,90.39,1,0,-0.88,0,0,3,0,0,0,0,0,0,0,1,1,0,0,VALID,0,0,0,0,0,1,0,0,0,0,0,0,0,0,0,0,0,0,0,0,79.84,517.83,2,0,0.08,0.08,69,14.29,0.08,0.06,4.14,PRELAUNCH,CF1-J,0:/Integrated Flight Computer/aircraft/cf1_j_cfg.ks (inferred preloaded)
4.58,TAKEOFF,TO_GROUND_ROLL,1.42,80,78.58,3.62,-0.01,-0.14,0.1,89.53,0.111,1,0,0,0,0,0,0,0,0,0,0,0,0,0,0,90.39,0,1,0,-0.3,0,0,0,90,0,0,0,0,0,0,0,0,0,0,0,3,0,0,0,69,0,0,0,90.39,1,0,-0.858,0,0,3,0,0,0,0,0,0,0,1,1,0,0,VALID,0,0,0,0,0,1,0,0,0,0,0,0,0,0,0,0,0,0,0,0,87.13,517.72,2,0,0.08,0.08,73,14.29,0.08,0.06,4.42,PRELAUNCH,CF1-J,0:/Integrated Flight Computer/aircraft/cf1_j_cfg.ks (inferred preloaded)
4.86,TAKEOFF,TO_GROUND_ROLL,1.87,80,78.13,3.62,-0.01,-0.16,0.16,89.55,0.11,1,0,0,0,0,0,0,0,0,0,0,0,0,0,0,90.38,0,1,0,-0.38,0,0,0,90,0,0,0,0,0,0,0,0,0,0,0,3,0,0,0,69,0,0,0,90.38,1,0,-0.829,0,0,3,0,0,0,0,0,0,0,1,1,0,0,VALID,0,0,0,0,0,1,0,0,0,0,0,0,0,0,0,0,0,0,0,0,94.28,517.6,2,0,0.08,0.08,77,14.29,0.08,0.06,4.7,PRELAUNCH,CF1-J,0:/Integrated Flight Computer/aircraft/cf1_j_cfg.ks (inferred preloaded)
5.14,TAKEOFF,TO_GROUND_ROLL,2.37,80,77.63,3.62,-0.01,-0.14,0.15,89.58,0.109,1,0,0,0,0,0,0,0,0,0,0,0,0,0,0,90.37,0,1,0,-0.35,0,0,0,90,0,0,0,0,0,0,0,0,0,0,0,3,0,0,0,69,0,0,0,90.37,1,0,-0.79,0.0089,0.25,1,0.0089,0,0,0,0,0,0,1,1,0,0,VALID,0,0,0,0,0,1,0,0,0,0,0,0,0,0,0,0,0,0,0,0,101.31,517.48,2,0,0.08,0.08,81,14.29,0.08,0.06,4.98,LANDED,CF1-J,0:/Integrated Flight Computer/aircraft/cf1_j_cfg.ks (inferred preloaded)
5.42,TAKEOFF,TO_GROUND_ROLL,2.89,80,77.11,3.62,-0.02,-0.15,0.13,89.63,0.108,1,0,0,0,0,0,0,0,0,0,0,0,0,0,0,90.37,0,1,0,-0.33,0,0,0,90,0,0,0,0,0,0,0,0,0,0,0,3,0,0,0,69,0,0,0,90.37,1,0,-0.744,0.0084,0.25,1,0.0084,0,0,0,0,0,0,1,1,0,0,VALID,0,0,0,0,0,1,0,0,0,0,0,0,0,0,0,0,0,0,0,0,108.22,517.34,2,0,0.08,0.08,85,14.29,0.08,0.06,5.26,LANDED,CF1-J,0:/Integrated Flight Computer/aircraft/cf1_j_cfg.ks (inferred preloaded)
5.7,TAKEOFF,TO_GROUND_ROLL,3.45,80,76.55,3.62,-0.02,-0.14,0.16,89.67,0.106,1,0,0,0,0,0,0,0,0,0,0,0,0,0,0,90.36,0,1,0,-0.35,0,0,0,90,0,0,0,0,0,0,0,0,0,0,0,3,0,0,0,69,0,0,0,90.36,1,0,-0.691,0.0078,0.25,1,0.0078,0,0,0,0,0,0,1,1,0,0,VALID,0,0,0,0,0,1,0,0,0,0,0,0,0,0,0,0,0,0,0,0,115.01,517.18,2,0,0.08,0.08,89,14.29,0.08,0.06,5.54,LANDED,CF1-J,0:/Integrated Flight Computer/aircraft/cf1_j_cfg.ks (inferred preloaded)
5.98,TAKEOFF,TO_GROUND_ROLL,4.05,80,75.95,3.62,-0.02,-0.14,0.16,89.73,0.105,1,0,0,0,0,0,0,0,0,0,0,0,0,0,0,90.36,0,1,0,-0.33,0,0,0,90,0,0,0,0,0,0,0,0,0.001,0,0,3,0,0,0,69,0,0,0,90.36,1,0.001,-0.633,0.0071,0.25,1,0.0071,0,0,0,0,0,0,1,1,0,0,VALID,0,0,0,0,0,1,0,0,0,0,0,0,0,0,0,0,0,0,0,0,121.67,517.02,2,0,0.08,0.08,93,14.29,0.08,0.06,5.82,LANDED,CF1-J,0:/Integrated Flight Computer/aircraft/cf1_j_cfg.ks (inferred preloaded)
6.26,TAKEOFF,TO_GROUND_ROLL,4.68,80,75.32,3.62,-0.03,-0.14,0.16,89.79,0.104,1,0,0,0,0,0,0,0,0,0,0,0,0,0,0,90.36,0,1,0,-0.33,0,0,0,90,0,0,0,0,0,0,0,0,0.001,0,0,3,0,0,0,69,0,0,0,90.36,1,0.001,-0.571,0.0064,0.25,1,0.0064,0,0,0,0,0,0,1,1,0,0,VALID,0,0,0,0,0,1,0,0,0,0,0,0,0,0,0,0,0,0,0,0,128.22,516.84,2,0,0.08,0.08,97,14.29,0.08,0.06,6.1,LANDED,CF1-J,0:/Integrated Flight Computer/aircraft/cf1_j_cfg.ks (inferred preloaded)
6.54,TAKEOFF,TO_GROUND_ROLL,5.34,80,74.66,3.62,-0.03,-0.14,0.17,89.85,0.102,1,0,0,0,0,0,0,0,0,0,0,0,0,0,0,90.36,0,1,0,-0.34,0,0,0,90,0,0,0,0,0,0,0,0,0.001,0,0,3,0,0,0,69,0,0,0,90.36,1,0.001,-0.507,0.0057,0.25,1,0.0057,0,0,0,0,0,0,1,1,0,0,VALID,0,0,0,0,0,1,0,0,0,0,0,0,0,0,0,0,0,0,0,0,134.65,516.65,2,0,0.08,0.08,101,14.29,0.08,0.06,6.38,LANDED,CF1-J,0:/Integrated Flight Computer/aircraft/cf1_j_cfg.ks (inferred preloaded)
6.82,TAKEOFF,TO_GROUND_ROLL,6.03,80,73.97,3.62,-0.03,-0.13,0.17,89.91,0.1,1,0,0,0,0,0,0,0,0,0,0,0,0,0,0,90.35,0,1,0,-0.33,0,0,0,90,0,0,0,0,0,0,0,0,0.001,0,0,3,0,0,0,69,0,0,0,90.35,1,0.001,-0.442,0.005,0.25,1,0.005,0,0,0,0,0,0,1,1,0,0,VALID,0,0,0,0,0,1,0,0,0,0,0,0,0,0,0,0,0,0,0,0,140.96,516.45,2,0,0.08,0.08,105,14.29,0.08,0.06,6.66,LANDED,CF1-J,0:/Integrated Flight Computer/aircraft/cf1_j_cfg.ks (inferred preloaded)
7.1,TAKEOFF,TO_GROUND_ROLL,6.76,80,73.24,3.62,-0.04,-0.13,0.17,89.98,0.099,1,0,0,0,0,0,0,0,0,0,0,0,0,0,0,90.36,0,1,0,-0.33,0,0,0,90,0,0,0,0,0,0,0,0,0.001,0,0,3,0,0,0,69,0,0,0,90.36,1,0.001,-0.379,0.0042,0.25,1,0.0042,0,0,0,0,0,0,1,1,0,0,VALID,0,0,0,0,0,1,0,0,0,0,0,0,0,0,0,0,0,0,0,0,147.16,516.23,2,0,0.08,0.08,109,14.29,0.08,0.06,6.94,LANDED,CF1-J,0:/Integrated Flight Computer/aircraft/cf1_j_cfg.ks (inferred preloaded)
7.38,TAKEOFF,TO_GROUND_ROLL,7.52,80,72.48,3.62,-0.04,-0.13,0.17,90.04,0.098,1,0,0,0,0,0,0,0,0,0,0,0,0,0,0,90.36,0,1,0,-0.33,0,0,0,90,0,0,0,0,0,0,0,0,0.001,0,0,3,0,0,0,69,0,0,0,90.36,1,0.001,-0.318,0.0033,0.25,1,0.0033,0,0,0,0,0,0,1,1,0,0,VALID,0,0,0,0,0,1,0,0,0,0,0,0,0,0,0,0,0,0,0,0,153.24,515.99,2,0,0.08,0.08,113,14.29,0.08,0.06,7.22,LANDED,CF1-J,0:/Integrated Flight Computer/aircraft/cf1_j_cfg.ks (inferred preloaded)
7.66,TAKEOFF,TO_GROUND_ROLL,8.3,80,71.7,3.62,-0.05,-0.13,0.17,90.1,0.097,1,0,0,0,0,0,0,0,0,0,0,0,0,0,0,90.36,0,1,0,-0.33,0,0,0,90,0,0,0,0,0,0,0,0,0.001,0,0,3,0,0,0,69,0,0,0,90.36,1,0.001,-0.261,0.0025,0.25,1,0.0025,0,0,0,0,0,0,1,1,0,0,VALID,0,0,0,0,0,1,0,0,0,0,0,0,0,0,0,0,0,0,0,0,159.21,515.74,2,0,0.08,0.08,117,14.29,0.08,0.06,7.5,LANDED,CF1-J,0:/Integrated Flight Computer/aircraft/cf1_j_cfg.ks (inferred preloaded)
7.94,TAKEOFF,TO_GROUND_ROLL,9.12,80,70.88,3.62,-0.05,-0.13,0.18,90.15,0.096,1,0,0,0,0,0,0,0,0,0,0,0,0,0,0,90.36,0,1,0,-0.33,0,0,0,90,0,0,0,0,0,0,0,0,0,0,0,3,0,0,0,69,0,0,0,90.36,1,0,-0.21,0.0019,0.25,1,0.0019,0,0,0,0,0,0,1,1,0,0,VALID,0,0,0,0,0,1,0,0,0,0,0,0,0,0,0,0,0,0,0,0,165.07,515.48,2,0,0.08,0.08,121,14.29,0.08,0.06,7.78,LANDED,CF1-J,0:/Integrated Flight Computer/aircraft/cf1_j_cfg.ks (inferred preloaded)
8.22,TAKEOFF,TO_GROUND_ROLL,9.96,80,70.04,3.62,-0.06,-0.12,0.18,90.2,0.096,1,0,0,0,0,0,0,0,0,0,0,0,0,0,0,90.37,0,1,0,-0.32,0,0,0,90,0,0,0,0,0,0,0,0,0,0,0,3,0,0,0,69,0,0,0,90.37,1,0,-0.164,0.0014,0.25,1,0.0014,0,0,0,0,0,0,1,1,0,0,VALID,0,0,0,0,0,1,0,0,0,0,0,0,0,0,0,0,0,0,0,0,170.82,515.2,2,0,0.08,0.08,125,14.29,0.08,0.06,8.06,LANDED,CF1-J,0:/Integrated Flight Computer/aircraft/cf1_j_cfg.ks (inferred preloaded)
8.5,TAKEOFF,TO_GROUND_ROLL,10.84,80,69.16,3.62,-0.06,-0.12,0.18,90.25,0.097,1,0,0,0,0,0,0,0,0,0,0,0,0,0,0,90.37,0,1,0,-0.33,0,0,0,90,0,0,0,0,0,0,0,0,0,0,0,3,0,0,0,69,0,0,0,90.37,1,0,-0.126,0.001,0.25,1,0.001,0,0,0,0,0,0,1,1,0,0,VALID,0,0,0,0,0,1,0,0,0,0,0,0,0,0,0,0,0,0,0,0,176.46,514.9,2,0,0.08,0.08,129,14.29,0.08,0.06,8.34,LANDED,CF1-J,0:/Integrated Flight Computer/aircraft/cf1_j_cfg.ks (inferred preloaded)
8.78,TAKEOFF,TO_GROUND_ROLL,11.74,80,68.26,3.62,-0.07,-0.12,0.18,90.28,0.099,1,0,0,0,0,0,0,0,0,0,0,0,0,0,0,90.38,0,1,0,-0.33,0,0,0,90,0,0,0,0,0,0,0,0,0,0,0,3,0,0,0,69,0,0,0,90.38,1,0,-0.094,0.0007,0.25,1,0.0007,0,0,0,0,0,0,1,1,0,0,VALID,0,0,0,0,0,1,0,0,0,0,0,0,0,0,0,0,0,0,0,0,181.99,514.58,2,0,0.08,0.08,133,14.29,0.08,0.06,8.62,LANDED,CF1-J,0:/Integrated Flight Computer/aircraft/cf1_j_cfg.ks (inferred preloaded)
9.06,TAKEOFF,TO_GROUND_ROLL,12.66,80,67.34,3.62,-0.07,-0.12,0.19,90.31,0.1,1,0,0,0,0,0,0,0,0,0,0,0,0,0,0,90.38,0,1,0,-0.33,0,0,0,90,0,0,0,0,0,0,0,0,-0.001,0,0,3,0,0,0,69,0,0,0,90.38,1,-0.001,-0.068,0.0005,0.25,1,0.0005,0,0,0,0,0,0,1,1,0,0,VALID,0,0,0,0,0,1,0,0,0,0,0,0,0,0,0,0,0,0,0,0,187.41,514.25,2,0,0.08,0.08,137,14.29,0.08,0.06,8.9,LANDED,CF1-J,0:/Integrated Flight Computer/aircraft/cf1_j_cfg.ks (inferred preloaded)
9.34,TAKEOFF,TO_GROUND_ROLL,13.62,80,66.38,3.62,-0.08,-0.12,0.19,90.34,0.1,1,0,0,0,0,0,0,0,0,0,0,0,0,0,0,90.38,0,1,0,-0.32,0,0,0,90,0,0,0,0,0,0,0,0,-0.001,0,0,3,0,0,0,69,0,0,0,90.38,1,-0.001,-0.048,0.0003,0.25,1,0.0003,0,0,0,0,0,0,1,1,0,0,VALID,0,0,0,0,0,1,0,0,0,0,0,0,0,0,0,0,0,0,0,0,192.73,513.9,2,0,0.08,0.08,141,14.29,0.08,0.06,9.18,LANDED,CF1-J,0:/Integrated Flight Computer/aircraft/cf1_j_cfg.ks (inferred preloaded)
9.62,TAKEOFF,TO_GROUND_ROLL,14.6,80,65.4,3.62,-0.08,-0.11,0.19,90.35,0.099,1,0,0,0,0,0,0,0,0,0,0,0,0,0,0,90.39,0,1,0,-0.32,0,0,0,90,0,0,0,0,0,0,0,0,-0.002,0,0,3,0,0,0,69,0,0,0,90.39,1,-0.002,-0.033,0.0002,0.25,1,0.0002,0,0,0,0,0,0,1,1,0,0,VALID,0,0,0,0,0,1,0,0,0,0,0,0,0,0,0,0,0,0,0,0,197.95,513.53,2,0,0.08,0.08,145,14.29,0.08,0.06,9.46,LANDED,CF1-J,0:/Integrated Flight Computer/aircraft/cf1_j_cfg.ks (inferred preloaded)
9.9,TAKEOFF,TO_GROUND_ROLL,15.61,80,64.39,3.62,-0.09,-0.11,0.19,90.37,0.1,1,0,0,0,0,0,0,0,0,0,0,0,0,0,0,90.39,0,1,0,-0.32,0,0,0,90,0,0,0,0,0,0,0,0,-0.002,0,0,3,0,0,0,69,0,0,0,90.39,1,-0.002,-0.022,0.0001,0.25,1,0.0001,0,0,0,0,0,0,1,1,0,0,VALID,0,0,0,0,0,1,0,0,0,0,0,0,0,0,0,0,0,0,0,0,203.05,513.15,2,0,0.08,0.08,149,14.29,0.08,0.06,9.74,LANDED,CF1-J,0:/Integrated Flight Computer/aircraft/cf1_j_cfg.ks (inferred preloaded)
10.18,TAKEOFF,TO_GROUND_ROLL,16.64,80,63.36,3.62,-0.09,-0.11,0.19,90.38,0.103,1,0,0,0,0,0,0,0,0,0,0,0,0,0,0,90.39,0,1,0,-0.32,0,0,0,90,0,0,0,0,0,0,0,0,-0.003,0,0,3,0,0,0,69,0,0,0,90.39,1,-0.003,-0.016,0.0001,0.25,1,0.0001,0,0,0,0,0,0,1,1,0,0,VALID,0,0,0,0,0,1,0,0,0,0,0,0,0,0,0,0,0,0,0,0,208.06,512.74,2,0,0.08,0.08,153,14.29,0.08,0.06,10.02,LANDED,CF1-J,0:/Integrated Flight Computer/aircraft/cf1_j_cfg.ks (inferred preloaded)
10.46,TAKEOFF,TO_GROUND_ROLL,17.7,80,62.3,3.62,-0.1,-0.11,0.19,90.38,0.104,1,0,0,0,0,0,0,0,0,0,0,0,0,0,0,90.39,0,1,0,-0.32,0,0,0.01,90,0,0,0,0,0,0,0,0,-0.004,0,0,3,0,0,0,69,0,0,0,90.39,1,-0.004,-0.013,0.0001,0.25,1,0.0001,0,0,0,0,0,0,1,1,0,0,VALID,0,0,0,0,0,1,0,0,0,0,0,0,0,0,0,0,0,0,0,0,212.96,512.31,2,0,0.08,0.08,157,14.29,0.08,0.06,10.3,LANDED,CF1-J,0:/Integrated Flight Computer/aircraft/cf1_j_cfg.ks (inferred preloaded)
10.74,TAKEOFF,TO_GROUND_ROLL,18.78,80,61.22,3.62,-0.1,-0.11,0.19,90.38,0.105,1,0,0,0,0,0,0,0,0,0,0,0,0,0,0,90.39,0,1,0,-0.32,0,0,0.01,90,0,0,0,0,0,0,0,0,-0.004,0,0,3,0,0,0,69,0,0,0,90.39,1,-0.004,-0.01,0.0001,0.25,1,0.0001,0,0,0,0,0,0,1,1,0,0,VALID,0,0,0,0,0,1,0,0,0,0,0,0,0,0,0,0,0,0,0,0,217.76,511.87,2,0,0.08,0.08,161,14.29,0.08,0.06,10.58,LANDED,CF1-J,0:/Integrated Flight Computer/aircraft/cf1_j_cfg.ks (inferred preloaded)
11.02,TAKEOFF,TO_GROUND_ROLL,19.88,80,60.12,3.62,-0.11,-0.1,0.2,90.38,0.106,1,0,0,0,0,0,0,0,0,0,0,0,0,0,0,90.4,0,1,0,-0.32,0,0,0.01,90,0,0,0,0,0,0,0,0,-0.005,0,0,3,0,0,0,69,0,0,0,90.4,1,-0.005,-0.016,0.0001,0.25,1,0.0001,0,0,0,0,0,0,1,1,0,0,VALID,0,0,0,0,0,1,0,0,0,0,0,0,0,0,0,0,0,0,0,0,222.47,511.41,2,0,0.08,0.08,165,14.29,0.08,0.06,10.86,LANDED,CF1-J,0:/Integrated Flight Computer/aircraft/cf1_j_cfg.ks (inferred preloaded)
11.3,TAKEOFF,TO_GROUND_ROLL,21,80,59,3.62,-0.12,-0.1,0.2,90.38,0.107,1,0,0,0,0,0,0,0,0,0,0,0,0,0,0,90.4,0,1,0,-0.32,0,0,0.01,90,0,0,0,0,0,0,0,0,-0.006,0,0,3,0,0,0,69,0,0,0,90.4,1,-0.006,-0.018,0.0001,0.261,0,0.0001,0,0,0,0,0,0,1,1,0,0,VALID,0,0,0,0,0,1,0,0,0,0,0,0,0,0,0,0,0,0,0,0,227.07,510.92,2,0,0.08,0.08,169,14.29,0.08,0.06,11.14,LANDED,CF1-J,0:/Integrated Flight Computer/aircraft/cf1_j_cfg.ks (inferred preloaded)
11.58,TAKEOFF,TO_GROUND_ROLL,22.15,80,57.85,3.63,-0.12,-0.1,0.2,90.38,0.108,1,0,0,0,0,0,0,0,0,0,0,0,0,0,0,90.39,0,1,0,-0.31,0,0,0.01,90,0,0,0,0,0,0,0,0,-0.007,0,0,3,0,0,0,69,0,0,0,90.39,1,-0.007,-0.015,0.0001,0.273,0,0.0001,0,0,0,0,0,0,1,1,0,0,VALID,0,0,0,0,0,1,0,0,0,0,0,0,0,0,0,0,0,0,0,0,231.57,510.42,2,0,0.08,0.08,173,14.29,0.08,0.06,11.42,LANDED,CF1-J,0:/Integrated Flight Computer/aircraft/cf1_j_cfg.ks (inferred preloaded)
11.86,TAKEOFF,TO_GROUND_ROLL,23.32,80,56.68,3.63,-0.13,-0.1,0.2,90.38,0.106,1,0,0,0,0,0,0,0,0,0,0,0,0,0,0,90.39,0,1,0,-0.32,0,0,0.01,90,0,0,0,0,0,0,0,0,-0.008,0,0,3,0,0,0,69,0,0,0,90.39,1,-0.008,-0.011,0.0001,0.286,0,0.0001,0,0,0,0,0,0,1,1,0,0,VALID,0,0,0,0,0,1,0,0,0,0,0,0,0,0,0,0,0,0,0,0,235.98,509.89,2,0,0.08,0.08,177,14.29,0.08,0.06,11.7,LANDED,CF1-J,0:/Integrated Flight Computer/aircraft/cf1_j_cfg.ks (inferred preloaded)
12.14,TAKEOFF,TO_GROUND_ROLL,24.51,80,55.49,3.63,-0.13,-0.09,0.2,90.38,0.102,1,0,0,0,0,0,0,0,0,0,0,0,0,0,0,90.39,0,1,0,-0.31,0,0,0.01,90,0,0,0,0,0,0,0,0,-0.009,0,0,3,0,0,0,69,0,0,0,90.39,1,-0.009,-0.007,0,0.298,0,0,0,0,0,0,0,0,1,1,0,0,VALID,0,0,0,0,0,1,0,0,0,0,0,0,0,0,0,0,0,0,0,0,240.29,509.35,2,0,0.08,0.08,181,14.29,0.08,0.06,11.98,LANDED,CF1-J,0:/Integrated Flight Computer/aircraft/cf1_j_cfg.ks (inferred preloaded)
12.42,TAKEOFF,TO_GROUND_ROLL,25.72,80,54.28,3.63,-0.14,-0.09,0.2,90.38,0.102,1,0,0,0,0,0,0,0,0,0,0,0,0,0,0,90.39,0,1,0,-0.32,0,0,0.01,90,0,0,0,0,0,0,0,0,-0.01,0,0,3,0,0,0,69,0,0,0,90.39,1,-0.01,-0.011,0.0001,0.311,0,0.0001,0,0,0,0,0,0,1,1,0,0,VALID,0,0,0,0,0,1,0,0,0,0,0,0,0,0,0,0,0,0,0,0,244.5,508.78,2,0,0.08,0.08,185,14.29,0.08,0.06,12.26,LANDED,CF1-J,0:/Integrated Flight Computer/aircraft/cf1_j_cfg.ks (inferred preloaded)
12.7,TAKEOFF,TO_GROUND_ROLL,26.95,80,53.05,3.63,-0.15,-0.09,0.21,90.37,0.105,1,0,0,0,0,0,0,0,0,0,0,0,0,0,0,90.39,0,1,0,-0.31,0,0,0.01,90,0,0,0,0,0,0,0,0,-0.011,0,0,3,0,0,0,69,0,0,0,90.39,1,-0.011,-0.019,0.0002,0.325,0,0.0002,0,0,0,0,0,0,1,1,0,0,VALID,0,0,0,0,0,1,0,0,0,0,0,0,0,0,0,0,0,0,0,0,248.62,508.19,2,0,0.08,0.08,189,14.29,0.08,0.06,12.54,LANDED,CF1-J,0:/Integrated Flight Computer/aircraft/cf1_j_cfg.ks (inferred preloaded)
12.98,TAKEOFF,TO_GROUND_ROLL,28.2,80,51.8,3.63,-0.15,-0.09,0.21,90.37,0.11,1,0,0,0,0,0,0,0,0,0,0,0,0,0,0,90.39,0,1,0,-0.31,0,0,0.01,90,0,0,0,0,0,0,0,0,-0.012,0,0,3,0,0,0,69,0,0,0,90.39,1,-0.012,-0.016,0.0001,0.338,0,0.0001,0,0,0,0,0,0,1,1,0,0,VALID,0,0,0,0,0,1,0,0,0,0,0,0,0,0,0,0,0,0,0,0,252.65,507.59,2,0,0.08,0.08,193,14.29,0.08,0.06,12.82,LANDED,CF1-J,0:/Integrated Flight Computer/aircraft/cf1_j_cfg.ks (inferred preloaded)
13.26,TAKEOFF,TO_GROUND_ROLL,29.47,80,50.53,3.63,-0.16,-0.08,0.21,90.37,0.109,1,0,0,0,0,0,0,0,0,0,0,0,0,0,0,90.39,0,1,0,-0.31,0,0,0.01,90,0,0,0,0,0,0,0,0,-0.013,0,0,3,0,0,0,69,0,0,0,90.39,1,-0.013,-0.011,0.0001,0.351,0,0.0001,0,0,0,0,0,0,1,1,0,0,VALID,0,0,0,0,0,1,0,0,0,0,0,0,0,0,0,0,0,0,0,0,256.58,506.96,2,0,0.08,0.08,197,14.29,0.08,0.06,13.1,LANDED,CF1-J,0:/Integrated Flight Computer/aircraft/cf1_j_cfg.ks (inferred preloaded)
13.54,TAKEOFF,TO_GROUND_ROLL,30.76,80,49.24,3.63,-0.17,-0.08,0.21,90.38,0.102,1,0,0,0,0,0,0,0,0,0,0,0,0,0,0,90.38,0,1,0,-0.31,0,0,0.01,90,0,0,0,0,0,0,0,0,-0.014,0,0,3,0,0,0,69,0,0,0,90.38,1,-0.014,-0.007,0.0001,0.365,0,0.0001,0,0,0,0,0,0,1,1,0,0,VALID,0,0,0,0,0,1,0,0,0,0,0,0,0,0,0,0,0,0,0,0,260.42,506.31,2,0,0.08,0.08,201,14.29,0.08,0.06,13.38,LANDED,CF1-J,0:/Integrated Flight Computer/aircraft/cf1_j_cfg.ks (inferred preloaded)
13.82,TAKEOFF,TO_GROUND_ROLL,32.07,80,47.93,3.63,-0.17,-0.08,0.21,90.38,0.099,1,0,0,0,0,0,0,0,0,0,0,0,0,0,0,90.38,0,1,0,-0.31,0,0,0.01,90,0,0,0,0,0,0,0,0,-0.015,0,0,3,0,0,0,69,0,0,0,90.38,1,-0.015,-0.003,0,0.379,0,0,0,0,0,0,0,0,1,1,0,0,VALID,0,0,0,0,0,1,0,0,0,0,0,0,0,0,0,0,0,0,0,0,264.17,505.64,2,0,0.08,0.08,205,14.29,0.08,0.06,13.66,LANDED,CF1-J,0:/Integrated Flight Computer/aircraft/cf1_j_cfg.ks (inferred preloaded)
14.1,TAKEOFF,TO_GROUND_ROLL,33.39,80,46.61,3.63,-0.18,-0.08,0.21,90.38,0.1,1,0,0,0,0,0,0,0,0,0,0,0,0,0,0,90.38,0,1,0,-0.3,0,0,0.01,90,0,0,0,0,0,0,0,0,-0.017,0,0,3,0,0,0,69,0,0,0,90.38,1,-0.017,0,0,0.393,0,0,0,0,0,0,0,0,1,1,0,0,VALID,0,0,0,0,0,1,0,0,0,0,0,0,0,0,0,0,0,0,0,0,267.84,504.95,2,0,0.08,0.08,209,14.29,0.08,0.06,13.94,LANDED,CF1-J,0:/Integrated Flight Computer/aircraft/cf1_j_cfg.ks (inferred preloaded)
14.38,TAKEOFF,TO_GROUND_ROLL,34.73,80,45.27,3.63,-0.18,-0.08,0.21,90.38,0.104,1,0,0,0,0,0,0,0,0,0,0,0,0,0,0,90.38,0,1,0,-0.3,0,0,0.02,90,0,0,0,0,0,0,0,0,-0.018,0,0,3,0,0,0,69,0,0,0,90.38,1,-0.018,-0.003,0,0.408,0,0,0,0,0,0,0,0,1,1,0,0,VALID,0,0,0,0,0,1,0,0,0,0,0,0,0,0,0,0,0,0,0,0,271.41,504.24,2,0,0.08,0.08,213,14.29,0.08,0.06,14.22,LANDED,CF1-J,0:/Integrated Flight Computer/aircraft/cf1_j_cfg.ks (inferred preloaded)
14.66,TAKEOFF,TO_GROUND_ROLL,36.08,80,43.92,3.63,-0.19,-0.07,0.21,90.37,0.108,1,0,0,0,0,0,0,0,0,0,0,0,0,0,0,90.39,0,1,0,-0.3,0,0,0.02,90,0,0,0,0,0,0,0,0,-0.019,0,0,3,0,0,0,69,0,0,0,90.39,1,-0.019,-0.011,0.0001,0.422,0,0.0001,0,0,0,0,0,0,1,1,0,0,VALID,0,0,0,0,0,1,0,0,0,0,0,0,0,0,0,0,0,0,0,0,274.89,503.5,2,0,0.08,0.08,217,14.29,0.08,0.06,14.5,LANDED,CF1-J,0:/Integrated Flight Computer/aircraft/cf1_j_cfg.ks (inferred preloaded)
14.94,TAKEOFF,TO_GROUND_ROLL,37.45,80,42.55,3.63,-0.2,-0.07,0.22,90.37,0.112,1,0,0,0,0,0,0,0,0,0,0,0,0,0,0,90.38,0,1,0,-0.3,0,0,0.02,90,0,0,0,0,0,0,0,0,-0.021,0,0,3,0,0,0,69,0,0,0,90.38,1,-0.021,-0.014,0.0002,0.437,0,0.0002,0,0,0,0,0,0,1,1,0,0,VALID,0,0,0,0,0,1,0,0,0,0,0,0,0,0,0,0,0,0,0,0,278.29,502.75,2,0,0.08,0.08,221,14.29,0.08,0.06,14.78,LANDED,CF1-J,0:/Integrated Flight Computer/aircraft/cf1_j_cfg.ks (inferred preloaded)
15.22,TAKEOFF,TO_GROUND_ROLL,38.84,80,41.16,3.63,-0.2,-0.07,0.22,90.37,0.11,1,0,0,0,0,0,0,0,0,0,0,0,0,0,0,90.38,0,1,0,-0.3,0,0,0.02,90,0,0,0,0,0,0,0,0,-0.022,0,0,3,0,0,0,69,0,0,0,90.38,1,-0.022,-0.014,0.0002,0.452,0,0.0002,0,0,0,0,0,0,1,1,0,0,VALID,0,0,0,0,0,1,0,0,0,0,0,0,0,0,0,0,0,0,0,0,281.6,501.98,2,0,0.08,0.08,225,14.29,0.08,0.06,15.06,LANDED,CF1-J,0:/Integrated Flight Computer/aircraft/cf1_j_cfg.ks (inferred preloaded)
15.5,TAKEOFF,TO_GROUND_ROLL,40.24,80,39.76,3.63,-0.21,-0.07,0.22,90.37,0.104,1,0,0,0,0,0,0,0,0,0,0,0,0,0,0,90.38,0,1,0,-0.3,0,0,0.02,90,0,0,0,0,0,0,0,0,-0.024,0,0,3,0,0,0,69,0,0,0,90.38,1,-0.024,-0.01,0.0001,0.467,0,0.0001,0,0,0,0,0,0,1,1,0,0,VALID,0,0,0,0,0,1,0,0,0,0,0,0,0,0,0,0,0,0,0,0,284.82,501.19,2,0,0.08,0.08,229,14.29,0.08,0.06,15.34,LANDED,CF1-J,0:/Integrated Flight Computer/aircraft/cf1_j_cfg.ks (inferred preloaded)
15.78,TAKEOFF,TO_GROUND_ROLL,41.66,80,38.34,3.63,-0.22,-0.06,0.22,90.37,0.098,1,0,0,0,0,0,0,0,0,0,0,0,0,0,0,90.37,0,1,0,-0.3,0,0,0.02,90,0,0,0,0,0,0,0,0,-0.025,0,0,3,0,0,0,69,0,0,0,90.37,1,-0.025,-0.006,0.0001,0.482,0,0.0001,0,0,0,0,0,0,1,1,0,0,VALID,0,0,0,0,0,1,0,0,0,0,0,0,0,0,0,0,0,0,0,0,287.96,500.38,2,0,0.08,0.08,233,14.29,0.08,0.06,15.62,LANDED,CF1-J,0:/Integrated Flight Computer/aircraft/cf1_j_cfg.ks (inferred preloaded)
16.06,TAKEOFF,TO_GROUND_ROLL,43.09,80,36.91,3.63,-0.22,-0.06,0.22,90.37,0.097,1,0,0,0,0,0,0,0,0,0,0,0,0,0,0,90.37,0,1,0,-0.3,0,0,0.02,90,0,0,0,0,0,0,0,0,-0.027,0,0,3,0,0,0,69,0,0,0,90.37,1,-0.027,-0.002,0,0.497,0,0,0,0,0,0,0,0,1,1,0,0,VALID,0,0,0,0,0,1,0,0,0,0,0,0,0,0,0,0,0,0,0,0,291.02,499.54,2,0,0.08,0.08,237,14.29,0.08,0.06,15.9,LANDED,CF1-J,0:/Integrated Flight Computer/aircraft/cf1_j_cfg.ks (inferred preloaded)
16.34,TAKEOFF,TO_GROUND_ROLL,44.53,80,35.47,3.63,-0.23,-0.06,0.22,90.37,0.1,1,0,0,0,0,0,0,0,0,0,0,0,0,0,0,90.37,0,1,0,-0.3,0,0,0.02,90,0,0,0,0,0,0,0,0,-0.029,0,0,3,0,0,0,69,0,0,0,90.37,1,-0.029,-0.001,0,0.513,0,0,0,0,0,0,0,0,1,1,0,0,VALID,0,0,0,0,0,1,0,0,0,0,0,0,0,0,0,0,0,0,0,0,294,498.69,2,0,0.08,0.08,241,14.29,0.08,0.06,16.18,LANDED,CF1-J,0:/Integrated Flight Computer/aircraft/cf1_j_cfg.ks (inferred preloaded)
16.62,TAKEOFF,TO_GROUND_ROLL,45.98,80,34.02,3.63,-0.24,-0.06,0.22,90.37,0.103,1,0,0,0,0,0,0,0,0,0,0,0,0,0,0,90.37,0,1,0,-0.29,0,0,0.02,90,0,0,0,0,0,0,0,0,-0.03,0,0,3,0,0,0,69,0,0,0,90.37,1,-0.03,0.001,0,0.528,0,0,0,0,0,0,0,0,1,1,0,0,VALID,0,0,0,0,0,1,0,0,0,0,0,0,0,0,0,0,0,0,0,0,296.89,497.82,2,0,0.08,0.08,245,14.29,0.08,0.06,16.46,LANDED,CF1-J,0:/Integrated Flight Computer/aircraft/cf1_j_cfg.ks (inferred preloaded)
16.9,TAKEOFF,TO_GROUND_ROLL,47.45,80,32.55,3.63,-0.24,-0.05,0.22,90.37,0.104,1,0,0,0,0,0,0,0,0,0,0,0,0,0,0,90.37,0,1,0,-0.29,0,0,0.03,90,0,0,0,0,0,0,0,0,-0.032,0,0,3,0,0,0,69,0,0,0,90.37,1,-0.032,0.002,0,0.544,0,0,0,0,0,0,0,0,1,1,0,0,VALID,0,0,0,0,0,1,0,0,0,0,0,0,0,0,0,0,0,0,0,0,299.71,496.94,2,0,0.08,0.08,249,14.29,0.08,0.06,16.74,LANDED,CF1-J,0:/Integrated Flight Computer/aircraft/cf1_j_cfg.ks (inferred preloaded)
17.18,TAKEOFF,TO_GROUND_ROLL,48.93,80,31.07,3.64,-0.25,-0.05,0.23,90.37,0.103,1,0,0,0,0,0,0,0,0,0,0,0,0,0,0,90.37,0,1,0,-0.29,0,0,0.03,90,0,0,0,0,0,0,0,0,-0.034,0,0,3,0,0,0,69,0,0,0,90.37,1,-0.034,0.003,0,0.56,0,0,0,0,0,0,0,0,1,1,0,0,VALID,0,0,0,0,0,1,0,0,0,0,0,0,0,0,0,0,0,0,0,0,302.45,496.03,2,0,0.08,0.08,253,14.29,0.08,0.06,17.02,LANDED,CF1-J,0:/Integrated Flight Computer/aircraft/cf1_j_cfg.ks (inferred preloaded)
17.46,TAKEOFF,TO_GROUND_ROLL,50.42,80,29.58,3.64,-0.25,-0.05,0.23,90.37,0.102,1,0,0,0,0,0,0,0,0,0,0,0,0,0,0,90.36,0,1,0,-0.29,0,0,0.03,90,0,0,0,0,0,0,0,0,-0.036,0,0,3,0,0,0,69,0,0,0,90.36,1,-0.036,0.003,0,0.576,0,0,0,0,0,0,0,0,1,1,0,0,VALID,0,0,0,0,0,1,0,0,0,0,0,0,0,0,0,0,0,0,0,0,305.11,495.11,2,0,0.08,0.08,257,14.29,0.08,0.06,17.3,LANDED,CF1-J,0:/Integrated Flight Computer/aircraft/cf1_j_cfg.ks (inferred preloaded)
17.74,TAKEOFF,TO_GROUND_ROLL,51.92,80,28.08,3.64,-0.26,-0.04,0.23,90.37,0.102,1,0,0,0,0,0,0,0,0,0,0,0,0,0,0,90.36,0,1,0,-0.29,0,0,0.03,90,0,0,0,0,0,0,0,0,-0.038,0,0,3,0,0,0,69,0,0,0,90.36,1,-0.038,0.005,-0.0001,0.592,0,-0.0001,0,0,0,0,0,0,1,1,0,0,VALID,0,0,0,0,0,1,0,0,0,0,0,0,0,0,0,0,0,0,0,0,307.69,494.17,2,0,0.08,0.08,261,14.29,0.08,0.06,17.58,LANDED,CF1-J,0:/Integrated Flight Computer/aircraft/cf1_j_cfg.ks (inferred preloaded)
18.02,TAKEOFF,TO_GROUND_ROLL,53.43,80,26.57,3.64,-0.26,-0.01,0.26,90.37,0.101,1,0,0,0,0,0,0,0,0,0,0,0,0,0,0,90.36,0,1,0,-0.28,0,0,0.03,90,0,0,0,0,0,0,0,0,-0.04,0,0,3,0,0,0,69,0,0,0,90.36,1,-0.04,0.007,-0.0001,0.608,0,-0.0001,0,0,0,0,0,0,1,1,0,0,VALID,0,0,0,0,0,1,0,0,0,0,0,0,0,0,0,0,0,0,0,0,310.2,493.21,2,0,0.08,0.08,265,14.29,0.08,0.06,17.86,LANDED,CF1-J,0:/Integrated Flight Computer/aircraft/cf1_j_cfg.ks (inferred preloaded)
18.3,TAKEOFF,TO_GROUND_ROLL,54.95,80,25.05,3.65,-0.27,0.04,0.3,90.37,0.1,1,0,0,0,0,0,0,0,0,0,0,0,0,0,0,90.36,0,1,0,-0.28,0,0,0.03,90,0,0,0,0,0,0,0,0,-0.042,0,0,3,0,0,0,69,0,0,0,90.36,1,-0.042,0.009,-0.0001,0.624,0,-0.0001,0,0,0,0,0,0,1,1,0,0,VALID,0,0,0,0,0,1,0,0,0,0,0,0,0,0,0,0,0,0,0,0,312.63,492.24,2,0,0.08,0.08,269,14.29,0.08,0.06,18.14,LANDED,CF1-J,0:/Integrated Flight Computer/aircraft/cf1_j_cfg.ks (inferred preloaded)
18.58,TAKEOFF,TO_GROUND_ROLL,56.47,80,23.53,3.67,-0.18,0.1,0.29,90.37,0.099,1,0,0,0,0,0,0,0,0,0,0,0,0,0,0,90.36,0,1,0,-0.19,0,0,0.03,90,0,0,0,0,0,0,0,0,-0.044,0,0,3,0,0,0,69,0,0,0,90.36,1,-0.044,0.011,-0.0002,0.641,0,-0.0002,0,0,0,0,0,0,1,1,0,0,VALID,0,0,0,0,0,1,0,0,0,0,0,0,0,0,0,0,0,0,0,0,315,491.25,2,0,0.08,0.08,273,14.29,0.08,0.06,18.42,LANDED,CF1-J,0:/Integrated Flight Computer/aircraft/cf1_j_cfg.ks (inferred preloaded)
18.86,TAKEOFF,TO_GROUND_ROLL,58.01,80,21.99,3.69,-0.32,0.2,0.5,90.37,0.098,1,0,0,0,0,0,0,0,0,0,0,0,0,0,0,90.35,0,1,0,-0.32,0,0,0.04,90,0,0,0,0,0,0,0,0,-0.046,0,0,3,0,0,0,69,0,0,0,90.35,1,-0.046,0.015,-0.0003,0.657,0,-0.0003,0,0,0,0,0,0,1,1,0,0,VALID,0,0,0,0,0,1,0,0,0,0,0,0,0,0,0,0,0,0,0,0,317.29,490.25,2,0,0.08,0.08,277,14.29,0.08,0.06,18.7,LANDED,CF1-J,0:/Integrated Flight Computer/aircraft/cf1_j_cfg.ks (inferred preloaded)
19.14,TAKEOFF,TO_GROUND_ROLL,59.55,80,20.45,3.71,-0.28,0.31,0.56,90.37,0.097,1,0,0,0,0,0,0,0,0,0,0,0,0,0,0,90.35,0,1,0,-0.27,0,0,0.04,90,0,0,0,0,0,0,0,0,-0.048,0,0,3,0,0,0,69,0,0,0,90.35,1,-0.048,0.017,-0.0003,0.674,0,-0.0003,0,0,0,0,0,0,1,1,0,0,VALID,0,0,0,0,0,1,0,0,0,0,0,0,0,0,0,0,0,0,0,0,319.51,489.23,2,0,0.08,0.08,281,14.29,0.08,0.06,18.98,LANDED,CF1-J,0:/Integrated Flight Computer/aircraft/cf1_j_cfg.ks (inferred preloaded)
19.42,TAKEOFF,TO_GROUND_ROLL,61.11,80,18.89,3.73,-0.28,0.42,0.67,90.37,0.098,1,0,0,0,0,0,0,0,0,0,0,0,0,0,0,90.35,0,1,0,-0.27,0,0,0.04,90,0,0,0,0,0,0,0,0,-0.051,0,0,3,0,0,0,69,0,0,0,90.35,1,-0.051,0.02,-0.0004,0.69,0,-0.0004,0,0,0,0,0,0,1,1,0,0,VALID,0,0,0,0,0,1,0,0,0,0,0,0,0,0,0,0,0,0,0,0,321.66,488.2,2,0,0.08,0.08,285,14.29,0.08,0.06,19.26,LANDED,CF1-J,0:/Integrated Flight Computer/aircraft/cf1_j_cfg.ks (inferred preloaded)
19.7,TAKEOFF,TO_GROUND_ROLL,62.66,80,17.34,3.74,-0.3,0.49,0.75,90.37,0.097,1,0,0,0,0,0,0,0,0,0,0,0,0,0,0,90.35,0,1,0,-0.27,0,0,0.04,90,0,0,0,0,0,0,0,0,-0.053,0,0,3,0,0,0,69,0,0,0,90.35,1,-0.053,0.024,-0.0004,0.707,0,-0.0004,0,0,0,0,0,0,1,1,0,0,VALID,0,0,0,0,0,1,0,0,0,0,0,0,0,0,0,0,0,0,0,0,323.75,487.16,2,0,0.08,0.08,289,14.29,0.08,0.06,19.54,LANDED,CF1-J,0:/Integrated Flight Computer/aircraft/cf1_j_cfg.ks (inferred preloaded)
19.98,TAKEOFF,TO_GROUND_ROLL,64.22,80,15.78,3.75,-0.3,0.54,0.79,90.37,0.097,1,0,0,0,0,0,0,0,0,0,0,0,0,0,0,90.34,0,1,0,-0.27,0,0,0.04,90,0,0,0,0,0,0,0,0,-0.055,0,0,3,0,0,0,69,0,0,0,90.34,1,-0.055,0.026,-0.0005,0.724,0,-0.0005,0,0,0,0,0,0,1,1,0,0,VALID,0,0,0,0,0,1,0,0,0,0,0,0,0,0,0,0,0,0,0,0,325.77,486.11,2,0,0.08,0.08,293,14.29,0.08,0.06,19.82,LANDED,CF1-J,0:/Integrated Flight Computer/aircraft/cf1_j_cfg.ks (inferred preloaded)
20.26,TAKEOFF,TO_GROUND_ROLL,65.79,80,14.21,3.76,-0.31,0.57,0.83,90.37,0.096,1,0,0,0,0,0,0,0,0,0,0,0,0,0,0,90.34,0,1,0,-0.27,0,0,0.05,90,0,0,0,0,0,0,0,0,-0.058,0,0,3,0,0,0,69,0,0,0,90.34,1,-0.058,0.029,-0.0006,0.741,0,-0.0006,0,0,0,0,0,0,1,1,0,0,VALID,0,0,0,0,0,1,0,0,0,0,0,0,0,0,0,0,0,0,0,0,327.73,485.05,2,0,0.08,0.08,297,14.29,0.08,0.06,20.1,LANDED,CF1-J,0:/Integrated Flight Computer/aircraft/cf1_j_cfg.ks (inferred preloaded)
20.54,TAKEOFF,TO_GROUND_ROLL,67.36,80,12.64,3.77,-0.63,0.66,1.21,90.37,0.095,1,0,0,0,0,0,0,0,0,0,0,0,0,0,0,90.34,0,1,0,-0.54,0,0,0.05,90,0,0,0,0,0,0,0,0,-0.061,0,0,3,0,0,0,69,0,0,0,90.34,1,-0.061,0.034,-0.0007,0.757,0,-0.0007,0,0,0,0,0,0,1,1,0,0,VALID,0,0,0,0,0,1,0,0,0,0,0,0,0,0,0,0,0,0,0,0,329.62,483.98,2,0,0.08,0.08,301,14.29,0.08,0.06,20.38,LANDED,CF1-J,0:/Integrated Flight Computer/aircraft/cf1_j_cfg.ks (inferred preloaded)
20.84,TAKEOFF,TO_ROTATE,69.05,80,10.95,3.79,-0.34,0.67,0.91,90.37,0.094,1,0,0,0,0,0,0,0,0,0,0,0,0,0,0,90.34,1.094,1,0,-0.25,0,0,0.05,90,0,0,0,0,0,0,0,0,-0.063,0,0,3,0,0,0,69,0,0,0,90.34,1,-0.063,0.035,-0.0007,0.774,0,-0.0007,0,0.12,1.094,0.423,0.08,0,1,1,0,0,VALID,0,0,0,0,0,1,0,0,0,0,0,0,0,0,0,0,0,0,0,0,331.58,482.82,2,0,0.08,0.08,305,13.33,0.08,0.06,20.66,LANDED,CF1-J,0:/Integrated Flight Computer/aircraft/cf1_j_cfg.ks (inferred preloaded)
21.12,TAKEOFF,TO_ROTATE,70.63,80,9.37,3.79,-0.27,0.76,0.98,90.37,0.094,1,0,0,0,0,0,0,0,0,0,0,0,0,0,0,90.33,1.934,1,0,-0.22,0,0,0.05,90,0,0,0,0,0,0,0,0,-0.066,0,0,3,0,0,0,69,0,0,0,90.33,1,-0.066,0.039,-0.0008,0.791,0,-0.0008,0,0.1738,1.934,1.173,0.08,0,1,1,0,0,VALID,0,0,0,0,0,1,0,0,0,0,0,0,0,0,0,0,0,0,0,0,333.35,481.73,2,0,0.08,0.08,309,14.29,0.08,0.06,20.94,LANDED,CF1-J,0:/Integrated Flight Computer/aircraft/cf1_j_cfg.ks (inferred preloaded)
21.4,TAKEOFF,TO_ROTATE,72.21,80,7.79,3.83,-0.33,0.94,1.2,90.37,0.093,1,0,0,0,0,0,0,0,0,0,0,0,0,0,0,90.33,2.774,1,0,-0.27,0,0,0.05,90,0,0,0,0,0,0,0,0,-0.068,0,0,3,0,0,0,69,0,0,0,90.33,1,-0.068,0.043,-0.001,0.808,0,-0.001,0,0.2267,2.774,1.834,0.08,0,1,1,0,0,VALID,0,0,0,0,0,1,0,0,0,0,0,0,0,0,0,0,0,0,0,0,335.06,480.63,2,0,0.08,0.08,313,14.29,0.08,0.06,21.22,LANDED,CF1-J,0:/Integrated Flight Computer/aircraft/cf1_j_cfg.ks (inferred preloaded)
21.7,TAKEOFF,TO_ROTATE,73.9,80,6.1,3.89,-0.31,1.25,1.48,90.38,0.09,1,0,0,0,0,0,0,0,0,0,0,0,0,0,0,90.33,3.674,1,0,-0.24,0,0,0.06,90,0,0,0,0,0,0,0,0,-0.071,0,0,3,0,0,0,69,0,0,0,90.33,1,-0.071,0.048,-0.0011,0.826,0,-0.0011,0,0.2743,3.674,2.428,0.08,0,1,1,0,0,VALID,0,0,0,0,0,1,0,0,0,0,0,0,0,0,0,0,0,0,0,0,336.83,479.45,2,0,0.08,0.08,317,13.33,0.08,0.06,21.52,LANDED,CF1-J,0:/Integrated Flight Computer/aircraft/cf1_j_cfg.ks (inferred preloaded)
21.98,TAKEOFF,TO_ROTATE,75.47,80,4.53,3.96,-0.27,1.6,1.8,90.38,0.083,1,0,0,0,0,0,0,0,0,0,0,0,0,0,0,90.32,4.514,1,0,-0.21,0,0,0.06,90,0,0,0,0,0,0,0,0,-0.074,0,0,3,0,0,0,69,0,0,0,90.32,1,-0.074,0.054,-0.0013,0.843,0,-0.0013,0,0.3129,4.514,2.911,0.08,0,1,1,0,0,VALID,0,0,0,0,0,1,0,0,0,0,0,0,0,0,0,0,0,0,0,0,338.43,478.35,2,0,0.08,0.08,321,14.29,0.08,0.06,21.8,LANDED,CF1-J,0:/Integrated Flight Computer/aircraft/cf1_j_cfg.ks (inferred preloaded)
22.26,TAKEOFF,TO_ROTATE,77.04,80,2.96,4.08,-0.25,2.05,2.19,90.38,0.076,1,0,0,0,0,0,0,0,0,0,0,0,0,0,0,90.32,5.354,1,0,-0.15,0,0,0.06,90,0,0,0,0,0,0,0,0,-0.077,0,0,3,0,0,0,69,0,0,0,90.32,1,-0.077,0.059,-0.0014,0.86,0,-0.0014,0,0.3444,5.354,3.305,0.08,0,1,1,0,0,VALID,0,0,0,0,0,1,0,0,0,0,0,0,0,0,0,0,0,0,0,0,339.98,477.25,2,0,0.08,0.08,325,14.29,0.08,0.06,22.08,LANDED,CF1-J,0:/Integrated Flight Computer/aircraft/cf1_j_cfg.ks (inferred preloaded)
22.54,TAKEOFF,TO_ROTATE,78.58,80,1.42,4.23,-0.15,2.87,2.99,90.38,0.081,1,0,0,0,0,0,0,0,0,0,0,0,0,0,0,90.32,6.194,1,0,-0.13,0,0,0.06,90,0,0,0,0,0,0,0,0,-0.08,0,0,3,0,0,0,69,0,0,0,90.32,1,-0.08,0.066,-0.0016,0.876,0,-0.0016,0,0.3456,6.194,3.32,0.08,0,1,1,0,0,VALID,0,0,0,0,0,1,0,0,0,0,0,0,0,0,0,0,0,0,0,0,341.49,476.15,2,0,0.08,0.08,329,14.29,0.08,0.06,22.36,LANDED,CF1-J,0:/Integrated Flight Computer/aircraft/cf1_j_cfg.ks (inferred preloaded)
22.82,TAKEOFF,TO_ROTATE,80.09,80,-0.09,4.44,-0.27,3.88,4.07,90.39,0.08,1,0,0,0,0,0,0,0,0,0,0,0,0,0,0,90.31,7.034,1,0,-0.19,0,0,0.06,90,0,0,0,0,0,0,0,0,-0.083,0,0,3,0,0,0,69,0,0,0,90.31,1,-0.083,0.073,-0.0019,0.893,0,-0.0019,0,0.3323,7.034,3.154,0.08,0,1,1,0,0,VALID,0,0,0,0,0,1,0,0,0,0,0,0,0,0,0,0,0,0,0,0,342.96,475.08,2,0,0.08,0.08,333,14.29,0.08,0.06,22.64,LANDED,CF1-J,0:/Integrated Flight Computer/aircraft/cf1_j_cfg.ks (inferred preloaded)
23.1,TAKEOFF,TO_ROTATE,81.55,80,-1.55,4.67,-0.13,5.07,5.17,90.39,0.072,1,0,0,0,0,0,0,0,0,0,0,0,0,0,0,90.31,7.874,1,0,-0.1,0,0,0.07,90,0,0,0,0,0,0,0,0,-0.087,0,0,3,0,0,0,69,0,0,0,90.31,1,-0.087,0.078,-0.002,0.908,0,-0.002,0,0.3045,7.874,2.806,0.08,0,1,1,0,0,VALID,0,0,0,0,0,1,0,0,0,0,0,0,0,0,0,0,0,0,0,0,344.4,474.05,2,0,0.08,0.08,337,14.29,0.08,0.06,22.92,LANDED,CF1-J,0:/Integrated Flight Computer/aircraft/cf1_j_cfg.ks (inferred preloaded)
23.36,TAKEOFF,TO_ROTATE,82.84,80,-2.84,4.94,0.25,6.16,5.97,90.39,0.03,1,0,0,0,0,0,0,0,0,0,0,0,0,0,0,90.4,8.714,0,1,0.17,0,0,8.47,90.4,0.1062,-0.0068,0.9943,8.71,90.4,0,0,0,0,0,0,3,0,0,0,69,0,0,0,90.4,1,0,-0.012,0,0,3,0,0,0,8.714,2.55,0,0,1,1,0,0,VALID,0,0,0,0,0,1,0,0,0,0,0,0,0,0,0,0,0,0,0,0,345.74,473.12,2,0,0.08,0.08,341,15.38,0.08,0.06,23.18,FLYING,CF1-J,0:/Integrated Flight Computer/aircraft/cf1_j_cfg.ks (inferred preloaded)
23.64,TAKEOFF,TO_ROTATE,84.17,80,-4.17,5.28,0.94,6.61,6,90.39,0.029,1,0,0,0,0,0,0,0,0,0,0,0,0,0,0,90.4,9.554,0,1,0.64,0,0,9.31,90.4,0.1207,-0.0068,0.9927,9.55,90.4,0,0,0,0,0,0,3,0,0,0,69,0,0,0,90.4,1,0,-0.013,0,0,3,0,0,0,9.554,2.946,0,0,1,1,0,0,VALID,0,0,0,0,0,1,0,0,0,0,0,0,0,0,0,0,0,0,0,0,347.15,472.16,2,0,0.08,0.08,345,14.29,0.08,0.06,23.46,FLYING,CF1-J,0:/Integrated Flight Computer/aircraft/cf1_j_cfg.ks (inferred preloaded)
23.92,TAKEOFF,TO_ROTATE,85.47,80,-5.47,5.79,1.64,6.88,5.83,90.39,0.029,1,0,0,0,0,0,0,0,0,0,0,0,0,0,0,90.4,10,0,1,1.1,0,0,10,90.4,0.1284,-0.0067,0.9917,10,90.4,0,0,0,0,0,0,3,0,0,0,69,0,0,0,90.4,1,0,-0.013,0,0,3,0,0,0,10,3.122,0,0,1,1,0,0,VALID,0,0,0,0,0,1,0,0,0,0,0,0,0,0,0,0,0,0,0,0,348.53,471.2,2,0,0.08,0.08,349,14.29,0.08,0.06,23.74,FLYING,CF1-J,0:/Integrated Flight Computer/aircraft/cf1_j_cfg.ks (inferred preloaded)
24.2,TAKEOFF,TO_CLIMB,86.75,80,-6.75,6.49,2.39,7.03,5.54,90.39,0.027,0.944,0,0,0,0,0,0,0,0,0,0,0,0,0,0,90.4,7.201,0,1,1.58,0,0,7.07,90.4,0.0798,-0.0068,0.9968,7.2,90.4,0,0,0,0,0,0,3,0,0,0,69,0,0,0,90.4,1,0,-0.013,0,0,3,0,0,0,10,3.023,0,0,1,1,0,0,VALID,0,0,0,0,0,1,0,0,0,0,0,0,0,0,0,0,0,0,0,0,349.84,470.24,2,0,0.08,0.08,353,14.29,0.08,0.06,24.02,FLYING,CF1-J,0:/Integrated Flight Computer/aircraft/cf1_j_cfg.ks (inferred preloaded)
24.48,TAKEOFF,TO_CLIMB,88.03,80,-8.03,7.34,3.13,6.8,4.9,90.39,0.027,0.8697,0,0,0,0,0,0,0,0,0,0,0,0,0,0,90.4,7.649,0,1,2.03,0,0,7.52,90.4,0.0875,-0.0068,0.9961,7.65,90.4,0,0,0,0,0,0,3,0,0,0,69,0,0,0,90.4,1,0,-0.013,0,0,3,0,0,0,10,3.023,0,0,1,1,0,0,VALID,0,0,0,0,0,1,0,0,0,0,0,0,0,0,0,0,0,0,0,0,350.49,469.27,2,0,0.08,0.08,357,14.29,0.08,0.06,24.3,FLYING,CF1-J,0:/Integrated Flight Computer/aircraft/cf1_j_cfg.ks (inferred preloaded)
24.76,TAKEOFF,TO_CLIMB,89.33,80,-9.33,8.35,3.62,6.55,4.34,90.39,0.027,0.8567,0,0,0,0,0,0,0,0,0,0,0,0,0,0,90.4,8,0,1,2.32,0,0,7.97,90.4,0.0936,-0.0068,0.9956,8,90.4,0,0,0,0,0,0,3,0,0,0,69,0,0,0,90.4,1,0,-0.013,0,0,3,0,0,0,10,3.023,0,0,1,1,0,0,VALID,0,0,0,0,0,1,0,0,0,0,0,0,0,0,0,0,0,0,0,0,350.68,468.28,2,0,0.08,0.08,361,14.29,0.08,0.06,24.58,FLYING,CF1-J,0:/Integrated Flight Computer/aircraft/cf1_j_cfg.ks (inferred preloaded)
25.04,TAKEOFF,TO_CLIMB,90.64,80,-10.64,9.56,4.13,6.66,4.17,90.39,0.026,0.8436,0,0,0,0,0,0,0,0,0,0,0,0,0,0,90.4,8,0,1,2.61,0,0,8,90.4,0.0936,-0.0068,0.9956,8,90.4,0,0,0,0,0,0,3,0,0,0,69,0,0,0,90.4,1,0,-0.013,0,0,3,0,0,0,10,3.023,0,0,1,1,0,0,VALID,0,0,0,0,0,1,0,0,0,0,0,0,0,0,0,0,0,0,0,0,350.74,467.27,2,0,0.08,0.08,365,14.29,0.08,0.06,24.86,FLYING,CF1-J,0:/Integrated Flight Computer/aircraft/cf1_j_cfg.ks (inferred preloaded)
25.32,TAKEOFF,TO_CLIMB,91.93,80,-11.93,10.88,4.64,6.53,3.76,90.39,0.026,0.8307,0,0,0,0,0,0,0,0,0,0,0,0,0,0,90.4,8,0,1,2.89,0,0,8,90.4,0.0935,-0.0068,0.9956,8,90.4,0,0,0,0,0,0,3,0,0,0,69,0,0,0,90.4,1,0,-0.013,0,0,3,0,0,0,10,3.023,0,0,1,1,0,0,VALID,0,0,0,0,0,1,0,0,0,0,0,0,0,0,0,0,0,0,0,0,350.69,466.26,2,0,0.08,0.08,369,14.29,0.08,0.06,25.14,FLYING,CF1-J,0:/Integrated Flight Computer/aircraft/cf1_j_cfg.ks (inferred preloaded)
25.6,TAKEOFF,TO_CLIMB,93.23,80,-13.23,12.34,5.1,6.5,3.5,90.39,0.027,0.8177,0,0,0,0,0,0,0,0,0,0,0,0,0,0,90.4,8,0,1,3.13,0,0,8,90.4,0.0935,-0.0068,0.9956,8,90.4,0,0,0,0,0,0,3,0,0,0,69,0,0,0,90.4,1,0,-0.013,0,0,3,0,0,0,10,3.023,0,0,1,1,0,0,VALID,0,0,0,0,0,1,0,0,0,0,0,0,0,0,0,0,0,0,0,0,350.5,465.23,2,0,0.08,0.08,373,14.29,0.08,0.06,25.42,FLYING,CF1-J,0:/Integrated Flight Computer/aircraft/cf1_j_cfg.ks (inferred preloaded)
25.88,TAKEOFF,TO_CLIMB,94.52,80,-14.52,13.94,5.55,6.5,3.27,90.39,0.026,0.8048,0,0,0,0,0,0,0,0,0,0,0,0,0,0,90.4,8,0,1,3.36,0,0,8,90.4,0.0934,-0.0068,0.9956,8,90.4,0,0,0,0,0,0,3,0,0,0,69,0,0,0,90.4,1,0,-0.012,0,0,3,0,0,0,10,3.023,0,0,1,1,0,0,VALID,0,0,0,0,0,1,0,0,0,0,0,0,0,0,0,0,0,0,0,0,350.21,464.21,2,0,0.08,0.08,377,14.29,0.08,0.06,25.7,FLYING,CF1-J,0:/Integrated Flight Computer/aircraft/cf1_j_cfg.ks (inferred preloaded)
26.16,TAKEOFF,TO_CLIMB,95.81,80,-15.81,15.66,6,6.5,3.06,90.39,0.026,0.7919,0,0,0,0,0,0,0,0,0,0,0,0,0,0,90.4,8,0,1,3.58,0,0,8,90.4,0.0934,-0.0068,0.9956,8,90.4,0,0,0,0,0,0,3,0,0,0,69,0,0,0,90.4,1,0,-0.012,0,0,3,0,0,0,10,3.023,0,0,1,1,0,0,VALID,0,0,0,0,0,1,0,0,0,0,0,0,0,0,0,0,0,0,0,0,349.8,463.18,2,0,0.08,0.08,381,14.29,0.08,0.06,25.98,FLYING,CF1-J,0:/Integrated Flight Computer/aircraft/cf1_j_cfg.ks (inferred preloaded)
26.44,TAKEOFF,TO_CLIMB,97.08,80,-17.08,17.48,6.45,6.49,2.84,90.39,0.025,0.78,0,0,0,0,0,0,0,0,0,0,0,0,0,0,90.4,8,0,1,3.8,0,0,8,90.4,0.0933,-0.0068,0.9956,8,90.4,0,0,0,0,0,0,3,0,0,0,69,0,0,0,90.4,1,0,-0.012,0,0,3,0,0,0,10,3.023,0,0,1,1,0,0,VALID,0,0,0,0,0,1,0,0,0,0,0,0,0,0,0,0,0,0,0,0,349.28,462.15,2,0,0.08,0.08,385,14.29,0.08,0.06,26.26,FLYING,CF1-J,0:/Integrated Flight Computer/aircraft/cf1_j_cfg.ks (inferred preloaded)
26.72,TAKEOFF,TO_CLIMB,98.35,80,-18.35,19.45,6.88,6.49,2.64,90.39,0.025,0.78,0,0,0,0,0,0,0,0,0,0,0,0,0,0,90.4,8,0,1,4,0,0,8,90.4,0.0933,-0.0068,0.9956,8,90.4,0,0,0,0,0,0,3,0,0,0,69,0,0,0,90.4,1,0,-0.012,0,0,3,0,0,0,10,3.023,0,0,1,1,0,0,VALID,0,0,0,0,0,1,0,0,0,0,0,0,0,0,0,0,0,0,0,0,348.7,461.12,2,0,0.08,0.08,389,14.29,0.08,0.06,26.54,FLYING,CF1-J,0:/Integrated Flight Computer/aircraft/cf1_j_cfg.ks (inferred preloaded)
27,TAKEOFF,TO_CLIMB,99.61,80,-19.61,21.54,7.32,6.5,2.45,90.39,0.026,0.78,0,0,0,0,0,0,0,0,0,0,0,0,0,0,90.4,8,0,1,4.2,0,0,8,90.4,0.0932,-0.0068,0.9956,8,90.4,0,0,0,0,0,0,3,0,0,0,69,0,0,0,90.4,1,0,-0.012,0,0,3,0,0,0,10,3.023,0,0,1,1,0,0,VALID,0,0,0,0,0,1,0,0,0,0,0,0,0,0,0,0,0,0,0,0,348.1,460.09,2,0,0.08,0.08,393,14.29,0.08,0.06,26.82,FLYING,CF1-J,0:/Integrated Flight Computer/aircraft/cf1_j_cfg.ks (inferred preloaded)
27.28,TAKEOFF,TO_CLIMB,100.86,80,-20.86,23.76,7.74,6.51,2.28,90.39,0.026,0.78,0,0,0,0,0,0,0,0,0,0,0,0,0,0,90.4,8,0,1,4.39,0,0,8,90.4,0.0932,-0.0068,0.9956,8,90.4,0,0,0,0,0,0,3,0,0,0,69,0,0,0,90.4,1,0,-0.011,0,0,3,0,0,0,10,3.023,0,0,1,1,0,0,VALID,0,0,0,0,0,1,0,0,0,0,0,0,0,0,0,0,0,0,0,0,347.5,459.06,2,0,0.08,0.08,397,14.29,0.08,0.06,27.1,FLYING,CF1-J,0:/Integrated Flight Computer/aircraft/cf1_j_cfg.ks (inferred preloaded)
27.56,TAKEOFF,TO_CLIMB,102.1,80,-22.1,26.1,8.17,6.52,2.1,90.39,0.026,0.78,0,0,0,0,0,0,0,0,0,0,0,0,0,0,90.4,8,0,1,4.57,0,0,8,90.4,0.0931,-0.0068,0.9956,8,90.4,0,0,0,0,0,0,3,0,0,0,69,0,0,0,90.4,1,0,-0.011,0,0,3,0,0,0,10,3.023,0,0,1,1,0,0,VALID,0,0,0,0,0,1,0,0,0,0,0,0,0,0,0,0,0,0,0,0,346.9,458.04,2,0,0.08,0.08,401,14.29,0.08,0.06,27.38,FLYING,CF1-J,0:/Integrated Flight Computer/aircraft/cf1_j_cfg.ks (inferred preloaded)
27.84,TAKEOFF,TO_CLIMB,103.32,80,-23.32,28.55,8.59,6.53,1.94,90.39,0.025,0.78,0,0,0,0,0,0,0,0,0,0,0,0,0,0,90.4,8,0,1,4.75,0,0,8,90.4,0.0931,-0.0068,0.9956,8,90.4,0,0,0,0,0,0,3,0,0,0,69,0,0,0,90.4,1,0,-0.011,0,0,3,0,0,0,10,3.023,0,0,1,1,0,0,VALID,0,0,0,0,0,1,0,0,0,0,0,0,0,0,0,0,0,0,0,0,346.3,457.01,2,0,0.08,0.08,405,14.29,0.08,0.06,27.66,FLYING,CF1-J,0:/Integrated Flight Computer/aircraft/cf1_j_cfg.ks (inferred preloaded)
28.12,TAKEOFF,TO_CLIMB,104.54,80,-24.54,31.12,9.01,6.53,1.78,90.39,0.026,0.78,0,0,0,0,0,0,0,0,0,0,0,0,0,0,90.4,8,0,1,4.92,0,0,8,90.4,0.093,-0.0068,0.9956,8,90.4,0,0,0,0,0,0,3,0,0,0,69,0,0,0,90.4,1,0,-0.01,0,0,3,0,0,0,10,3.023,0,0,1,1,0,0,VALID,0,0,0,0,0,1,0,0,0,0,0,0,0,0,0,0,0,0,0,0,345.69,455.99,2,0,0.08,0.08,409,14.29,0.08,0.06,27.94,FLYING,CF1-J,0:/Integrated Flight Computer/aircraft/cf1_j_cfg.ks (inferred preloaded)
28.4,TAKEOFF,TO_CLIMB,105.76,80,-25.76,33.81,9.42,6.55,1.63,90.39,0.026,0.78,0,0,0,0,0,0,0,0,0,0,0,0,0,0,90.4,8,0,1,5.09,0,0,8,90.4,0.093,-0.0068,0.9956,8,90.4,0,0,0,0,0,0,3,0,0,0,69,0,0,0,90.4,1,0,-0.01,0,0,3,0,0,0,10,3.023,0,0,1,1,0,0,VALID,0,0,0,0,0,1,0,0,0,0,0,0,0,0,0,0,0,0,0,0,345.08,454.96,2,0,0.08,0.08,413,14.29,0.08,0.06,28.22,FLYING,CF1-J,0:/Integrated Flight Computer/aircraft/cf1_j_cfg.ks (inferred preloaded)
28.68,TAKEOFF,TO_CLIMB,106.96,80,-26.96,36.61,9.82,6.57,1.49,90.39,0.026,0.78,0,0,0,0,0,0,0,0,0,0,0,0,0,0,90.4,8,0,1,5.24,0,0,8,90.4,0.0929,-0.0068,0.9956,8,90.4,0,0,0,0,0,0,3,0,0,0,69,0,0,0,90.4,1,0,-0.01,0,0,3,0,0,0,10,3.023,0,0,1,1,0,0,VALID,0,0,0,0,0,1,0,0,0,0,0,0,0,0,0,0,0,0,0,0,344.47,453.94,2,0,0.08,0.08,417,14.29,0.08,0.06,28.5,FLYING,CF1-J,0:/Integrated Flight Computer/aircraft/cf1_j_cfg.ks (inferred preloaded)
28.96,TAKEOFF,TO_CLIMB,108.15,80,-28.15,39.53,10.23,6.6,1.37,90.39,0.026,0.78,0,0,0,0,0,0,0,0,0,0,0,0,0,0,90.4,8,0,1,5.4,0,0,8,90.4,0.0929,-0.0068,0.9957,8,90.4,0,0,0,0,0,0,3,0,0,0,69,0,0,0,90.4,1,0,-0.009,0,0,3,0,0,0,10,3.023,0,0,1,1,0,0,VALID,0,0,0,0,0,1,0,0,0,0,0,0,0,0,0,0,0,0,0,0,343.86,452.92,2,0,0.08,0.08,421,14.29,0.08,0.06,28.78,FLYING,CF1-J,0:/Integrated Flight Computer/aircraft/cf1_j_cfg.ks (inferred preloaded)
29.24,TAKEOFF,TO_CLIMB,109.33,80,-29.33,42.56,10.64,6.62,1.24,90.39,0.027,0.78,0,0,0,0,0,0,0,0,0,0,0,0,0,0,90.4,8,0,1,5.56,0,0,8,90.4,0.0928,-0.0068,0.9957,8,90.4,0,0,0,0,0,0,3,0,0,0,69,0,0,0,90.4,1,0,-0.009,0,0,3,0,0,0,10,3.023,0,0,1,1,0,0,VALID,0,0,0,0,0,1,0,0,0,0,0,0,0,0,0,0,0,0,0,0,343.25,451.91,2,0,0.08,0.08,425,14.29,0.08,0.06,29.06,FLYING,CF1-J,0:/Integrated Flight Computer/aircraft/cf1_j_cfg.ks (inferred preloaded)
29.52,TAKEOFF,TO_CLIMB,110.5,80,-30.5,45.7,11.04,6.64,1.11,90.39,0.026,0.78,0,0,0,0,0,0,0,0,0,0,0,0,0,0,90.4,8,0,1,5.71,0,0,8,90.4,0.0928,-0.0068,0.9957,8,90.4,0,0,0,0,0,0,3,0,0,0,69,0,0,0,90.4,1,0,-0.009,0,0,3,0,0,0,10,3.023,0,0,1,1,0,0,VALID,0,0,0,0,0,1,0,0,0,0,0,0,0,0,0,0,0,0,0,0,342.63,450.9,2,0,0.08,0.08,429,14.29,0.08,0.06,29.34,FLYING,CF1-J,0:/Integrated Flight Computer/aircraft/cf1_j_cfg.ks (inferred preloaded)
29.8,TAKEOFF,TO_CLIMB,111.66,80,-31.66,48.95,11.44,6.64,0.97,90.39,0.027,0.78,0,0,0,0,0,0,0,0,0,0,0,0,0,0,90.4,8,0,1,5.85,0,0,8,90.4,0.0927,-0.0068,0.9957,8,90.4,0,0,0,0,0,0,3,0,0,0,69,0,0,0,90.4,1,0,-0.008,0,0,3,0,0,0,10,3.023,0,0,1,1,0,0,VALID,0,0,0,0,0,1,0,0,0,0,0,0,0,0,0,0,0,0,0,0,342.02,449.89,2,0,0.08,0.08,433,14.29,0.08,0.06,29.62,FLYING,CF1-J,0:/Integrated Flight Computer/aircraft/cf1_j_cfg.ks (inferred preloaded)
30.08,TAKEOFF,TO_CLIMB,112.82,80,-32.82,52.31,11.83,6.66,0.85,90.39,0.027,0.78,0,0,0,0,0,0,0,0,0,0,0,0,0,0,90.4,8,0,1,5.99,0,0,8,90.4,0.0927,-0.0068,0.9957,8,90.4,0,0,0,0,0,0,3,0,0,0,69,0,0,0,90.4,1,0,-0.007,0,0,3,0,0,0,10,3.023,0,0,1,1,0,0,VALID,0,0,0,0,0,1,0,0,0,0,0,0,0,0,0,0,0,0,0,0,341.4,448.88,2,0,0.08,0.08,437,14.29,0.08,0.06,29.9,FLYING,CF1-J,0:/Integrated Flight Computer/aircraft/cf1_j_cfg.ks (inferred preloaded)
30.36,TAKEOFF,TO_CLIMB,113.96,80,-33.96,55.78,12.21,6.67,0.74,90.39,0.026,0.78,0,0,0,0,0,0,0,0,0,0,0,0,0,0,90.4,8,0,1,6.11,0,0,8,90.4,0.0926,-0.0068,0.9957,8,90.4,0,0,0,0,0,0,3,0,0,0,69,0,0,0,90.4,1,0,-0.007,0,0,3,0,0,0,10,3.023,0,0,1,1,0,0,VALID,0,0,0,0,0,1,0,0,0,0,0,0,0,0,0,0,0,0,0,0,340.78,447.88,2,0,0.08,0.08,441,14.29,0.08,0.06,30.18,FLYING,CF1-J,0:/Integrated Flight Computer/aircraft/cf1_j_cfg.ks (inferred preloaded)
30.64,TAKEOFF,TO_CLIMB,115.09,80,-35.09,59.35,12.58,6.68,0.63,90.39,0.025,0.78,0,0,0,0,0,0,0,0,0,0,0,0,0,0,90.4,8,0,1,6.24,0,0,8,90.4,0.0926,-0.0068,0.9957,8,90.4,0,0,0,0,0,0,3,0,0,0,69,0,0,0,90.4,1,0,-0.007,0,0,3,0,0,0,10,3.023,0,0,1,1,0,0,VALID,0,0,0,0,0,1,0,0,0,0,0,0,0,0,0,0,0,0,0,0,340.17,446.88,2,0,0.08,0.08,445,14.29,0.08,0.06,30.46,FLYING,CF1-J,0:/Integrated Flight Computer/aircraft/cf1_j_cfg.ks (inferred preloaded)
30.92,TAKEOFF,TO_CLIMB,116.22,80,-36.22,63.06,12.95,6.69,0.52,90.39,0.026,0.78,0,0,0,0,0,0,0,0,0,0,0,0,0,0,90.4,8,0,1,6.36,0,0,8,90.4,0.0925,-0.0068,0.9957,8,90.4,0,0,0,0,0,0,3,0,0,0,69,0,0,0,90.4,1,0,-0.006,0,0,3,0,0,0,10,3.023,0,0,1,1,0,0,VALID,0,0,0,0,0,1,0,0,0,0,0,0,0,0,0,0,0,0,0,0,339.55,445.88,2,0,0.08,0.08,449,14.29,0.08,0.06,30.74,FLYING,CF1-J,0:/Integrated Flight Computer/aircraft/cf1_j_cfg.ks (inferred preloaded)
31.2,TAKEOFF,TO_CLIMB,117.33,80,-37.33,66.84,13.31,6.71,0.42,90.39,0.025,0.78,0,0,0,0,0,0,0,0,0,0,0,0,0,0,90.4,8,0,1,6.47,0,0,8,90.4,0.0925,-0.0068,0.9957,8,90.4,0,0,0,0,0,0,3,0,0,0,69,0,0,0,90.4,1,0,-0.006,0,0,3,0,0,0,10,3.023,0,0,1,1,0,0,VALID,0,0,0,0,0,1,0,0,0,0,0,0,0,0,0,0,0,0,0,0,338.93,444.89,2,0,0.08,0.08,453,14.29,0.08,0.06,31.02,FLYING,CF1-J,0:/Integrated Flight Computer/aircraft/cf1_j_cfg.ks (inferred preloaded)
31.48,TAKEOFF,TO_CLIMB,118.44,80,-38.44,70.71,13.66,6.71,0.32,90.39,0.025,0.78,0,0,0,0,0,0,0,0,0,0,0,0,0,0,90.4,8,0,1,6.58,0,0,8,90.4,0.0924,-0.0068,0.9957,8,90.4,0,0,0,0,0,0,3,0,0,0,69,0,0,0,90.4,1,0,-0.005,0,0,3,0,0,0,10,3.023,0,0,1,1,0,0,VALID,0,0,0,0,0,1,0,0,0,0,0,0,0,0,0,0,0,0,0,0,338.31,443.9,2,0,0.08,0.08,457,14.29,0.08,0.06,31.3,FLYING,CF1-J,0:/Integrated Flight Computer/aircraft/cf1_j_cfg.ks (inferred preloaded)
31.76,TAKEOFF,TO_CLIMB,119.53,80,-39.53,74.68,14.01,6.72,0.22,90.4,0.025,0.78,0,0,0,0,0,0,0,0,0,0,0,0,0,0,90.4,8,0,1,6.68,0,0,8,90.4,0.0923,-0.0068,0.9957,8,90.4,0,0,0,0,0,0,3,0,0,0,69,0,0,0,90.4,1,0,-0.005,0,0,3,0,0,0,10,3.023,0,0,1,1,0,0,VALID,0,0,0,0,0,1,0,0,0,0,0,0,0,0,0,0,0,0,0,0,337.7,442.92,2,0,0.08,0.08,461,14.29,0.08,0.06,31.58,FLYING,CF1-J,0:/Integrated Flight Computer/aircraft/cf1_j_cfg.ks (inferred preloaded)
32.04,TAKEOFF,TO_CLIMB,120.61,80,-40.61,78.75,14.35,6.73,0.13,90.4,0.025,0.78,0,0,0,0,0,0,0,0,0,0,0,0,0,0,90.4,8,0,1,6.78,0,0,8,90.4,0.0923,-0.0068,0.9957,8,90.4,0,0,0,0,0,0,3,0,0,0,69,0,0,0,90.4,1,0,-0.004,0,0,3,0,0,0,10,3.023,0,0,1,1,0,0,VALID,0,0,0,0,0,1,0,0,0,0,0,0,0,0,0,0,0,0,0,0,337.08,441.94,2,0,0.08,0.08,465,14.29,0.08,0.06,31.86,FLYING,CF1-J,0:/Integrated Flight Computer/aircraft/cf1_j_cfg.ks (inferred preloaded)
32.32,TAKEOFF,TO_CLIMB,121.69,80,-41.69,82.91,14.68,6.73,0.04,90.4,0.024,0.78,0,0,0,0,0,0,0,0,0,0,0,0,0,0,90.4,8,0,1,6.88,0,0,8,90.4,0.0922,-0.0068,0.9957,8,90.4,0,0,0,0,0,0,3,0,0,0,69,0,0,0,90.4,1,0,-0.004,0,0,3,0,0,0,10,3.023,0,0,1,1,0,0,VALID,0,0,0,0,0,1,0,0,0,0,0,0,0,0,0,0,0,0,0,0,336.47,440.97,2,0,0.08,0.08,469,14.29,0.08,0.06,32.14,FLYING,CF1-J,0:/Integrated Flight Computer/aircraft/cf1_j_cfg.ks (inferred preloaded)
32.6,TAKEOFF,TO_CLIMB,122.75,80,-42.75,87.15,15,6.73,-0.05,90.4,0.023,0.78,0,0,0,0,0,0,0,0,0,0,0,0,0,0,90.4,8,0,1,6.97,0,0,8,90.4,0.0922,-0.0068,0.9957,8,90.4,0,0,0,0,0,0,3,0,0,0,69,0,0,0,90.4,1,0,-0.003,0,0,3,0,0,0,10,3.023,0,0,1,1,0,0,VALID,0,0,0,0,0,1,0,0,0,0,0,0,0,0,0,0,0,0,0,0,335.86,440,2,0,0.08,0.08,473,14.29,0.08,0.06,32.42,FLYING,CF1-J,0:/Integrated Flight Computer/aircraft/cf1_j_cfg.ks (inferred preloaded)
32.88,TAKEOFF,TO_CLIMB,123.81,80,-43.81,91.49,15.31,6.73,-0.14,90.4,0.023,0.78,0,0,0,0,0,0,0,0,0,0,0,0,0,0,90.4,8,0,1,7.05,0,0,8,90.4,0.0921,-0.0068,0.9957,8,90.4,0,0,0,0,0,0,3,0,0,0,69,0,0,0,90.4,1,0,-0.003,0,0,3,0,0,0,10,3.023,0,0,1,1,0,0,VALID,0,0,0,0,0,1,0,0,0,0,0,0,0,0,0,0,0,0,0,0,335.24,439.04,2,0,0.08,0.08,477,14.29,0.08,0.06,32.7,FLYING,CF1-J,0:/Integrated Flight Computer/aircraft/cf1_j_cfg.ks (inferred preloaded)
33.16,TAKEOFF,TO_CLIMB,124.85,80,-44.85,95.9,15.62,6.73,-0.22,90.4,0.022,0.78,0,0,0,0,0,0,0,0,0,0,0,0,0,0,90.4,8,0,1,7.13,0,0,8,90.4,0.092,-0.0068,0.9957,8,90.4,0,0,0,0,0,0,3,0,0,0,69,0,0,0,90.4,1,0,-0.002,0,0,3,0,0,0,10,3.023,0,0,1,1,0,0,VALID,0,0,0,0,0,1,0,0,0,0,0,0,0,0,0,0,0,0,0,0,334.64,438.08,2,0,0.08,0.08,481,14.29,0.08,0.06,32.98,FLYING,CF1-J,0:/Integrated Flight Computer/aircraft/cf1_j_cfg.ks (inferred preloaded)
33.44,TAKEOFF,TO_CLIMB,125.89,80,-45.89,100.41,15.91,6.73,-0.29,90.4,0.021,0.78,0,0,0,0,0,0,0,0,0,0,0,0,0,0,90.4,8,0,1,7.2,0,0,8,90.4,0.092,-0.0068,0.9957,8,90.4,0,0,0,0,0,0,3,0,0,0,69,0,0,0,90.4,1,0,-0.002,0,0,3,0,0,0,10,3.023,0,0,1,1,0,0,VALID,0,0,0,0,0,1,0,0,0,0,0,0,0,0,0,0,0,0,0,0,334.03,437.13,2,0,0.08,0.08,485,14.29,0.08,0.06,33.26,FLYING,CF1-J,0:/Integrated Flight Computer/aircraft/cf1_j_cfg.ks (inferred preloaded)
33.72,TAKEOFF,TO_CLIMB,126.92,80,-46.92,104.99,16.2,6.72,-0.37,90.4,0.02,0.78,0,0,0,0,0,0,0,0,0,0,0,0,0,0,90.4,8,0,1,7.27,0,0,8,90.4,0.0919,-0.0068,0.9957,8,90.4,0,0,0,0,0,0,3,0,0,0,69,0,0,0,90.4,1,0,-0.001,0,0,3,0,0,0,10,3.023,0,0,1,1,0,0,VALID,0,0,0,0,0,1,0,0,0,0,0,0,0,0,0,0,0,0,0,0,333.42,436.19,2,0,0.08,0.08,489,14.29,0.08,0.06,33.54,FLYING,CF1-J,0:/Integrated Flight Computer/aircraft/cf1_j_cfg.ks (inferred preloaded)
34,TAKEOFF,TO_CLIMB,127.93,80,-47.93,109.65,16.49,6.72,-0.44,90.4,0.02,0.78,0,0,0,0,0,0,0,0,0,0,0,0,0,0,90.4,8,0,1,7.34,0,0,8,90.4,0.0919,-0.0068,0.9957,8,90.4,0,0,0,0,0,0,3,0,0,0,69,0,0,0,90.4,1,0,-0.001,0,0,3,0,0,0,10,3.023,0,0,1,1,0,0,VALID,0,0,0,0,0,1,0,0,0,0,0,0,0,0,0,0,0,0,0,0,332.82,435.25,2,0,0.08,0.08,493,14.29,0.08,0.06,33.82,FLYING,CF1-J,0:/Integrated Flight Computer/aircraft/cf1_j_cfg.ks (inferred preloaded)
34.28,TAKEOFF,TO_CLIMB,128.94,80,-48.94,114.38,16.76,6.72,-0.5,90.4,0.02,0.78,0,0,0,0,0,0,0,0,0,0,0,0,0,0,90.4,8,0,1,7.41,0,0,8,90.4,0.0918,-0.0068,0.9958,8,90.4,0,0,0,0,0,0,3,0,0,0,69,0,0,0,90.4,1,0,-0.001,0,0,3,0,0,0,10,3.023,0,0,1,1,0,0,VALID,0,0,0,0,0,1,0,0,0,0,0,0,0,0,0,0,0,0,0,0,332.22,434.32,2,0,0.08,0.08,497,14.29,0.08,0.06,34.1,FLYING,CF1-J,0:/Integrated Flight Computer/aircraft/cf1_j_cfg.ks (inferred preloaded)
34.56,TAKEOFF,TO_CLIMB,129.94,80,-49.94,119.19,17.03,6.71,-0.57,90.4,0.02,0.78,0,0,0,0,0,0,0,0,0,0,0,0,0,0,90.4,8,0,1,7.47,0,0,8,90.4,0.0917,-0.0068,0.9958,8,90.4,0,0,0,0,0,0,3,0,0,0,69,0,0,0,90.4,1,0,0,0,0,3,0,0,0,10,3.023,0,0,1,1,0,0,VALID,0,0,0,0,0,1,0,0,0,0,0,0,0,0,0,0,0,0,0,0,331.62,433.39,2,0,0.08,0.08,501,14.29,0.08,0.06,34.38,FLYING,CF1-J,0:/Integrated Flight Computer/aircraft/cf1_j_cfg.ks (inferred preloaded)
34.84,TAKEOFF,TO_CLIMB,130.93,80,-50.93,124.04,17.29,6.7,-0.63,90.4,0.019,0.78,0,0,0,0,0,0,0,0,0,0,0,0,0,0,90.4,8,0,1,7.52,0,0,8,90.4,0.0917,-0.0068,0.9958,8,90.4,0,0,0,0,0,0,3,0,0,0,69,0,0,0,90.4,1,0,0,0,0,3,0,0,0,10,3.023,0,0,1,1,0,0,VALID,0,0,0,0,0,1,0,0,0,0,0,0,0,0,0,0,0,0,0,0,331.02,432.47,2,0,0.08,0.08,505,14.29,0.08,0.06,34.66,FLYING,CF1-J,0:/Integrated Flight Computer/aircraft/cf1_j_cfg.ks (inferred preloaded)
35.12,TAKEOFF,TO_CLIMB,131.92,80,-51.92,129,17.55,6.7,-0.69,90.4,0.019,0.78,0,0,0,0,0,0,0,0,0,0,0,0,0,0,90.4,8,0,1,7.58,0,0,8,90.4,0.0916,-0.0068,0.9958,8,90.4,0,0,0,0,0,0,3,0,0,0,69,0,0,0,90.4,1,0,0.001,0,0,3,0,0,0,10,3.023,0,0,1,1,0,0,VALID,0,0,0,0,0,1,0,0,0,0,0,0,0,0,0,0,0,0,0,0,330.43,431.56,2,0,0.08,0.08,509,14.29,0.08,0.06,34.94,FLYING,CF1-J,0:/Integrated Flight Computer/aircraft/cf1_j_cfg.ks (inferred preloaded)
35.4,TAKEOFF,TO_CLIMB,132.89,80,-52.89,134.02,17.8,6.69,-0.76,90.4,0.016,0.78,0,0,0,0,0,0,0,0,0,0,0,0,0,0,90.4,8,0,1,7.63,0,0,8,90.4,0.0916,-0.0068,0.9958,8,90.4,0,0,0,0,0,0,3,0,0,0,69,0,0,0,90.4,1,0,0.001,0,0,3,0,0,0,10,3.023,0,0,1,1,0,0,VALID,0,0,0,0,0,1,0,0,0,0,0,0,0,0,0,0,0,0,0,0,329.83,430.65,2,0,0.08,0.08,513,14.29,0.08,0.06,35.22,FLYING,CF1-J,0:/Integrated Flight Computer/aircraft/cf1_j_cfg.ks (inferred preloaded)
35.68,TAKEOFF,TO_CLIMB,133.85,80,-53.85,139.11,18.04,6.67,-0.82,90.4,0.015,0.78,0,0,0,0,0,0,0,0,0,0,0,0,0,0,90.4,8,0,1,7.68,0,0,8,90.4,0.0915,-0.0068,0.9958,8,90.4,0,0,0,0,0,0,3,0,0,0,69,0,0,0,90.4,1,0,0.001,0,0,3,0,0,0,10,3.023,0,0,1,1,0,0,VALID,0,0,0,0,0,1,0,0,0,0,0,0,0,0,0,0,0,0,0,0,329.24,429.74,2,0,0.08,0.08,517,14.29,0.08,0.06,35.5,FLYING,CF1-J,0:/Integrated Flight Computer/aircraft/cf1_j_cfg.ks (inferred preloaded)
35.96,TAKEOFF,TO_CLIMB,134.81,80,-54.81,144.26,18.27,6.65,-0.88,90.4,0.014,0.78,0,0,0,0,0,0,0,0,0,0,0,0,0,0,90.4,8,0,1,7.72,0,0,8,90.4,0.0914,-0.0068,0.9958,8,90.4,0,0,0,0,0,0,3,0,0,0,69,0,0,0,90.4,1,0,0.002,0,0,3,0,0,0,10,3.023,0,0,1,1,0,0,VALID,0,0,0,0,0,1,0,0,0,0,0,0,0,0,0,0,0,0,0,0,328.66,428.85,2,0,0.08,0.08,521,14.29,0.08,0.06,35.78,FLYING,CF1-J,0:/Integrated Flight Computer/aircraft/cf1_j_cfg.ks (inferred preloaded)
36.24,TAKEOFF,TO_CLIMB,135.76,80,-55.76,149.47,18.49,6.63,-0.94,90.4,0.012,0.78,0,0,0,0,0,0,0,0,0,0,0,0,0,0,90.4,8,0,1,7.76,0,0,8,90.4,0.0914,-0.0068,0.9958,8,90.4,0,0,0,0,0,0,3,0,0,0,69,0,0,0,90.4,1,0,0.002,0,0,3,0,0,0,10,3.023,0,0,1,1,0,0,VALID,0,0,0,0,0,1,0,0,0,0,0,0,0,0,0,0,0,0,0,0,328.07,427.96,2,0,0.08,0.08,525,14.29,0.08,0.06,36.06,FLYING,CF1-J,0:/Integrated Flight Computer/aircraft/cf1_j_cfg.ks (inferred preloaded)
36.52,TAKEOFF,TO_CLIMB,136.7,80,-56.7,154.79,18.7,6.61,-1,90.4,0.011,0.78,0,0,0,0,0,0,0,0,0,0,0,0,0,0,90.4,8,0,1,7.79,0,0,8,90.4,0.0913,-0.0068,0.9958,8,90.4,0,0,0,0,0,0,3,0,0,0,69,0,0,0,90.4,1,0,0.002,0,0,3,0,0,0,10,3.023,0,0,1,1,0,0,VALID,0,0,0,0,0,1,0,0,0,0,0,0,0,0,0,0,0,0,0,0,327.49,427.07,2,0,0.08,0.08,529,14.29,0.08,0.06,36.34,FLYING,CF1-J,0:/Integrated Flight Computer/aircraft/cf1_j_cfg.ks (inferred preloaded)
36.8,TAKEOFF,TO_CLIMB,137.64,80,-57.64,160.07,18.9,6.58,-1.05,90.4,0.008,0.78,0,0,0,0,0,0,0,0,0,0,0,0,0,0,90.4,8,0,1,7.82,0,0,8,90.4,0.0912,-0.0068,0.9958,8,90.4,0,0,0,0,0,0,3,0,0,0,69,0,0,0,90.4,1,0,0.002,0,0,3,0,0,0,10,3.023,0,0,1,1,0,0,VALID,0,0,0,0,0,1,0,0,0,0,0,0,0,0,0,0,0,0,0,0,326.91,426.2,2,0,0.08,0.08,533,14.29,0.08,0.06,36.62,FLYING,CF1-J,0:/Integrated Flight Computer/aircraft/cf1_j_cfg.ks (inferred preloaded)
37.08,TAKEOFF,TO_CLIMB,138.56,80,-58.56,165.48,19.09,6.56,-1.1,90.4,0.007,0.78,0,0,0,0,0,0,0,0,0,0,0,0,0,0,90.4,8,0,1,7.85,0,0,8,90.4,0.0912,-0.0068,0.9958,8,90.4,0,0,0,0,0,0,3,0,0,0,69,0,0,0,90.4,1,0,0.002,0,0,3,0,0,0,10,3.023,0,0,1,1,0,0,VALID,0,0,0,0,0,1,0,0,0,0,0,0,0,0,0,0,0,0,0,0,326.34,425.33,2,0,0.08,0.08,537,14.29,0.08,0.06,36.9,FLYING,CF1-J,0:/Integrated Flight Computer/aircraft/cf1_j_cfg.ks (inferred preloaded)
37.36,TAKEOFF,TO_CLIMB,139.48,80,-59.48,170.91,19.28,6.54,-1.15,90.4,0.006,0.78,0,0,0,0,0,0,0,0,0,0,0,0,0,0,90.4,8,0,1,7.87,0,0,8,90.4,0.0911,-0.0068,0.9958,8,90.4,0,0,0,0,0,0,3,0,0,0,69,0,0,0,90.4,1,0,0.003,0,0,3,0,0,0,10,3.023,0,0,1,1,0,0,VALID,0,0,0,0,0,1,0,0,0,0,0,0,0,0,0,0,0,0,0,0,325.76,424.46,2,0,0.08,0.08,541,14.29,0.08,0.06,37.18,FLYING,CF1-J,0:/Integrated Flight Computer/aircraft/cf1_j_cfg.ks (inferred preloaded)
37.64,TAKEOFF,TO_CLIMB,140.39,80,-60.39,176.36,19.47,6.52,-1.19,90.4,0.005,0.78,0,0,0,0,0,0,0,0,0,0,0,0,0,0,90.4,8,0,1,7.89,0,0,8,90.4,0.091,-0.0068,0.9958,8,90.4,0,0,0,0,0,0,3,0,0,0,69,0,0,0,90.4,1,0,0.003,0,0,3,0,0,0,10,3.023,0,0,1,1,0,0,VALID,0,0,0,0,0,1,0,0,0,0,0,0,0,0,0,0,0,0,0,0,325.2,423.6,2,0,0.08,0.08,545,14.29,0.08,0.06,37.46,FLYING,CF1-J,0:/Integrated Flight Computer/aircraft/cf1_j_cfg.ks (inferred preloaded)
37.92,TAKEOFF,TO_CLIMB,141.3,80,-61.3,181.94,19.65,6.49,-1.23,90.4,0.003,0.78,0,0,0,0,0,0,0,0,0,0,0,0,0,0,90.4,8,0,1,7.92,0,0,8,90.4,0.091,-0.0068,0.9958,8,90.4,0,0,0,0,0,0,3,0,0,0,69,0,0,0,90.4,1,0,0.003,0,0,3,0,0,0,10,3.023,0,0,1,1,0,0,VALID,0,0,0,0,0,1,0,0,0,0,0,0,0,0,0,0,0,0,0,0,324.63,422.75,2,0,0.08,0.08,549,14.29,0.08,0.06,37.74,FLYING,CF1-J,0:/Integrated Flight Computer/aircraft/cf1_j_cfg.ks (inferred preloaded)
38.2,TAKEOFF,TO_CLIMB,142.19,80,-62.19,187.47,19.82,6.47,-1.28,90.4,0.003,0.78,0,0,0,0,0,0,0,0,0,0,0,0,0,0,90.4,8,0,1,7.94,0,0,8,90.4,0.0909,-0.0068,0.9958,8,90.4,0,0,0,0,0,0,3,0,0,0,69,0,0,0,90.4,1,0,0.003,0,0,3,0,0,0,10,3.023,0,0,1,1,0,0,VALID,0,0,0,0,0,1,0,0,0,0,0,0,0,0,0,0,0,0,0,0,324.07,421.91,2,0,0.08,0.08,553,14.29,0.08,0.06,38.02,FLYING,CF1-J,0:/Integrated Flight Computer/aircraft/cf1_j_cfg.ks (inferred preloaded)
38.48,TAKEOFF,TO_CLIMB,143.08,80,-63.08,193.08,19.99,6.45,-1.32,90.4,0.003,0.78,0,0,0,0,0,0,0,0,0,0,0,0,0,0,90.4,8,0,1,7.95,0,0,8,90.4,0.0908,-0.0068,0.9958,8,90.4,0,0,0,0,0,0,3,0,0,0,69,0,0,0,90.4,1,0,0.003,0,0,3,0,0,0,10,3.023,0,0,1,1,0,0,VALID,0,0,0,0,0,1,0,0,0,0,0,0,0,0,0,0,0,0,0,0,323.51,421.07,2,0,0.08,0.08,557,14.29,0.08,0.06,38.3,FLYING,CF1-J,0:/Integrated Flight Computer/aircraft/cf1_j_cfg.ks (inferred preloaded)
38.76,TAKEOFF,TO_CLIMB,143.96,80,-63.96,198.76,20.16,6.43,-1.36,90.4,0.003,0.78,0,0,0,0,0,0,0,0,0,0,0,0,0,0,90.4,8,0,1,7.97,0,0,8,90.4,0.0908,-0.0068,0.9958,8,90.4,0,0,0,0,0,0,3,0,0,0,69,0,0,0,90.4,1,0,0.003,0,0,3,0,0,0,10,3.023,0,0,1,1,0,0,VALID,0,0,0,0,0,1,0,0,0,0,0,0,0,0,0,0,0,0,0,0,322.95,420.24,2,0,0.08,0.08,561,14.29,0.08,0.06,38.58,FLYING,CF1-J,0:/Integrated Flight Computer/aircraft/cf1_j_cfg.ks (inferred preloaded)
