t_s,phase,subphase,ias_ms,vapp_ms,spd_err_ms,agl_m,vs_ms,pitch_deg,aoa_deg,hdg_deg,bank_deg,thr_cmd,thr_cur,thr_intg,at_gain,at_tau_s,at_a_up,at_a_dn,at_kp_thr,at_ki_spd,at_thr_slew,as_cmd_deg,as_cap_deg,as_raw_deg,as_spd_err_ms,as_active,aa_hdg_cmd_deg,aa_fpa_cmd_deg,aa_fbw,aa_dir,actual_fpa_deg,ftf_hdg_err_deg,ftf_fix_idx,kos_steer_pit_deg,kos_steer_hdg_deg,aa_dir_vx,aa_dir_vy,aa_dir_vz,aa_dir_pitch_deg,aa_dir_hdg_deg,ils_loc_m,ils_gs_m,ils_dist_km,loc_corr_deg,gs_corr_deg,gs_latched,active_gs_ang_deg,ils_intercept_alt_m,d_gs_ms,fpa_preclamped_deg,gs_nom_alt_m,flare_fpa_cmd,flare_tgt_vs,flare_frac,steer_hdg_deg,steer_blend,ro_loc_corr_deg,ro_hdg_err_deg,ro_yaw_tgt,ro_yaw_scale,ro_yaw_gate,yaw_cmd,roll_cmd,pitch_cmd,ro_pitch_tgt_deg,ro_pitch_err_deg,ro_pitch_ff,ro_roll_assist,flaps_cur,flaps_tgt,asc_j_ab,asc_j_rk,asc_validity,asc_q_pa,asc_q_raw_pa,asc_mach,asc_apo_m,asc_drag_n,asc_w_prop,asc_edot_aero,asc_edot_orb,asc_pitch_bias,asc_blend,asc_spooling,asc_ab_thr_ratio,asc_ab_t_now,asc_ab_t_avail,asc_ab_ign_on,asc_ab_flameouts,asc_rk_t_now,asc_rk_t_avail,asc_rk_ign_on,asc_rk_flameouts,ship_thrust,ship_avail_thrust,ship_ign_on,ship_flameouts,ifc_raw_dt_s,ifc_dt_s,ifc_loop_n,ifc_hz_est,ifc_raw_dt_max_s,ifc_raw_dt_min_s,phase_el_s,status,craft_name,cfg_file
0.2,TAKEOFF,TO_PREFLIGHT,0.37,80,79.63,4.92,-0.06,-0.54,15.11,89.78,0.087,0.072,0,0,0,0,0,0,0,0,0,0,0,0,0,0,90,0,1,0,-5.75,0,0,0,90,0,0,0,0,0,0,0,0,0,0,0,3,0,0,0,69,0,0,0,90,1,0,-0.22,0,0,1,0,0,0,0,0,0,0,0,2,0,0,VALID,0,0,0,0,0,1,0,0,0,0,0,0,0,0,0,0,0,0,0,0,0,2325.94,6,0,0.18,0.18,1,3.7,0.18,0.02,0.02,LANDED,X11-D,0:/Integrated Flight Computer/aircraft/x11_d_cfg.ks (inferred preloaded)
0.46,TAKEOFF,TO_PREFLIGHT,0.38,80,79.62,4.92,0.09,-0.67,-20.08,89.79,0.119,0.112,0,0,0,0,0,0,0,0,0,0,0,0,0,0,90,0,1,0,4.98,0,0,0,90,0,0,0,0,0,0,0,0,0,0,0,3,0,0,0,69,0,0,0,90,1,0,-0.216,0,0,1,0,0,0,0,0,0,0,1,2,0,0,VALID,0,0,0,0,0,1,0,0,0,0,0,0,0,0,0,0,0,0,0,0,6.35,2325.92,6,0,0.04,0.04,6,19.23,0.18,0.04,0.28,LANDED,X11-D,0:/Integrated Flight Computer/aircraft/x11_d_cfg.ks (inferred preloaded)
0.72,TAKEOFF,TO_PREFLIGHT,0.37,80,79.63,5.4,-0.15,0.1,31.16,89.79,0.097,0.216,0,0,0,0,0,0,0,0,0,0,0,0,0,0,90,0,1,0,-8.71,0,0,0,90,0,0,0,0,0,0,0,0,0,0,0,3,0,0,0,69,0,0,0,90,1,0,-0.216,0,0,1,0,0,0,0,0,0,0,1,2,0,0,VALID,0,0,0,0,0,1,0,0,0,0,0,0,0,0,0,0,0,0,0,0,22.21,2325.94,6,0,0.04,0.04,11,19.23,0.08,0.04,0.54,LANDED,X11-D,0:/Integrated Flight Computer/aircraft/x11_d_cfg.ks (inferred preloaded)
0.98,TAKEOFF,TO_PREFLIGHT,0.41,80,79.59,5.63,0.37,0.33,-52.41,89.78,0.107,0.32,0,0,0,0,0,0,0,0,0,0,0,0,0,0,90,0,1,0,20.28,0,0,0,90,0,0,0,0,0,0,0,0,0,0,0,3,0,0,0,69,0,0,0,90,1,0,-0.216,0,0,1,0,0,0,0,0,0,0,2,2,0,0,VALID,0,0,0,0,0,1,0,0,0,0,0,0,0,0,0,0,0,0,0,0,49.55,2325.87,6,0,0.04,0.04,16,19.23,0.08,0.04,0.8,LANDED,X11-D,0:/Integrated Flight Computer/aircraft/x11_d_cfg.ks (inferred preloaded)
1.24,TAKEOFF,TO_PREFLIGHT,0.32,80,79.68,5.43,-0.47,0.09,57.86,89.76,0.104,0.424,0,0,0,0,0,0,0,0,0,0,0,0,0,0,90,0,1,0,-25.3,0,0,0,90,0,0,0,0,0,0,0,0,0,0,0,3,0,0,0,69,0,0,0,90,1,0,-0.216,0,0,1,0,0,0,0,0,0,0,2,2,0,0,VALID,0,0,0,0,0,1,0,0,0,0,0,0,0,0,0,0,0,0,0,0,87.78,2326.02,6,0,0.04,0.04,21,19.23,0.08,0.04,1.06,LANDED,X11-D,0:/Integrated Flight Computer/aircraft/x11_d_cfg.ks (inferred preloaded)
1.5,TAKEOFF,TO_PREFLIGHT,0.31,80,79.69,4.98,0.33,-0.52,-40.57,89.75,0.106,0.528,0,0,0,0,0,0,0,0,0,0,0,0,0,0,90,0,1,0,18.35,0,0,0,90,0,0,0,0,0,0,0,0,0,0,0,3,0,0,0,69,0,0,0,90,1,0,-0.216,0,0,1,0,0,0,0,0,0,0,2,2,0,0,VALID,0,0,0,0,0,1,0,0,0,0,0,0,0,0,0,0,0,0,0,0,136.35,2326.04,6,0,0.04,0.04,26,19.23,0.08,0.04,1.32,LANDED,X11-D,0:/Integrated Flight Computer/aircraft/x11_d_cfg.ks (inferred preloaded)
1.76,TAKEOFF,TO_PREFLIGHT,0.38,80,79.62,5.03,-0.21,-0.51,18.88,89.74,0.112,0.632,0,0,0,0,0,0,0,0,0,0,0,0,0,0,90,0,1,0,-11.61,0,0,0,90,0,0,0,0,0,0,0,0,0,0,0,3,0,0,0,69,0,0,0,90,1,0,-0.216,0,0,1,0,0,0,0,0,0,0,2,2,0,0,VALID,0,0,0,0,0,1,0,0,0,0,0,0,0,0,0,0,0,0,0,0,194.73,2325.91,6,0,0.04,0.04,31,19.23,0.08,0.04,1.58,LANDED,X11-D,0:/Integrated Flight Computer/aircraft/x11_d_cfg.ks (inferred preloaded)
2.02,TAKEOFF,TO_PREFLIGHT,0.46,80,79.54,5.3,0.07,-0.03,0.42,89.71,0.103,0.736,0,0,0,0,0,0,0,0,0,0,0,0,0,0,90,0,1,0,3.79,0,0,0,90,0,0,0,0,0,0,0,0,0,0,0,3,0,0,0,69,0,0,0,90,1,0,-0.216,0,0,1,0,0,0,0,0,0,0,2,2,0,0,VALID,0,0,0,0,0,1,0,0,0,0,0,0,0,0,0,0,0,0,0,0,262.42,2325.78,6,0,0.04,0.04,36,19.23,0.08,0.04,1.84,LANDED,X11-D,0:/Integrated Flight Computer/aircraft/x11_d_cfg.ks (inferred preloaded)
2.34,TAKEOFF,TO_PREFLIGHT,0.58,80,79.42,5.38,-0.08,0,1.1,89.66,0.106,0.864,0,0,0,0,0,0,0,0,0,0,0,0,0,0,90,0,1,0,-4.66,0,0,0,90,0,0,0,0,0,0,0,0,0,0,0,3,0,0,0,69,0,0,0,90,1,0,-0.216,0,0,1,0,0,0,0,0,0,0,2,2,0,0,VALID,0,0,0,0,0,1,0,0,0,0,0,0,0,0,0,0,0,0,0,0,357.79,2325.56,6,0,0.08,0.08,41,15.63,0.08,0.04,2.16,LANDED,X11-D,0:/Integrated Flight Computer/aircraft/x11_d_cfg.ks (inferred preloaded)
2.62,TAKEOFF,TO_PREFLIGHT,0.79,80,79.21,5.02,0.04,-0.45,1.87,89.61,0.101,0.976,0,0,0,0,0,0,0,0,0,0,0,0,0,0,90,0,1,0,2.5,0,0,0,90,0,0,0,0,0,0,0,0,0,0,0,3,0,0,0,69,0,0,0,90,1,0,-0.216,0,0,1,0,0,0,0,0,0,0,2,2,0,0,VALID,0,0,0,0,0,1,0,0,0,0,0,0,0,0,0,0,0,0,0,0,451.18,2325.23,6,0,0.08,0.08,45,14.29,0.08,0.06,2.44,LANDED,X11-D,0:/Integrated Flight Computer/aircraft/x11_d_cfg.ks (inferred preloaded)
2.9,TAKEOFF,TO_PREFLIGHT,1.03,80,78.97,5.12,-0.06,-0.37,-1,89.59,0.108,1,0,0,0,0,0,0,0,0,0,0,0,0,0,0,90,0,1,0,-3.17,0,0,0,90,0,0,0,0,0,0,0,0,0,0,0,3,0,0,0,69,0,0,0,90,1,0,-0.216,0,0,1,0,0,0,0,0,0,0,2,2,0,0,VALID,0,0,0,0,0,1,0,0,0,0,0,0,0,0,0,0,0,0,0,0,551.71,2324.8,6,0,0.08,0.08,49,14.29,0.08,0.06,2.72,LANDED,X11-D,0:/Integrated Flight Computer/aircraft/x11_d_cfg.ks (inferred preloaded)
3.18,TAKEOFF,TO_PREFLIGHT,1.33,80,78.67,5.27,0.02,-0.08,1.54,89.56,0.105,1,0,0,0,0,0,0,0,0,0,0,0,0,0,0,90,0,1,0,0.69,0,0,0,90,0,0,0,0,0,0,0,0,0,0,0,3,0,0,0,69,0,0,0,90,1,0,-0.216,0,0,1,0,0,0,0,0,0,0,2,2,0,0,VALID,0,0,0,0,0,1,0,0,0,0,0,0,0,0,0,0,0,0,0,0,648.32,2324.3,6,0,0.08,0.08,53,14.29,0.08,0.06,3,LANDED,X11-D,0:/Integrated Flight Computer/aircraft/x11_d_cfg.ks (inferred preloaded)
3.46,TAKEOFF,TO_PREFLIGHT,1.71,80,78.29,5.23,-0.02,-0.19,-0.78,89.53,0.106,1,0,0,0,0,0,0,0,0,0,0,0,0,0,0,90,0,1,0,-0.83,0,0,0,90,0,0,0,0,0,0,0,0,0,0,0,3,0,0,0,69,0,0,0,90,1,0,-0.216,0,0,1,0,0,0,0,0,0,0,2,2,0,0,VALID,0,0,0,0,0,1,0,0,0,0,0,0,0,0,0,0,0,0,0,0,739.57,2323.62,6,0,0.08,0.08,57,14.29,0.08,0.06,3.28,LANDED,X11-D,0:/Integrated Flight Computer/aircraft/x11_d_cfg.ks (inferred preloaded)
3.74,TAKEOFF,TO_PREFLIGHT,2.16,80,77.84,5.02,0.02,-0.47,-0.14,89.5,0.103,1,0,0,0,0,0,0,0,0,0,0,0,0,0,0,90,0,1,0,0.58,0,0,0,90,0,0,0,0,0,0,0,0,0,0,0,3,0,0,0,69,0,0,0,90,1,0,-0.216,0,0,1,0,0,0,0,0,0,0,2,2,0,0,VALID,0,0,0,0,0,1,0,0,0,0,0,0,0,0,0,0,0,0,0,0,825.73,2322.85,6,0,0.08,0.08,61,14.29,0.08,0.06,3.56,LANDED,X11-D,0:/Integrated Flight Computer/aircraft/x11_d_cfg.ks (inferred preloaded)
4.02,TAKEOFF,TO_PREFLIGHT,2.68,80,77.32,5.21,-0.07,-0.21,0.45,89.48,0.105,1,0,0,0,0,0,0,0,0,0,0,0,0,0,0,90,0,1,0,-1.43,0,0,0,90,0,0,0,0,0,0,0,0,0,0,0,3,0,0,0,69,0,0,0,90,1,0,-0.216,0,0,1,0,0,0,0,0,0,0,2,2,0,0,VALID,0,0,0,0,0,1,0,0,0,0,0,0,0,0,0,0,0,0,0,0,907.08,2321.95,6,0,0.08,0.08,65,14.29,0.08,0.06,3.84,LANDED,X11-D,0:/Integrated Flight Computer/aircraft/x11_d_cfg.ks (inferred preloaded)
4.3,TAKEOFF,TO_PREFLIGHT,3.25,80,76.75,5.26,0.02,-0.11,0.07,89.45,0.106,1,0,0,0,0,0,0,0,0,0,0,0,0,0,0,90,0,1,0,0.31,0,0,0,90,0,0,0,0,0,0,0,0,0,0,0,3,0,0,0,69,0,0,0,90,1,0,-0.216,0,0,1,0,0,0,0,0,0,0,2,2,0,0,VALID,0,0,0,0,0,1,0,0,0,0,0,0,0,0,0,0,0,0,0,0,983.87,2320.95,6,0,0.08,0.08,69,14.29,0.08,0.06,4.12,LANDED,X11-D,0:/Integrated Flight Computer/aircraft/x11_d_cfg.ks (inferred preloaded)
4.58,TAKEOFF,TO_PREFLIGHT,3.88,80,76.12,5.12,-0.04,-0.34,-0.11,89.43,0.108,1,0,0,0,0,0,0,0,0,0,0,0,0,0,0,90,0,1,0,-0.57,0,0,0,90,0,0,0,0,0,0,0,0,0,0,0,3,0,0,0,69,0,0,0,90,1,0,-0.216,0,0,1,0,0,0,0,0,0,0,2,2,0,0,VALID,0,0,0,0,0,1,0,0,0,0,0,0,0,0,0,0,0,0,0,0,1056.33,2319.82,6,0,0.08,0.08,73,14.29,0.08,0.06,4.4,LANDED,X11-D,0:/Integrated Flight Computer/aircraft/x11_d_cfg.ks (inferred preloaded)
4.86,TAKEOFF,TO_PREFLIGHT,4.56,80,75.44,5.09,-0.01,-0.37,-0.06,89.42,0.1,1,0,0,0,0,0,0,0,0,0,0,0,0,0,0,90,0,1,0,-0.16,0,0,0,90,0,0,0,0,0,0,0,0,0,0,0,3,0,0,0,69,0,0,0,90,1,0,-0.216,0,0,1,0,0,0,0,0,0,0,2,2,0,0,VALID,0,0,0,0,0,1,0,0,0,0,0,0,0,0,0,0,0,0,0,0,1124.69,2318.61,6,0,0.08,0.08,77,14.29,0.08,0.06,4.68,LANDED,X11-D,0:/Integrated Flight Computer/aircraft/x11_d_cfg.ks (inferred preloaded)
5.14,TAKEOFF,TO_PREFLIGHT,5.29,80,74.71,5.26,-0.06,-0.13,0.34,89.43,0.105,1,0,0,0,0,0,0,0,0,0,0,0,0,0,0,90,0,1,0,-0.65,0,0,0,90,0,0,0,0,0,0,0,0,0,0,0,3,0,0,0,69,0,0,0,90,1,0,-0.216,0,0,1,0,0,0,0,0,0,0,2,2,0,0,VALID,0,0,0,0,0,1,0,0,0,0,0,0,0,0,0,0,0,0,0,0,1189.18,2317.3,6,0,0.08,0.08,81,14.29,0.08,0.06,4.96,LANDED,X11-D,0:/Integrated Flight Computer/aircraft/x11_d_cfg.ks (inferred preloaded)
5.42,TAKEOFF,TO_PREFLIGHT,6.07,80,73.93,5.2,0,-0.21,-0.06,89.43,0.117,1,0,0,0,0,0,0,0,0,0,0,0,0,0,0,90,0,1,0,-0.04,0,0,0,90,0,0,0,0,0,0,0,0,0,0,0,3,0,0,0,69,0,0,0,90,1,0,-0.216,0,0,1,0,0,0,0,0,0,0,2,2,0,0,VALID,0,0,0,0,0,1,0,0,0,0,0,0,0,0,0,0,0,0,0,0,1249.99,2315.9,6,0,0.08,0.08,85,14.29,0.08,0.06,5.24,LANDED,X11-D,0:/Integrated Flight Computer/aircraft/x11_d_cfg.ks (inferred preloaded)
5.7,TAKEOFF,TO_PREFLIGHT,6.9,80,73.1,5.09,-0.06,-0.38,-0.04,89.43,0.098,1,0,0,0,0,0,0,0,0,0,0,0,0,0,0,90,0,1,0,-0.47,0,0,0,90,0,0,0,0,0,0,0,0,0,0,0,3,0,0,0,69,0,0,0,90,1,0,-0.216,0,0,1,0,0,0,0,0,0,0,2,2,0,0,VALID,0,0,0,0,0,1,0,0,0,0,0,0,0,0,0,0,0,0,0,0,1307.3,2314.38,6,0,0.08,0.08,89,14.29,0.08,0.06,5.52,LANDED,X11-D,0:/Integrated Flight Computer/aircraft/x11_d_cfg.ks (inferred preloaded)
5.98,TAKEOFF,TO_PREFLIGHT,7.76,80,72.24,5.17,-0.04,-0.25,0.05,89.44,0.108,1,0,0,0,0,0,0,0,0,0,0,0,0,0,0,90,0,1,0,-0.3,0,0,0,90,0,0,0,0,0,0,0,0,0,0,0,3,0,0,0,69,0,0,0,90,1,0,-0.216,0,0,1,0,0,0,0,0,0,0,2,2,0,0,VALID,0,0,0,0,0,1,0,0,0,0,0,0,0,0,0,0,0,0,0,0,1361.34,2312.8,6,0,0.08,0.08,93,14.29,0.08,0.06,5.8,LANDED,X11-D,0:/Integrated Flight Computer/aircraft/x11_d_cfg.ks (inferred preloaded)
6.26,TAKEOFF,TO_PREFLIGHT,8.66,80,71.34,5.25,-0.06,-0.14,0.21,89.46,0.104,1,0,0,0,0,0,0,0,0,0,0,0,0,0,0,90,0,1,0,-0.41,0,0,0,90,0,0,0,0,0,0,0,0,0,0,0,3,0,0,0,69,0,0,0,90,1,0,-0.216,0,0,1,0,0,0,0,0,0,0,2,2,0,0,VALID,0,0,0,0,0,1,0,0,0,0,0,0,0,0,0,0,0,0,0,0,1412.24,2311.13,6,0,0.08,0.08,97,14.29,0.08,0.06,6.08,LANDED,X11-D,0:/Integrated Flight Computer/aircraft/x11_d_cfg.ks (inferred preloaded)
6.54,TAKEOFF,TO_PREFLIGHT,9.61,80,70.39,5.14,-0.04,-0.3,-0.07,89.47,0.113,1,0,0,0,0,0,0,0,0,0,0,0,0,0,0,90,0,1,0,-0.21,0,0,0,90,0,0,0,0,0,0,0,0,0,0,0,3,0,0,0,69,0,0,0,90,1,0,-0.216,0,0,1,0,0,0,0,0,0,0,2,2,0,0,VALID,0,0,0,0,0,1,0,0,0,0,0,0,0,0,0,0,0,0,0,0,1460.19,2309.36,6,0,0.08,0.08,101,14.29,0.08,0.06,6.36,LANDED,X11-D,0:/Integrated Flight Computer/aircraft/x11_d_cfg.ks (inferred preloaded)
6.82,TAKEOFF,TO_GROUND_ROLL,10.59,80,69.41,5.12,-0.08,-0.33,0.03,89.49,0.096,1,0,0,0,0,0,0,0,0,0,0,0,0,0,0,89.99,0,1,0,-0.4,0,0,0,90,0,0,0,0,0,0,0,0,0.003,0,0,3,0,0,0,69,0,0,0,89.99,1,0.003,-0.5,0.0145,0.656,0,0.0145,0,0,0,0,0,0,2,2,0,0,VALID,0,0,0,0,0,1,0,0,0,0,0,0,0,0,0,0,0,0,0,0,1505.32,2307.51,6,0,0.08,0.08,105,14.29,0.08,0.06,6.66,LANDED,X11-D,0:/Integrated Flight Computer/aircraft/x11_d_cfg.ks (inferred preloaded)
7.1,TAKEOFF,TO_GROUND_ROLL,11.68,80,68.32,5.23,-0.06,-0.17,0.13,89.52,0.116,1,0,0,0,0,0,0,0,0,0,0,0,0,0,0,89.99,0,1,0,-0.33,0,0,0,90,0,0,0,0,0,0,0,0,0.004,0,0,3,0,0,0,69,0,0,0,89.99,1,0.004,-0.469,0.0133,0.667,0,0.0133,0,0,0,0,0,0,2,2,0,0,VALID,0,0,0,0,0,1,0,0,0,0,0,0,0,0,0,0,0,0,0,0,1547.73,2305.44,6,0,0.08,0.08,109,14.29,0.08,0.06,6.94,LANDED,X11-D,0:/Integrated Flight Computer/aircraft/x11_d_cfg.ks (inferred preloaded)
7.38,TAKEOFF,TO_GROUND_ROLL,12.82,80,67.18,5.21,-0.07,-0.2,0.1,89.55,0.1,1,0,0,0,0,0,0,0,0,0,0,0,0,0,0,89.99,0,1,0,-0.32,0,0,0,90,0,0,0,0,0,0,0,0,0.005,0,0,3,0,0,0,69,0,0,0,89.99,1,0.005,-0.437,0.0124,0.678,0,0.0124,0,0,0,0,0,0,2,2,0,0,VALID,0,0,0,0,0,1,0,0,0,0,0,0,0,0,0,0,0,0,0,0,1587.57,2303.24,6,0,0.08,0.08,113,14.29,0.08,0.06,7.22,LANDED,X11-D,0:/Integrated Flight Computer/aircraft/x11_d_cfg.ks (inferred preloaded)
7.66,TAKEOFF,TO_GROUND_ROLL,14,80,66,5.12,-0.07,-0.33,-0.06,89.58,0.111,1,0,0,0,0,0,0,0,0,0,0,0,0,0,0,89.98,0,1,0,-0.3,0,0,0,90,0,0,0,0,0,0,0,0,0.007,0,0,3,0,0,0,69,0,0,0,89.98,1,0.007,-0.403,0.0113,0.69,0,0.0113,0,0,0,0,0,0,2,2,0,0,VALID,0,0,0,0,0,1,0,0,0,0,0,0,0,0,0,0,0,0,0,0,1625.03,2300.97,6,0,0.08,0.08,117,14.29,0.08,0.06,7.5,LANDED,X11-D,0:/Integrated Flight Computer/aircraft/x11_d_cfg.ks (inferred preloaded)
7.94,TAKEOFF,TO_GROUND_ROLL,15.21,80,64.79,5.17,-0.1,-0.26,0.09,89.61,0.1,1,0,0,0,0,0,0,0,0,0,0,0,0,0,0,89.99,0,1,0,-0.37,0,0,0,90,0,0,0,0,0,0,0,0,0.008,0,0,3,0,0,0,69,0,0,0,89.99,1,0.008,-0.373,0.0106,0.702,0,0.0106,0,0,0,0,0,0,2,2,0,0,VALID,0,0,0,0,0,1,0,0,0,0,0,0,0,0,0,0,0,0,0,0,1660.23,2298.62,6,0,0.08,0.08,121,14.29,0.08,0.06,7.78,LANDED,X11-D,0:/Integrated Flight Computer/aircraft/x11_d_cfg.ks (inferred preloaded)
8.22,TAKEOFF,TO_GROUND_ROLL,16.44,80,63.56,5.23,-0.09,-0.17,0.13,89.65,0.108,1,0,0,0,0,0,0,0,0,0,0,0,0,0,0,89.99,0,1,0,-0.31,0,0,0,90,0,0,0,0,0,0,0,0,0.01,0,0,3,0,0,0,69,0,0,0,89.99,1,0.01,-0.343,0.0098,0.714,0,0.0098,0,0,0,0,0,0,2,2,0,0,VALID,0,0,0,0,0,1,0,0,0,0,0,0,0,0,0,0,0,0,0,0,1693.3,2296.2,6,0,0.08,0.08,125,14.29,0.08,0.06,8.06,LANDED,X11-D,0:/Integrated Flight Computer/aircraft/x11_d_cfg.ks (inferred preloaded)
8.5,TAKEOFF,TO_GROUND_ROLL,17.69,80,62.31,5.17,-0.1,-0.26,0.03,89.68,0.101,1,0,0,0,0,0,0,0,0,0,0,0,0,0,0,89.99,0,1,0,-0.31,0,0,0,90,0,0,0,0,0,0,0,0,0.011,0,0,3,0,0,0,69,0,0,0,89.99,1,0.011,-0.311,0.0088,0.727,0,0.0088,0,0,0,0,0,0,2,2,0,0,VALID,0,0,0,0,0,1,0,0,0,0,0,0,0,0,0,0,0,0,0,0,1724.34,2293.72,6,0,0.08,0.08,129,14.29,0.08,0.06,8.34,LANDED,X11-D,0:/Integrated Flight Computer/aircraft/x11_d_cfg.ks (inferred preloaded)
8.78,TAKEOFF,TO_GROUND_ROLL,18.97,80,61.03,5.14,-0.11,-0.31,0,89.71,0.106,1,0,0,0,0,0,0,0,0,0,0,0,0,0,0,89.99,0,1,0,-0.32,0,0,0.01,90,0,0,0,0,0,0,0,0,0.012,0,0,3,0,0,0,69,0,0,0,89.99,1,0.012,-0.279,0.0078,0.74,0,0.0078,0,0,0,0,0,0,2,2,0,0,VALID,0,0,0,0,0,1,0,0,0,0,0,0,0,0,0,0,0,0,0,0,1753.48,2291.17,6,0,0.08,0.08,133,14.29,0.08,0.06,8.62,LANDED,X11-D,0:/Integrated Flight Computer/aircraft/x11_d_cfg.ks (inferred preloaded)
9.06,TAKEOFF,TO_GROUND_ROLL,20.27,80,59.73,5.21,-0.12,-0.2,0.12,89.74,0.102,1,0,0,0,0,0,0,0,0,0,0,0,0,0,0,89.99,0,1,0,-0.34,0,0,0.01,90,0,0,0,0,0,0,0,0,0.014,0,0,3,0,0,0,69,0,0,0,89.99,1,0.014,-0.25,0.0071,0.753,0,0.0071,0,0,0,0,0,0,2,2,0,0,VALID,0,0,0,0,0,1,0,0,0,0,0,0,0,0,0,0,0,0,0,0,1780.81,2288.57,6,0,0.08,0.08,137,14.29,0.08,0.06,8.9,LANDED,X11-D,0:/Integrated Flight Computer/aircraft/x11_d_cfg.ks (inferred preloaded)
9.34,TAKEOFF,TO_GROUND_ROLL,21.59,80,58.41,5.21,-0.12,-0.2,0.09,89.77,0.104,1,0,0,0,0,0,0,0,0,0,0,0,0,0,0,90,0,1,0,-0.31,0,0,0.01,90,0,0,0,0,0,0,0,0,0.015,0,0,3,0,0,0,69,0,0,0,90,1,0.015,-0.22,0.0061,0.766,0,0.0061,0,0,0,0,0,0,2,2,0,0,VALID,0,0,0,0,0,1,0,0,0,0,0,0,0,0,0,0,0,0,0,0,1806.43,2285.91,6,0,0.08,0.08,141,14.29,0.08,0.06,9.18,LANDED,X11-D,0:/Integrated Flight Computer/aircraft/x11_d_cfg.ks (inferred preloaded)
9.62,TAKEOFF,TO_GROUND_ROLL,22.93,80,57.07,5.15,-0.13,-0.29,0.01,89.81,0.102,1,0,0,0,0,0,0,0,0,0,0,0,0,0,0,90,0,1,0,-0.32,0,0,0.01,90,0,0,0,0,0,0,0,0,0.016,0,0,3,0,0,0,69,0,0,0,90,1,0.016,-0.19,0.0051,0.779,0,0.0051,0,0,0,0,0,0,2,2,0,0,VALID,0,0,0,0,0,1,0,0,0,0,0,0,0,0,0,0,0,0,0,0,1830.43,2283.2,6,0,0.08,0.08,145,14.29,0.08,0.06,9.46,LANDED,X11-D,0:/Integrated Flight Computer/aircraft/x11_d_cfg.ks (inferred preloaded)
9.9,TAKEOFF,TO_GROUND_ROLL,24.28,80,55.72,5.17,-0.14,-0.26,0.05,89.84,0.104,1,0,0,0,0,0,0,0,0,0,0,0,0,0,0,90,0,1,0,-0.33,0,0,0.01,90,0,0,0,0,0,0,0,0,0.017,0,0,3,0,0,0,69,0,0,0,90,1,0.017,-0.162,0.0042,0.793,0,0.0042,0,0,0,0,0,0,2,2,0,0,VALID,0,0,0,0,0,1,0,0,0,0,0,0,0,0,0,0,0,0,0,0,1852.91,2280.45,6,0,0.08,0.08,149,14.29,0.08,0.06,9.74,LANDED,X11-D,0:/Integrated Flight Computer/aircraft/x11_d_cfg.ks (inferred preloaded)
10.18,TAKEOFF,TO_GROUND_ROLL,25.65,80,54.35,5.21,-0.15,-0.19,0.12,89.87,0.102,1,0,0,0,0,0,0,0,0,0,0,0,0,0,0,90,0,1,0,-0.32,0,0,0.01,90,0,0,0,0,0,0,0,0,0.018,0,0,3,0,0,0,69,0,0,0,90,1,0.018,-0.135,0.0033,0.807,0,0.0033,0,0,0,0,0,0,2,2,0,0,VALID,0,0,0,0,0,1,0,0,0,0,0,0,0,0,0,0,0,0,0,0,1873.95,2277.65,6,0,0.08,0.08,153,14.29,0.08,0.06,10.02,LANDED,X11-D,0:/Integrated Flight Computer/aircraft/x11_d_cfg.ks (inferred preloaded)
10.46,TAKEOFF,TO_GROUND_ROLL,27.04,80,52.96,5.18,-0.15,-0.24,0.05,89.89,0.103,1,0,0,0,0,0,0,0,0,0,0,0,0,0,0,90,0,1,0,-0.31,0,0,0.01,90,0,0,0,0,0,0,0,0,0.019,0,0,3,0,0,0,69,0,0,0,90,1,0.019,-0.108,0.0024,0.82,0,0.0024,0,0,0,0,0,0,2,2,0,0,VALID,0,0,0,0,0,1,0,0,0,0,0,0,0,0,0,0,0,0,0,0,1893.63,2274.8,6,0,0.08,0.08,157,14.29,0.08,0.06,10.3,LANDED,X11-D,0:/Integrated Flight Computer/aircraft/x11_d_cfg.ks (inferred preloaded)
10.74,TAKEOFF,TO_GROUND_ROLL,28.44,80,51.56,5.15,-0.16,-0.28,0.02,89.92,0.102,1,0,0,0,0,0,0,0,0,0,0,0,0,0,0,90,0,1,0,-0.32,0,0,0.01,90,0,0,0,0,0,0,0,0,0.019,0,0,3,0,0,0,69,0,0,0,90,1,0.019,-0.082,0.0014,0.834,0,0.0014,0,0,0,0,0,0,2,2,0,0,VALID,0,0,0,0,0,1,0,0,0,0,0,0,0,0,0,0,0,0,0,0,1912.02,2271.92,6,0,0.08,0.08,161,14.29,0.08,0.06,10.58,LANDED,X11-D,0:/Integrated Flight Computer/aircraft/x11_d_cfg.ks (inferred preloaded)
11.02,TAKEOFF,TO_GROUND_ROLL,29.85,80,50.15,5.19,-0.17,-0.22,0.09,89.95,0.103,1,0,0,0,0,0,0,0,0,0,0,0,0,0,0,90,0,1,0,-0.32,0,0,0.01,90,0,0,0,0,0,0,0,0,0.02,0,0,3,0,0,0,69,0,0,0,90,1,0.02,-0.059,0.0006,0.849,0,0.0006,0,0,0,0,0,0,2,2,0,0,VALID,0,0,0,0,0,1,0,0,0,0,0,0,0,0,0,0,0,0,0,0,1929.19,2269.01,6,0,0.08,0.08,165,14.29,0.08,0.06,10.86,LANDED,X11-D,0:/Integrated Flight Computer/aircraft/x11_d_cfg.ks (inferred preloaded)
11.3,TAKEOFF,TO_GROUND_ROLL,31.28,80,48.72,5.2,-0.17,-0.2,0.09,89.97,0.102,1,0,0,0,0,0,0,0,0,0,0,0,0,0,0,90.01,0,1,0,-0.31,0,0,0.01,90,0,0,0,0,0,0,0,0,0.02,0,0,3,0,0,0,69,0,0,0,90.01,1,0.02,-0.036,-0.0001,0.863,0,-0.0001,0,0,0,0,0,0,2,2,0,0,VALID,0,0,0,0,0,1,0,0,0,0,0,0,0,0,0,0,0,0,0,0,1945.22,2266.07,6,0,0.08,0.08,169,14.29,0.08,0.06,11.14,LANDED,X11-D,0:/Integrated Flight Computer/aircraft/x11_d_cfg.ks (inferred preloaded)
11.58,TAKEOFF,TO_GROUND_ROLL,32.72,80,47.28,5.17,-0.18,-0.26,0.04,89.99,0.102,1,0,0,0,0,0,0,0,0,0,0,0,0,0,0,90.01,0,1,0,-0.31,0,0,0.01,90,0,0,0,0,0,0,0,0,0.02,0,0,3,0,0,0,69,0,0,0,90.01,1,0.02,-0.015,-0.0008,0.877,0,-0.0008,0,0,0,0,0,0,2,2,0,0,VALID,0,0,0,0,0,1,0,0,0,0,0,0,0,0,0,0,0,0,0,0,1960.17,2263.1,6,0,0.08,0.08,173,14.29,0.08,0.06,11.42,LANDED,X11-D,0:/Integrated Flight Computer/aircraft/x11_d_cfg.ks (inferred preloaded)
11.86,TAKEOFF,TO_GROUND_ROLL,34.17,80,45.83,5.17,-0.19,-0.25,0.05,90.01,0.102,1,0,0,0,0,0,0,0,0,0,0,0,0,0,0,90.01,0,1,0,-0.32,0,0,0.01,90,0,0,0,0,0,0,0,0,0.02,0,0,3,0,0,0,69,0,0,0,90.01,1,0.02,0.005,-0.0013,0.892,0,-0.0013,0,0,0,0,0,0,2,2,0,0,VALID,0,0,0,0,0,1,0,0,0,0,0,0,0,0,0,0,0,0,0,0,1974.1,2260.1,6,0,0.08,0.08,177,14.29,0.08,0.06,11.7,LANDED,X11-D,0:/Integrated Flight Computer/aircraft/x11_d_cfg.ks (inferred preloaded)
12.14,TAKEOFF,TO_GROUND_ROLL,35.63,80,44.37,5.2,-0.19,-0.2,0.1,90.03,0.102,1,0,0,0,0,0,0,0,0,0,0,0,0,0,0,90.01,0,1,0,-0.31,0,0,0.01,90,0,0,0,0,0,0,0,0,0.019,0,0,3,0,0,0,69,0,0,0,90.01,1,0.019,0.023,-0.0019,0.906,0,-0.0019,0,0,0,0,0,0,2,2,0,0,VALID,0,0,0,0,0,1,0,0,0,0,0,0,0,0,0,0,0,0,0,0,1987.07,2257.09,6,0,0.08,0.08,181,14.29,0.08,0.06,11.98,LANDED,X11-D,0:/Integrated Flight Computer/aircraft/x11_d_cfg.ks (inferred preloaded)
12.42,TAKEOFF,TO_GROUND_ROLL,37.1,80,42.9,5.19,-0.2,-0.22,0.07,90.05,0.102,1,0,0,0,0,0,0,0,0,0,0,0,0,0,0,90.01,0,1,0,-0.31,0,0,0.02,90,0,0,0,0,0,0,0,0,0.019,0,0,3,0,0,0,69,0,0,0,90.01,1,0.019,0.04,-0.0026,0.921,0,-0.0026,0,0,0,0,0,0,2,2,0,0,VALID,0,0,0,0,0,1,0,0,0,0,0,0,0,0,0,0,0,0,0,0,1999.13,2254.06,6,0,0.08,0.08,185,14.29,0.08,0.06,12.26,LANDED,X11-D,0:/Integrated Flight Computer/aircraft/x11_d_cfg.ks (inferred preloaded)
12.7,TAKEOFF,TO_GROUND_ROLL,38.58,80,41.42,5.17,-0.21,-0.25,0.04,90.06,0.102,1,0,0,0,0,0,0,0,0,0,0,0,0,0,0,90.01,0,1,0,-0.31,0,0,0.02,90,0,0,0,0,0,0,0,0,0.018,0,0,3,0,0,0,69,0,0,0,90.01,1,0.018,0.055,-0.0032,0.936,0,-0.0032,0,0,0,0,0,0,2,2,0,0,VALID,0,0,0,0,0,1,0,0,0,0,0,0,0,0,0,0,0,0,0,0,2010.34,2251.02,6,0,0.08,0.08,189,14.29,0.08,0.06,12.54,LANDED,X11-D,0:/Integrated Flight Computer/aircraft/x11_d_cfg.ks (inferred preloaded)
12.98,TAKEOFF,TO_GROUND_ROLL,40.06,80,39.94,5.19,-0.22,-0.21,0.08,90.08,0.102,1,0,0,0,0,0,0,0,0,0,0,0,0,0,0,90.01,0,1,0,-0.31,0,0,0.02,90,0,0,0,0,0,0,0,0,0.017,0,0,3,0,0,0,69,0,0,0,90.01,1,0.017,0.068,-0.0038,0.951,0,-0.0038,0,0,0,0,0,0,2,2,0,0,VALID,0,0,0,0,0,1,0,0,0,0,0,0,0,0,0,0,0,0,0,0,2020.74,2247.98,6,0,0.08,0.08,193,14.29,0.08,0.06,12.82,LANDED,X11-D,0:/Integrated Flight Computer/aircraft/x11_d_cfg.ks (inferred preloaded)
13.26,TAKEOFF,TO_GROUND_ROLL,41.56,80,38.44,5.2,-0.22,-0.2,0.09,90.09,0.102,1,0,0,0,0,0,0,0,0,0,0,0,0,0,0,90.01,0,1,0,-0.31,0,0,0.02,90,0,0,0,0,0,0,0,0,0.016,0,0,3,0,0,0,69,0,0,0,90.01,1,0.016,0.081,-0.0044,0.966,0,-0.0044,0,0,0,0,0,0,2,2,0,0,VALID,0,0,0,0,0,1,0,0,0,0,0,0,0,0,0,0,0,0,0,0,2030.39,2244.92,6,0,0.08,0.08,197,14.29,0.08,0.06,13.1,LANDED,X11-D,0:/Integrated Flight Computer/aircraft/x11_d_cfg.ks (inferred preloaded)
13.54,TAKEOFF,TO_GROUND_ROLL,43.06,80,36.94,5.18,-0.23,-0.23,0.06,90.1,0.103,1,0,0,0,0,0,0,0,0,0,0,0,0,0,0,90.01,0,1,0,-0.3,0,0,0.02,90,0,0,0,0,0,0,0,0,0.014,0,0,3,0,0,0,69,0,0,0,90.01,1,0.014,0.091,-0.0049,0.981,0,-0.0049,0,0,0,0,0,0,2,2,0,0,VALID,0,0,0,0,0,1,0,0,0,0,0,0,0,0,0,0,0,0,0,0,2039.33,2241.87,6,0,0.08,0.08,201,14.29,0.08,0.06,13.38,LANDED,X11-D,0:/Integrated Flight Computer/aircraft/x11_d_cfg.ks (inferred preloaded)
13.82,TAKEOFF,TO_GROUND_ROLL,44.57,80,35.43,5.18,-0.24,-0.23,0.06,90.11,0.102,1,0,0,0,0,0,0,0,0,0,0,0,0,0,0,90.01,0,1,0,-0.3,0,0,0.02,90,0,0,0,0,0,0,0,0,0.013,0,0,3,0,0,0,69,0,0,0,90.01,1,0.013,0.101,-0.0054,0.996,0,-0.0054,0,0,0,0,0,0,2,2,0,0,VALID,0,0,0,0,0,1,0,0,0,0,0,0,0,0,0,0,0,0,0,0,2047.6,2238.81,6,0,0.08,0.08,205,14.29,0.08,0.06,13.66,LANDED,X11-D,0:/Integrated Flight Computer/aircraft/x11_d_cfg.ks (inferred preloaded)
14.1,TAKEOFF,TO_GROUND_ROLL,46.08,80,33.92,5.2,-0.24,-0.19,0.09,90.12,0.103,1,0,0,0,0,0,0,0,0,0,0,0,0,0,0,90.01,0,1,0,-0.3,0,0,0.02,90,0,0,0,0,0,0,0,0,0.011,0,0,3,0,0,0,69,0,0,0,90.01,1,0.011,0.108,-0.0057,1,0,-0.0057,0,0,0,0,0,0,2,2,0,0,VALID,0,0,0,0,0,1,0,0,0,0,0,0,0,0,0,0,0,0,0,0,2055.25,2235.77,6,0,0.08,0.08,209,14.29,0.08,0.06,13.94,LANDED,X11-D,0:/Integrated Flight Computer/aircraft/x11_d_cfg.ks (inferred preloaded)
14.38,TAKEOFF,TO_GROUND_ROLL,47.6,80,32.4,5.19,-0.25,-0.2,0.08,90.12,0.102,1,0,0,0,0,0,0,0,0,0,0,0,0,0,0,90.01,0,1,0,-0.3,0,0,0.02,90,0,0,0,0,0,0,0,0,0.009,0,0,3,0,0,0,69,0,0,0,90.01,1,0.009,0.115,-0.0058,1,0,-0.0058,0,0,0,0,0,0,2,2,0,0,VALID,0,0,0,0,0,1,0,0,0,0,0,0,0,0,0,0,0,0,0,0,2062.3,2232.73,6,0,0.08,0.08,213,14.29,0.08,0.06,14.22,LANDED,X11-D,0:/Integrated Flight Computer/aircraft/x11_d_cfg.ks (inferred preloaded)
14.66,TAKEOFF,TO_GROUND_ROLL,49.12,80,30.88,5.18,-0.26,-0.22,0.06,90.12,0.102,1,0,0,0,0,0,0,0,0,0,0,0,0,0,0,90,0,1,0,-0.3,0,0,0.03,90,0,0,0,0,0,0,0,0,0.007,0,0,3,0,0,0,69,0,0,0,90,1,0.007,0.12,-0.006,1,0,-0.006,0,0,0,0,0,0,2,2,0,0,VALID,0,0,0,0,0,1,0,0,0,0,0,0,0,0,0,0,0,0,0,0,2068.81,2229.7,6,0,0.08,0.08,217,14.29,0.08,0.06,14.5,LANDED,X11-D,0:/Integrated Flight Computer/aircraft/x11_d_cfg.ks (inferred preloaded)
14.94,TAKEOFF,TO_GROUND_ROLL,50.65,80,29.35,5.19,-0.26,-0.2,0.08,90.13,0.102,1,0,0,0,0,0,0,0,0,0,0,0,0,0,0,90,0,1,0,-0.3,0,0,0.03,90,0,0,0,0,0,0,0,0,0.005,0,0,3,0,0,0,69,0,0,0,90,1,0.005,0.124,-0.0061,1,0,-0.0061,0,0,0,0,0,0,2,2,0,0,VALID,0,0,0,0,0,1,0,0,0,0,0,0,0,0,0,0,0,0,0,0,2074.79,2226.69,6,0,0.08,0.08,221,14.29,0.08,0.06,14.78,LANDED,X11-D,0:/Integrated Flight Computer/aircraft/x11_d_cfg.ks (inferred preloaded)
15.22,TAKEOFF,TO_GROUND_ROLL,52.19,80,27.81,5.2,-0.27,-0.19,0.09,90.13,0.103,1,0,0,0,0,0,0,0,0,0,0,0,0,0,0,90,0,1,0,-0.29,0,0,0.03,90,0,0,0,0,0,0,0,0,0.002,0,0,3,0,0,0,69,0,0,0,90,1,0.002,0.127,-0.0061,1,0,-0.0061,0,0,0,0,0,0,2,2,0,0,VALID,0,0,0,0,0,1,0,0,0,0,0,0,0,0,0,0,0,0,0,0,2080.3,2223.7,6,0,0.08,0.08,225,14.29,0.08,0.06,15.06,LANDED,X11-D,0:/Integrated Flight Computer/aircraft/x11_d_cfg.ks (inferred preloaded)
15.5,TAKEOFF,TO_GROUND_ROLL,53.73,80,26.27,5.19,-0.27,-0.2,0.07,90.13,0.103,1,0,0,0,0,0,0,0,0,0,0,0,0,0,0,90,0,1,0,-0.29,0,0,0.03,90,0,0,0,0,0,0,0,0,0,0,0,3,0,0,0,69,0,0,0,90,1,0,0.129,-0.0062,1,0,-0.0062,0,0,0,0,0,0,2,2,0,0,VALID,0,0,0,0,0,1,0,0,0,0,0,0,0,0,0,0,0,0,0,0,2085.34,2220.74,6,0,0.08,0.08,229,14.29,0.08,0.06,15.34,LANDED,X11-D,0:/Integrated Flight Computer/aircraft/x11_d_cfg.ks (inferred preloaded)
15.78,TAKEOFF,TO_GROUND_ROLL,55.27,80,24.73,5.19,-0.28,-0.21,0.07,90.13,0.103,1,0,0,0,0,0,0,0,0,0,0,0,0,0,0,90,0,1,0,-0.29,0,0,0.03,90,0,0,0,0,0,0,0,0,-0.003,0,0,3,0,0,0,69,0,0,0,90,1,-0.003,0.131,-0.0062,1,0,-0.0062,0,0,0,0,0,0,2,2,0,0,VALID,0,0,0,0,0,1,0,0,0,0,0,0,0,0,0,0,0,0,0,0,2089.97,2217.79,6,0,0.08,0.08,233,14.29,0.08,0.06,15.62,LANDED,X11-D,0:/Integrated Flight Computer/aircraft/x11_d_cfg.ks (inferred preloaded)
16.06,TAKEOFF,TO_GROUND_ROLL,56.82,80,23.18,5.2,-0.29,-0.18,0.09,90.13,0.103,1,0,0,0,0,0,0,0,0,0,0,0,0,0,0,90,0,1,0,-0.29,0,0,0.03,90,0,0,0,0,0,0,0,0,-0.005,0,0,3,0,0,0,69,0,0,0,90,1,-0.005,0.132,-0.0062,1,0,-0.0062,0,0,0,0,0,0,2,2,0,0,VALID,0,0,0,0,0,1,0,0,0,0,0,0,0,0,0,0,0,0,0,0,2094.2,2214.88,6,0,0.08,0.08,237,14.29,0.08,0.06,15.9,LANDED,X11-D,0:/Integrated Flight Computer/aircraft/x11_d_cfg.ks (inferred preloaded)
16.34,TAKEOFF,TO_GROUND_ROLL,58.37,80,21.63,5.2,-0.29,-0.18,0.09,90.13,0.103,1,0,0,0,0,0,0,0,0,0,0,0,0,0,0,89.99,0,1,0,-0.29,0,0,0.03,90,0,0,0,0,0,0,0,0,-0.008,0,0,3,0,0,0,69,0,0,0,89.99,1,-0.008,0.133,-0.0062,1,0,-0.0062,0,0,0,0,0,0,2,2,0,0,VALID,0,0,0,0,0,1,0,0,0,0,0,0,0,0,0,0,0,0,0,0,2098.06,2212,6,0,0.08,0.08,241,14.29,0.08,0.06,16.18,LANDED,X11-D,0:/Integrated Flight Computer/aircraft/x11_d_cfg.ks (inferred preloaded)
16.62,TAKEOFF,TO_GROUND_ROLL,59.92,80,20.08,5.19,-0.3,-0.2,0.08,90.12,0.103,1,0,0,0,0,0,0,0,0,0,0,0,0,0,0,89.99,0,1,0,-0.29,0,0,0.04,90,0,0,0,0,0,0,0,0,-0.011,0,0,3,0,0,0,69,0,0,0,89.99,1,-0.011,0.133,-0.0062,1,0,-0.0062,0,0,0,0,0,0,2,2,0,0,VALID,0,0,0,0,0,1,0,0,0,0,0,0,0,0,0,0,0,0,0,0,2101.58,2209.16,6,0,0.08,0.08,245,14.29,0.08,0.06,16.46,LANDED,X11-D,0:/Integrated Flight Computer/aircraft/x11_d_cfg.ks (inferred preloaded)
16.9,TAKEOFF,TO_GROUND_ROLL,61.47,80,18.53,5.2,-0.31,-0.18,0.09,90.12,0.103,1,0,0,0,0,0,0,0,0,0,0,0,0,0,0,89.99,0,1,0,-0.28,0,0,0.04,90,0,0,0,0,0,0,0,0,-0.013,0,0,3,0,0,0,69,0,0,0,89.99,1,-0.013,0.133,-0.0061,1,0,-0.0061,0,0,0,0,0,0,2,2,0,0,VALID,0,0,0,0,0,1,0,0,0,0,0,0,0,0,0,0,0,0,0,0,2104.78,2206.35,6,0,0.08,0.08,249,14.29,0.08,0.06,16.74,LANDED,X11-D,0:/Integrated Flight Computer/aircraft/x11_d_cfg.ks (inferred preloaded)
17.18,TAKEOFF,TO_GROUND_ROLL,63.03,80,16.97,5.2,-0.31,-0.17,0.1,90.12,0.103,1,0,0,0,0,0,0,0,0,0,0,0,0,0,0,89.99,0,1,0,-0.28,0,0,0.04,90,0,0,0,0,0,0,0,0,-0.016,0,0,3,0,0,0,69,0,0,0,89.99,1,-0.016,0.132,-0.0059,1,0,-0.0059,0,0,0,0,0,0,2,2,0,0,VALID,0,0,0,0,0,1,0,0,0,0,0,0,0,0,0,0,0,0,0,0,2107.69,2203.58,6,0,0.08,0.08,253,14.29,0.08,0.06,17.02,LANDED,X11-D,0:/Integrated Flight Computer/aircraft/x11_d_cfg.ks (inferred preloaded)
17.46,TAKEOFF,TO_GROUND_ROLL,64.59,80,15.41,5.2,-0.32,-0.18,0.09,90.11,0.103,1,0,0,0,0,0,0,0,0,0,0,0,0,0,0,89.98,0,1,0,-0.28,0,0,0.04,90,0,0,0,0,0,0,0,0,-0.019,0,0,3,0,0,0,69,0,0,0,89.98,1,-0.019,0.131,-0.006,1,0,-0.006,0,0,0,0,0,0,2,2,0,0,VALID,0,0,0,0,0,1,0,0,0,0,0,0,0,0,0,0,0,0,0,0,2110.32,2200.86,6,0,0.08,0.08,257,14.29,0.08,0.06,17.3,LANDED,X11-D,0:/Integrated Flight Computer/aircraft/x11_d_cfg.ks (inferred preloaded)
17.74,TAKEOFF,TO_GROUND_ROLL,66.15,80,13.85,5.2,-0.32,-0.18,0.09,90.11,0.103,1,0,0,0,0,0,0,0,0,0,0,0,0,0,0,89.98,0,1,0,-0.28,0,0,0.04,90,0,0,0,0,0,0,0,0,-0.022,0,0,3,0,0,0,69,0,0,0,89.98,1,-0.022,0.131,-0.0059,1,0,-0.0059,0,0,0,0,0,0,2,2,0,0,VALID,0,0,0,0,0,1,0,0,0,0,0,0,0,0,0,0,0,0,0,0,2112.7,2198.19,6,0,0.08,0.08,261,14.29,0.08,0.06,17.58,LANDED,X11-D,0:/Integrated Flight Computer/aircraft/x11_d_cfg.ks (inferred preloaded)
18.02,TAKEOFF,TO_GROUND_ROLL,67.72,80,12.28,5.2,-0.33,-0.17,0.1,90.11,0.103,1,0,0,0,0,0,0,0,0,0,0,0,0,0,0,89.98,0,1,0,-0.28,0,0,0.04,90,0,0,0,0,0,0,0,0,-0.025,0,0,3,0,0,0,69,0,0,0,89.98,1,-0.025,0.13,-0.0059,1,0,-0.0059,0,0,0,0,0,0,2,2,0,0,VALID,0,0,0,0,0,1,0,0,0,0,0,0,0,0,0,0,0,0,0,0,2114.85,2195.57,6,0,0.08,0.08,265,14.29,0.08,0.06,17.86,LANDED,X11-D,0:/Integrated Flight Computer/aircraft/x11_d_cfg.ks (inferred preloaded)
18.3,TAKEOFF,TO_GROUND_ROLL,69.28,80,10.72,5.2,-0.33,-0.16,0.1,90.1,0.103,1,0,0,0,0,0,0,0,0,0,0,0,0,0,0,89.97,0,1,0,-0.27,0,0,0.05,90,0,0,0,0,0,0,0,0,-0.027,0,0,3,0,0,0,69,0,0,0,89.97,1,-0.027,0.129,-0.0059,1,0,-0.0059,0,0,0,0,0,0,2,2,0,0,VALID,0,0,0,0,0,1,0,0,0,0,0,0,0,0,0,0,0,0,0,0,2117.05,2193.34,6,0,0.08,0.08,269,14.29,0.08,0.06,18.14,LANDED,X11-D,0:/Integrated Flight Computer/aircraft/x11_d_cfg.ks (inferred preloaded)
18.58,TAKEOFF,TO_GROUND_ROLL,70.85,80,9.15,5.19,-0.42,-0.17,0.16,90.1,0.107,1,0,0,0,0,0,0,0,0,0,0,0,0,0,0,89.97,0,1,0,-0.34,0,0,0.05,90,0,0,0,0,0,0,0,0,-0.03,0,0,3,0,0,0,69,0,0,0,89.97,1,-0.03,0.128,-0.0057,1,0,-0.0057,0,0,0,0,0,0,2,2,0,0,VALID,0,0,0,0,0,1,0,0,0,0,0,0,0,0,0,0,0,0,0,0,2119.98,2192.13,6,0,0.08,0.08,273,14.29,0.08,0.06,18.42,LANDED,X11-D,0:/Integrated Flight Computer/aircraft/x11_d_cfg.ks (inferred preloaded)
18.86,TAKEOFF,TO_GROUND_ROLL,72.42,80,7.58,5.21,-0.28,-0.16,0.05,90.1,0.101,1,0,0,0,0,0,0,0,0,0,0,0,0,0,0,89.97,0,1,0,-0.21,0,0,0.05,90,0,0,0,0,0,0,0,0,-0.033,0,0,3,0,0,0,69,0,0,0,89.97,1,-0.033,0.128,-0.0058,1,0,-0.0058,0,0,0,0,0,0,2,2,0,0,VALID,0,0,0,0,0,1,0,0,0,0,0,0,0,0,0,0,0,0,0,0,2123.66,2191.93,6,0,0.08,0.08,277,14.29,0.08,0.06,18.7,LANDED,X11-D,0:/Integrated Flight Computer/aircraft/x11_d_cfg.ks (inferred preloaded)
19.14,TAKEOFF,TO_GROUND_ROLL,73.99,80,6.01,5.2,-0.4,-0.15,0.15,90.09,0.104,1,0,0,0,0,0,0,0,0,0,0,0,0,0,0,89.97,0,1,0,-0.31,0,0,0.05,90,0,0,0,0,0,0,0,0,-0.036,0,0,3,0,0,0,69,0,0,0,89.97,1,-0.036,0.126,-0.0056,1,0,-0.0056,0,0,0,0,0,0,2,2,0,0,VALID,0,0,0,0,0,1,0,0,0,0,0,0,0,0,0,0,0,0,0,0,2128.08,2192.72,6,0,0.08,0.08,281,14.29,0.08,0.06,18.98,LANDED,X11-D,0:/Integrated Flight Computer/aircraft/x11_d_cfg.ks (inferred preloaded)
19.42,TAKEOFF,TO_GROUND_ROLL,75.57,80,4.43,5.21,-0.31,-0.15,0.07,90.09,0.103,1,0,0,0,0,0,0,0,0,0,0,0,0,0,0,89.96,0,1,0,-0.23,0,0,0.05,90,0,0,0,0,0,0,0,0,-0.038,0,0,3,0,0,0,69,0,0,0,89.96,1,-0.038,0.125,-0.0056,1,0,-0.0056,0,0,0,0,0,0,2,2,0,0,VALID,0,0,0,0,0,1,0,0,0,0,0,0,0,0,0,0,0,0,0,0,2133.23,2194.46,6,0,0.08,0.08,285,14.29,0.08,0.06,19.26,LANDED,X11-D,0:/Integrated Flight Computer/aircraft/x11_d_cfg.ks (inferred preloaded)
19.7,TAKEOFF,TO_GROUND_ROLL,77.15,80,2.85,5.2,-0.39,-0.15,0.13,90.08,0.103,1,0,0,0,0,0,0,0,0,0,0,0,0,0,0,89.96,0,1,0,-0.29,0,0,0.06,90,0,0,0,0,0,0,0,0,-0.041,0,0,3,0,0,0,69,0,0,0,89.96,1,-0.041,0.123,-0.0055,1,0,-0.0055,0,0,0,0,0,0,2,2,0,0,VALID,0,0,0,0,0,1,0,0,0,0,0,0,0,0,0,0,0,0,0,0,2139.11,2197.14,6,0,0.08,0.08,289,14.29,0.08,0.06,19.54,LANDED,X11-D,0:/Integrated Flight Computer/aircraft/x11_d_cfg.ks (inferred preloaded)
19.98,TAKEOFF,TO_GROUND_ROLL,78.73,80,1.27,5.21,-0.33,-0.14,0.09,90.08,0.104,1,0,0,0,0,0,0,0,0,0,0,0,0,0,0,89.96,0,1,0,-0.24,0,0,0.06,90,0,0,0,0,0,0,0,0,-0.044,0,0,3,0,0,0,69,0,0,0,89.96,1,-0.044,0.122,-0.0055,1,0,-0.0055,0,0,0,0,0,0,2,2,0,0,VALID,0,0,0,0,0,1,0,0,0,0,0,0,0,0,0,0,0,0,0,0,2145.7,2200.73,6,0,0.08,0.08,293,14.29,0.08,0.06,19.82,LANDED,X11-D,0:/Integrated Flight Computer/aircraft/x11_d_cfg.ks (inferred preloaded)
20.26,TAKEOFF,TO_GROUND_ROLL,80.32,80,-0.32,5.21,-0.38,-0.14,0.13,90.08,0.103,1,0,0,0,0,0,0,0,0,0,0,0,0,0,0,89.96,0,1,0,-0.27,0,0,0.06,90,0,0,0,0,0,0,0,0,-0.047,0,0,3,0,0,0,69,0,0,0,89.96,1,-0.047,0.121,-0.0055,1,0,-0.0055,0,0,0,0,0,0,2,2,0,0,VALID,0,0,0,0,0,1,0,0,0,0,0,0,0,0,0,0,0,0,0,0,2153.01,2205.22,6,0,0.08,0.08,297,14.29,0.08,0.06,20.1,LANDED,X11-D,0:/Integrated Flight Computer/aircraft/x11_d_cfg.ks (inferred preloaded)
20.54,TAKEOFF,TO_GROUND_ROLL,81.92,80,-1.92,5.21,-0.35,-0.14,0.1,90.07,0.104,1,0,0,0,0,0,0,0,0,0,0,0,0,0,0,89.95,0,1,0,-0.24,0,0,0.06,90,0,0,0,0,0,0,0,0,-0.049,0,0,3,0,0,0,69,0,0,0,89.95,1,-0.049,0.121,-0.0055,1,0,-0.0055,0,0,0,0,0,0,2,2,0,0,VALID,0,0,0,0,0,1,0,0,0,0,0,0,0,0,0,0,0,0,0,0,2161.01,2210.57,6,0,0.08,0.08,301,14.29,0.08,0.06,20.38,LANDED,X11-D,0:/Integrated Flight Computer/aircraft/x11_d_cfg.ks (inferred preloaded)
20.82,TAKEOFF,TO_GROUND_ROLL,83.52,80,-3.52,5.21,-0.38,-0.13,0.12,90.07,0.103,1,0,0,0,0,0,0,0,0,0,0,0,0,0,0,89.95,0,1,0,-0.26,0,0,0.07,90,0,0,0,0,0,0,0,0,-0.052,0,0,3,0,0,0,69,0,0,0,89.95,1,-0.052,0.12,-0.0054,1,0,-0.0054,0,0,0,0,0,0,2,2,0,0,VALID,0,0,0,0,0,1,0,0,0,0,0,0,0,0,0,0,0,0,0,0,2169.7,2216.76,6,0,0.08,0.08,305,14.29,0.08,0.06,20.66,LANDED,X11-D,0:/Integrated Flight Computer/aircraft/x11_d_cfg.ks (inferred preloaded)
21.1,TAKEOFF,TO_GROUND_ROLL,85.13,80,-5.13,5.22,-0.36,-0.12,0.11,90.07,0.104,1,0,0,0,0,0,0,0,0,0,0,0,0,0,0,89.95,0,1,0,-0.24,0,0,0.07,90,0,0,0,0,0,0,0,0,-0.055,0,0,3,0,0,0,69,0,0,0,89.95,1,-0.055,0.119,-0.0054,1,0,-0.0054,0,0,0,0,0,0,2,2,0,0,VALID,0,0,0,0,0,1,0,0,0,0,0,0,0,0,0,0,0,0,0,0,2179.06,2223.78,6,0,0.08,0.08,309,14.29,0.08,0.06,20.94,LANDED,X11-D,0:/Integrated Flight Computer/aircraft/x11_d_cfg.ks (inferred preloaded)
21.38,TAKEOFF,TO_GROUND_ROLL,86.75,80,-6.75,5.21,-0.38,-0.12,0.12,90.06,0.103,1,0,0,0,0,0,0,0,0,0,0,0,0,0,0,89.94,0,1,0,-0.25,0,0,0.07,90,0,0,0,0,0,0,0,0,-0.057,0,0,3,0,0,0,69,0,0,0,89.94,1,-0.057,0.119,-0.0054,1,0,-0.0054,0,0,0,0,0,0,2,2,0,0,VALID,0,0,0,0,0,1,0,0,0,0,0,0,0,0,0,0,0,0,0,0,2189.1,2231.61,6,0,0.08,0.08,313,14.29,0.08,0.06,21.22,LANDED,X11-D,0:/Integrated Flight Computer/aircraft/x11_d_cfg.ks (inferred preloaded)
21.66,TAKEOFF,TO_GROUND_ROLL,88.37,80,-8.37,5.22,-0.37,-0.12,0.11,90.06,0.104,1,0,0,0,0,0,0,0,0,0,0,0,0,0,0,89.94,0,1,0,-0.24,0,0,0.07,90,0,0,0,0,0,0,0,0,-0.06,0,0,3,0,0,0,69,0,0,0,89.94,1,-0.06,0.119,-0.0054,1,0,-0.0054,0,0,0,0,0,0,2,2,0,0,VALID,0,0,0,0,0,1,0,0,0,0,0,0,0,0,0,0,0,0,0,0,2199.79,2240.22,6,0,0.08,0.08,317,14.29,0.08,0.06,21.5,LANDED,X11-D,0:/Integrated Flight Computer/aircraft/x11_d_cfg.ks (inferred preloaded)
21.94,TAKEOFF,TO_GROUND_ROLL,90.01,80,-10.01,5.22,-0.39,-0.11,0.13,90.06,0.103,1,0,0,0,0,0,0,0,0,0,0,0,0,0,0,89.94,0,1,0,-0.25,0,0,0.08,90,0,0,0,0,0,0,0,0,-0.062,0,0,3,0,0,0,69,0,0,0,89.94,1,-0.062,0.119,-0.0054,1,0,-0.0054,0,0,0,0,0,0,2,2,0,0,VALID,0,0,0,0,0,1,0,0,0,0,0,0,0,0,0,0,0,0,0,0,2211.13,2249.6,6,0,0.08,0.08,321,14.29,0.08,0.06,21.78,LANDED,X11-D,0:/Integrated Flight Computer/aircraft/x11_d_cfg.ks (inferred preloaded)
22.22,TAKEOFF,TO_GROUND_ROLL,91.65,80,-11.65,5.22,-0.38,-0.1,0.12,90.06,0.104,1,0,0,0,0,0,0,0,0,0,0,0,0,0,0,89.94,0,1,0,-0.24,0,0,0.08,90,0,0,0,0,0,0,0,0,-0.065,0,0,3,0,0,0,69,0,0,0,89.94,1,-0.065,0.119,-0.0054,1,0,-0.0054,0,0,0,0,0,0,2,2,0,0,VALID,0,0,0,0,0,1,0,0,0,0,0,0,0,0,0,0,0,0,0,0,2223.1,2259.73,6,0,0.08,0.08,325,14.29,0.08,0.06,22.06,LANDED,X11-D,0:/Integrated Flight Computer/aircraft/x11_d_cfg.ks (inferred preloaded)
22.5,TAKEOFF,TO_GROUND_ROLL,93.3,80,-13.3,5.22,-0.39,-0.1,0.13,90.05,0.103,1,0,0,0,0,0,0,0,0,0,0,0,0,0,0,89.93,0,1,0,-0.24,0,0,0.08,90,0,0,0,0,0,0,0,0,-0.067,0,0,3,0,0,0,69,0,0,0,89.93,1,-0.067,0.12,-0.0055,1,0,-0.0055,0,0,0,0,0,0,2,2,0,0,VALID,0,0,0,0,0,1,0,0,0,0,0,0,0,0,0,0,0,0,0,0,2235.7,2270.57,6,0,0.08,0.08,329,14.29,0.08,0.06,22.34,LANDED,X11-D,0:/Integrated Flight Computer/aircraft/x11_d_cfg.ks (inferred preloaded)
22.78,TAKEOFF,TO_GROUND_ROLL,94.96,80,-14.96,5.22,-0.39,-0.1,0.13,90.05,0.104,1,0,0,0,0,0,0,0,0,0,0,0,0,0,0,89.93,0,1,0,-0.23,0,0,0.08,90,0,0,0,0,0,0,0,0,-0.07,0,0,3,0,0,0,69,0,0,0,89.93,1,-0.07,0.119,-0.0055,1,0,-0.0055,0,0,0,0,0,0,2,2,0,0,VALID,0,0,0,0,0,1,0,0,0,0,0,0,0,0,0,0,0,0,0,0,2248.9,2282.13,6,0,0.08,0.08,333,14.29,0.08,0.06,22.62,LANDED,X11-D,0:/Integrated Flight Computer/aircraft/x11_d_cfg.ks (inferred preloaded)
23.06,TAKEOFF,TO_GROUND_ROLL,96.63,80,-16.63,5.23,-0.39,-0.09,0.13,90.05,0.103,1,0,0,0,0,0,0,0,0,0,0,0,0,0,0,89.93,0,1,0,-0.23,0,0,0.09,90,0,0,0,0,0,0,0,0,-0.073,0,0,3,0,0,0,69,0,0,0,89.93,1,-0.073,0.12,-0.0055,1,0,-0.0055,0,0,0,0,0,0,2,2,0,0,VALID,0,0,0,0,0,1,0,0,0,0,0,0,0,0,0,0,0,0,0,0,2262.69,2294.37,6,0,0.08,0.08,337,14.29,0.08,0.06,22.9,LANDED,X11-D,0:/Integrated Flight Computer/aircraft/x11_d_cfg.ks (inferred preloaded)
23.34,TAKEOFF,TO_GROUND_ROLL,98.32,80,-18.32,5.23,-0.39,-0.08,0.13,90.05,0.104,1,0,0,0,0,0,0,0,0,0,0,0,0,0,0,89.93,0,1,0,-0.23,0,0,0.09,90,0,0,0,0,0,0,0,0,-0.075,0,0,3,0,0,0,69,0,0,0,89.93,1,-0.075,0.12,-0.0055,1,0,-0.0055,0,0,0,0,0,0,2,2,0,0,VALID,0,0,0,0,0,1,0,0,0,0,0,0,0,0,0,0,0,0,0,0,2277.06,2307.27,6,0,0.08,0.08,341,14.29,0.08,0.06,23.18,LANDED,X11-D,0:/Integrated Flight Computer/aircraft/x11_d_cfg.ks (inferred preloaded)
23.62,TAKEOFF,TO_GROUND_ROLL,100.01,80,-20.01,5.23,-0.39,-0.08,0.14,90.04,0.104,1,0,0,0,0,0,0,0,0,0,0,0,0,0,0,89.92,0,1,0,-0.23,0,0,0.09,90,0,0,0,0,0,0,0,0,-0.078,0,0,3,0,0,0,69,0,0,0,89.92,1,-0.078,0.12,-0.0055,1,0,-0.0055,0,0,0,0,0,0,2,2,0,0,VALID,0,0,0,0,0,1,0,0,0,0,0,0,0,0,0,0,0,0,0,0,2291.99,2320.81,6,0,0.08,0.08,345,14.29,0.08,0.06,23.46,LANDED,X11-D,0:/Integrated Flight Computer/aircraft/x11_d_cfg.ks (inferred preloaded)
23.9,TAKEOFF,TO_GROUND_ROLL,101.72,80,-21.72,5.23,-0.39,-0.07,0.14,90.04,0.105,1,0,0,0,0,0,0,0,0,0,0,0,0,0,0,89.92,0,1,0,-0.22,0,0,0.09,90,0,0,0,0,0,0,0,0,-0.08,0,0,3,0,0,0,69,0,0,0,89.92,1,-0.08,0.117,-0.0051,1,0,-0.0051,0,0,0,0,0,0,2,2,0,0,VALID,0,0,0,0,0,1,0,0,0,0,0,0,0,0,0,0,0,0,0,0,2307.47,2334.97,6,0,0.08,0.08,349,14.29,0.08,0.06,23.74,LANDED,X11-D,0:/Integrated Flight Computer/aircraft/x11_d_cfg.ks (inferred preloaded)
24.18,TAKEOFF,TO_GROUND_ROLL,103.43,80,-23.43,5.25,-0.28,-0.06,0.08,90.03,0.112,1,0,0,0,0,0,0,0,0,0,0,0,0,0,0,89.93,0,1,0,-0.14,0,0,0.1,90,0,0,0,0,0,0,0,0,-0.082,0,0,3,0,0,0,69,0,0,0,89.93,1,-0.082,0.102,-0.0037,1,0,-0.0037,0,0,0,0,0,0,2,2,0,0,VALID,0,0,0,0,0,1,0,0,0,0,0,0,0,0,0,0,0,0,0,0,2323.46,2349.72,6,0,0.08,0.08,353,14.29,0.08,0.06,24.02,LANDED,X11-D,0:/Integrated Flight Computer/aircraft/x11_d_cfg.ks (inferred preloaded)
24.46,TAKEOFF,TO_GROUND_ROLL,105.16,80,-25.16,5.22,-0.49,-0.07,0.2,90.01,0.105,1,0,0,0,0,0,0,0,0,0,0,0,0,0,0,89.93,0,1,0,-0.28,0,0,0.1,90,0,0,0,0,0,0,0,0,-0.084,0,0,3,0,0,0,69,0,0,0,89.93,1,-0.084,0.075,-0.0013,1,0,-0.0013,0,0,0,0,0,0,2,2,0,0,VALID,0,0,0,0,0,1,0,0,0,0,0,0,0,0,0,0,0,0,0,0,2339.97,2365.05,6,0,0.08,0.08,357,14.29,0.08,0.06,24.3,LANDED,X11-D,0:/Integrated Flight Computer/aircraft/x11_d_cfg.ks (inferred preloaded)
24.74,TAKEOFF,TO_GROUND_ROLL,106.91,80,-26.91,5.25,-0.32,-0.05,0.11,89.95,0.118,1,0,0,0,0,0,0,0,0,0,0,0,0,0,0,89.96,0,1,0,-0.16,0,0,0.1,90,0,0,0,0,0,0,0,0,-0.085,0,0,3,0,0,0,69,0,0,0,89.96,1,-0.085,-0.01,0.0052,1,0,0.0052,0,0,0,0,0,0,2,2,0,0,VALID,0,0,0,0,0,1,0,0,0,0,0,0,0,0,0,0,0,0,0,0,2356.96,2380.92,6,0,0.08,0.08,361,14.29,0.08,0.06,24.58,LANDED,X11-D,0:/Integrated Flight Computer/aircraft/x11_d_cfg.ks (inferred preloaded)
25.02,TAKEOFF,TO_GROUND_ROLL,108.66,80,-28.66,5.23,-0.45,-0.05,0.19,89.86,0.111,1,0,0,0,0,0,0,0,0,0,0,0,0,0,0,89.98,0,1,0,-0.25,0,0,0.11,90,0,0,0,0,0,0,0,0,-0.085,0,0,3,0,0,0,69,0,0,0,89.98,1,-0.085,-0.121,0.0141,1,0,0.0141,0,0,0,0,0,0,2,2,0,0,VALID,0,0,0,0,0,1,0,0,0,0,0,0,0,0,0,0,0,0,0,0,2374.41,2397.31,6,0,0.08,0.08,365,14.29,0.08,0.06,24.86,LANDED,X11-D,0:/Integrated Flight Computer/aircraft/x11_d_cfg.ks (inferred preloaded)
25.3,TAKEOFF,TO_GROUND_ROLL,110.43,80,-30.43,5.25,-0.35,-0.04,0.13,89.72,0.137,1,0,0,0,0,0,0,0,0,0,0,0,0,0,0,90.02,0,1,0,-0.18,0,0,0.11,90,0,0,0,0,0,0,0,0,-0.083,0,0,3,0,0,0,69,0,0,0,90.02,1,-0.083,-0.294,0.0264,1,0,0.0264,0,0,0,0,0,0,2,2,0,0,VALID,0,0,0,0,0,1,0,0,0,0,0,0,0,0,0,0,0,0,0,0,2392.3,2414.19,6,0,0.08,0.08,369,14.29,0.08,0.06,25.14,LANDED,X11-D,0:/Integrated Flight Computer/aircraft/x11_d_cfg.ks (inferred preloaded)
25.58,TAKEOFF,TO_GROUND_ROLL,112.22,80,-32.22,5.24,-0.43,-0.04,0.18,89.59,0.162,1,0,0,0,0,0,0,0,0,0,0,0,0,0,0,89.99,0,1,0,-0.23,0,0,0.11,90,0,0,0,0,0,0,0,0,-0.076,0,0,3,0,0,0,69,0,0,0,89.99,1,-0.076,-0.395,0.0268,1,0,0.0268,0,0,0,0,0,0,2,2,0,0,VALID,0,0,0,0,0,1,0,0,0,0,0,0,0,0,0,0,0,0,0,0,2410.6,2431.53,6,0,0.08,0.08,373,14.29,0.08,0.06,25.42,LANDED,X11-D,0:/Integrated Flight Computer/aircraft/x11_d_cfg.ks (inferred preloaded)
25.86,TAKEOFF,TO_GROUND_ROLL,114.02,80,-34.02,5.25,-0.37,-0.02,0.15,89.55,0.079,1,0,0,0,0,0,0,0,0,0,0,0,0,0,0,89.95,0,1,0,-0.18,0,0,0.12,90,0,0,0,0,0,0,0,0,-0.063,0,0,3,0,0,0,69,0,0,0,89.95,1,-0.063,-0.406,0.0211,1,0,0.0211,0,0,0,0,0,0,2,2,0,0,VALID,0,0,0,0,0,1,0,0,0,0,0,0,0,0,0,0,0,0,0,0,2429.28,2449.31,6,0,0.08,0.08,377,14.29,0.08,0.06,25.7,LANDED,X11-D,0:/Integrated Flight Computer/aircraft/x11_d_cfg.ks (inferred preloaded)
26.14,TAKEOFF,TO_GROUND_ROLL,115.83,80,-35.83,5.24,-0.41,-0.03,0.17,89.55,0.113,1,0,0,0,0,0,0,0,0,0,0,0,0,0,0,89.94,0,1,0,-0.21,0,0,0.12,90,0,0,0,0,0,0,0,0,-0.049,0,0,3,0,0,0,69,0,0,0,89.94,1,-0.049,-0.382,0.0163,1,0,0.0163,0,0,0,0,0,0,2,2,0,0,VALID,0,0,0,0,0,1,0,0,0,0,0,0,0,0,0,0,0,0,0,0,2448.33,2467.49,6,0,0.08,0.08,381,14.29,0.08,0.06,25.98,LANDED,X11-D,0:/Integrated Flight Computer/aircraft/x11_d_cfg.ks (inferred preloaded)
26.42,TAKEOFF,TO_GROUND_ROLL,117.66,80,-37.66,5.25,-0.38,-0.02,0.16,89.59,0.086,1,0,0,0,0,0,0,0,0,0,0,0,0,0,0,89.94,0,1,0,-0.18,0,0,0.12,90,0,0,0,0,0,0,0,0,-0.036,0,0,3,0,0,0,69,0,0,0,89.94,1,-0.036,-0.344,0.0129,1,0,0.0129,0,0,0,0,0,0,2,2,0,0,VALID,0,0,0,0,0,1,0,0,0,0,0,0,0,0,0,0,0,0,0,0,2467.69,2486.03,6,0,0.08,0.08,385,14.29,0.08,0.06,26.26,LANDED,X11-D,0:/Integrated Flight Computer/aircraft/x11_d_cfg.ks (inferred preloaded)
26.7,TAKEOFF,TO_GROUND_ROLL,119.5,80,-39.5,5.25,-0.4,-0.01,0.18,89.64,0.106,1,0,0,0,0,0,0,0,0,0,0,0,0,0,0,89.95,0,1,0,-0.2,0,0,0.13,90,0,0,0,0,0,0,0,0,-0.023,0,0,3,0,0,0,69,0,0,0,89.95,1,-0.023,-0.312,0.0112,1,0,0.0112,0,0,0,0,0,0,2,2,0,0,VALID,0,0,0,0,0,1,0,0,0,0,0,0,0,0,0,0,0,0,0,0,2487.35,2504.91,6,0,0.08,0.08,389,14.29,0.08,0.06,26.54,LANDED,X11-D,0:/Integrated Flight Computer/aircraft/x11_d_cfg.ks (inferred preloaded)
27,TAKEOFF,TO_ROTATE,121.5,80,-41.5,5.26,-0.39,0,0.17,89.69,0.085,1,0,0,0,0,0,0,0,0,0,0,0,0,0,0,89.95,0.5,1,0,-0.18,0,0,0.13,90,0,0,0,0,0,0,0,0,-0.012,0,0,3,0,0,0,69,0,0,0,89.95,1,-0.012,-0.263,0.0079,1,0,0.0079,0,0.145,0.5,0.5,0.08,0,2,2,0,0,VALID,0,0,0,0,0,1,0,0,0,0,0,0,0,0,0,0,0,0,0,0,2508.69,2525.45,6,0,0.08,0.08,393,13.33,0.08,0.06,26.82,LANDED,X11-D,0:/Integrated Flight Computer/aircraft/x11_d_cfg.ks (inferred preloaded)
27.28,TAKEOFF,TO_ROTATE,123.37,80,-43.37,5.29,-0.4,0.05,0.23,89.76,0.093,1,0,0,0,0,0,0,0,0,0,0,0,0,0,0,89.95,1.508,1,0,-0.19,0,0,0.13,90,0,0,0,0,0,0,0,0,-0.001,0,0,3,0,0,0,69,0,0,0,89.95,1,-0.001,-0.186,0.0023,1,0,0.0023,0,0.2699,1.508,1.461,0.08,0,2,2,0,0,VALID,0,0,0,0,0,1,0,0,0,0,0,0,0,0,0,0,0,0,0,0,2528.82,2544.86,6,0,0.08,0.08,397,14.29,0.08,0.06,27.1,LANDED,X11-D,0:/Integrated Flight Computer/aircraft/x11_d_cfg.ks (inferred preloaded)
27.56,TAKEOFF,TO_ROTATE,125.25,80,-45.25,5.36,-0.37,0.15,0.31,89.84,0.064,1,0,0,0,0,0,0,0,0,0,0,0,0,0,0,89.96,2.516,1,0,-0.17,0,0,0.14,90,0,0,0,0,0,0,0,0,0.007,0,0,3,0,0,0,69,0,0,0,89.96,1,0.007,-0.122,0.0002,1,0,0.0002,0,0.3878,2.516,2.367,0.08,0,2,2,0,0,VALID,0,0,0,0,0,1,0,0,0,0,0,0,0,0,0,0,0,0,0,0,2549.02,2564.37,6,0,0.08,0.08,401,14.29,0.08,0.06,27.38,LANDED,X11-D,0:/Integrated Flight Computer/aircraft/x11_d_cfg.ks (inferred preloaded)
27.86,TAKEOFF,TO_ROTATE,127.27,80,-47.27,5.49,-0.32,0.31,0.45,89.89,0.104,1,0,0,0,0,0,0,0,0,0,0,0,0,0,0,89.99,3.596,1,0,-0.14,0,0,0.14,90,0,0,0,0,0,0,0,0,0.012,0,0,3,0,0,0,69,0,0,0,89.99,1,0.012,-0.098,0.0017,1,0,0.0017,0,0.5067,3.596,3.282,0.08,0,2,2,0,0,VALID,0,0,0,0,0,1,0,0,0,0,0,0,0,0,0,0,0,0,0,0,2570.63,2585.27,6,0,0.08,0.08,405,13.33,0.08,0.06,27.68,LANDED,X11-D,0:/Integrated Flight Computer/aircraft/x11_d_cfg.ks (inferred preloaded)
28.14,TAKEOFF,TO_ROTATE,129.14,80,-49.14,5.78,-0.25,0.66,0.77,89.92,0.09,1,0,0,0,0,0,0,0,0,0,0,0,0,0,0,90,4.604,1,0,-0.11,0,0,0.14,90,0,0,0,0,0,0,0,0,0.014,0,0,3,0,0,0,69,0,0,0,90,1,0.014,-0.078,0.0016,1,0,0.0016,0,0.5928,4.604,3.944,0.08,0,2,2,0,0,VALID,0,0,0,0,0,1,0,0,0,0,0,0,0,0,0,0,0,0,0,0,2590.67,2604.67,6,0,0.08,0.08,409,14.29,0.08,0.06,27.96,LANDED,X11-D,0:/Integrated Flight Computer/aircraft/x11_d_cfg.ks (inferred preloaded)
28.42,TAKEOFF,TO_ROTATE,131.01,80,-51.01,6.33,-0.19,1.32,1.42,89.94,0.107,1,0,0,0,0,0,0,0,0,0,0,0,0,0,0,90,5.612,1,0,-0.1,0,0,0.15,90,0,0,0,0,0,0,0,0,0.015,0,0,3,0,0,0,69,0,0,0,90,1,0.015,-0.059,0.0009,1,0,0.0009,0,0.6376,5.612,4.289,0.08,0,2,2,0,0,VALID,0,0,0,0,0,1,0,0,0,0,0,0,0,0,0,0,0,0,0,0,2610.69,2624.11,6,0,0.08,0.08,413,14.29,0.08,0.06,28.24,LANDED,X11-D,0:/Integrated Flight Computer/aircraft/x11_d_cfg.ks (inferred preloaded)
28.7,TAKEOFF,TO_ROTATE,132.86,80,-52.86,7.2,0.08,2.35,2.31,89.96,0.092,1,0,0,0,0,0,0,0,0,0,0,0,0,0,0,90,6.62,1,0,0.04,0,0,0.15,90,0,0,0,0,0,0,0,0,0.016,0,0,3,0,0,0,69,0,0,0,90,1,0.016,-0.04,0.0002,1,0,0.0002,0,0.6349,6.62,4.269,0.08,0,2,2,0,0,VALID,0,0,0,0,0,1,0,0,0,0,0,0,0,0,0,0,0,0,0,0,2630.88,2643.74,6,0,0.08,0.08,417,14.29,0.08,0.06,28.52,LANDED,X11-D,0:/Integrated Flight Computer/aircraft/x11_d_cfg.ks (inferred preloaded)
28.98,TAKEOFF,TO_ROTATE,134.71,80,-54.71,8.42,0.07,3.84,3.82,89.98,0.105,1,0,0,0,0,0,0,0,0,0,0,0,0,0,0,90,7.628,1,0,0.02,0,0,0.15,90,0,0,0,0,0,0,0,0,0.017,0,0,3,0,0,0,69,0,0,0,90,1,0.017,-0.021,-0.0005,1,0,-0.0005,0,0.5724,7.628,3.788,0.08,0,2,2,0,0,VALID,0,0,0,0,0,1,0,0,0,0,0,0,0,0,0,0,0,0,0,0,2651.25,2663.58,6,0,0.08,0.08,421,14.29,0.08,0.06,28.8,LANDED,X11-D,0:/Integrated Flight Computer/aircraft/x11_d_cfg.ks (inferred preloaded)
29.26,TAKEOFF,TO_ROTATE,136.52,80,-56.52,10.03,0.54,5.78,5.57,90,0.098,1,0,0,0,0,0,0,0,0,0,0,0,0,0,0,90,8.636,1,0,0.21,0,0,0.16,90,0,0,0,0,0,0,0,0,0.018,0,0,3,0,0,0,69,0,0,0,90,1,0.018,-0.001,-0.0013,1,0,-0.0013,0,0.4519,8.636,2.861,0.08,0,2,2,0,0,VALID,0,0,0,0,0,1,0,0,0,0,0,0,0,0,0,0,0,0,0,0,2671.63,2683.42,6,0,0.08,0.08,425,14.29,0.08,0.06,29.08,LANDED,X11-D,0:/Integrated Flight Computer/aircraft/x11_d_cfg.ks (inferred preloaded)
29.54,TAKEOFF,TO_ROTATE,138.21,80,-58.21,11.82,1.79,7.82,7.03,90.02,0.083,1,0,0,0,0,0,0,0,0,0,0,0,0,0,0,90.01,9.644,1,0,0.81,0,0,0.16,90,0,0,0,0,0,0,0,0,0.018,0,0,3,0,0,0,69,0,0,0,90.01,1,0.018,0.004,-0.0006,1,0,-0.0006,0,0.3172,9.644,1.825,0.08,0,2,2,0,0,VALID,0,0,0,0,0,1,0,0,0,0,0,0,0,0,0,0,0,0,0,0,2690.88,2702.03,6,0,0.08,0.08,429,14.29,0.08,0.06,29.36,LANDED,X11-D,0:/Integrated Flight Computer/aircraft/x11_d_cfg.ks (inferred preloaded)
29.82,TAKEOFF,TO_ROTATE,139.83,80,-59.83,13.29,1.38,9.05,8.5,90.01,0.058,1,0,0,0,0,0,0,0,0,0,0,0,0,0,0,90.03,10,1,0,0.57,0,0,0.16,90,0,0,0,0,0,0,0,0,0.018,0,0,3,0,0,0,69,0,0,0,90.03,1,0.018,-0.015,0.0013,1,0,0.0013,0,0.204,10,0.954,0.08,0,2,2,0,0,VALID,0,0,0,0,0,1,0,0,0,0,0,0,0,0,0,0,0,0,0,0,2709.41,2720.15,6,0,0.08,0.08,433,14.29,0.08,0.06,29.64,LANDED,X11-D,0:/Integrated Flight Computer/aircraft/x11_d_cfg.ks (inferred preloaded)
30.1,TAKEOFF,TO_ROTATE,141.46,80,-61.46,14.85,1.91,10.47,9.72,90.01,0.044,1,0,0,0,0,0,0,0,0,0,0,0,0,0,0,90.01,10,1,0,0.76,0,0,0.17,90,0,0,0,0,0,0,0,0,0.018,0,0,3,0,0,0,69,0,0,0,90.01,1,0.018,-0.003,-0.0004,1,0,-0.0004,0,0.0192,10,-0.467,0.08,0,2,2,0,0,VALID,0,0,0,0,0,1,0,0,0,0,0,0,0,0,0,0,0,0,0,0,2728.23,2738.47,6,0,0.08,0.08,437,14.29,0.08,0.06,29.92,LANDED,X11-D,0:/Integrated Flight Computer/aircraft/x11_d_cfg.ks (inferred preloaded)
30.36,TAKEOFF,TO_ROTATE,142.88,80,-62.88,16.43,2.21,11.91,10.96,90.02,0.043,1,0,0,0,0,0,0,0,0,0,0,0,0,0,0,90,10,0,1,0.89,0,0,10,90,0.9469,0.0001,0.3215,10,90,0,0,0,0,0,0,3,0,0,0,69,0,0,0,90,1,0,0.022,0,0,3,0,0,0,10,-1.909,0,0,2,2,0,0,VALID,0,0,0,0,0,1,0,0,0,0,0,0,0,0,0,0,0,0,0,0,2744.89,2754.65,6,0,0.08,0.08,441,15.38,0.08,0.06,30.18,FLYING,X11-D,0:/Integrated Flight Computer/aircraft/x11_d_cfg.ks (inferred preloaded)
30.64,TAKEOFF,TO_ROTATE,144.22,80,-64.22,18.11,3.11,13.08,11.82,90.01,0.034,1,0,0,0,0,0,0,0,0,0,0,0,0,0,0,90,10,0,1,1.23,0,0,10,90,0.9469,0.0001,0.3215,10,90,0,0,0,0,0,0,3,0,0,0,69,0,0,0,90,1,0,0.013,0,0,3,0,0,0,10,-3.076,0,0,2,2,0,0,VALID,0,0,0,0,0,1,0,0,0,0,0,0,0,0,0,0,0,0,0,0,2760.81,2769.98,6,0,0.08,0.08,445,14.29,0.08,0.06,30.46,FLYING,X11-D,0:/Integrated Flight Computer/aircraft/x11_d_cfg.ks (inferred preloaded)
30.92,TAKEOFF,TO_CLIMB,145.53,80,-65.53,19.97,3.55,14.21,12.77,90.01,0.026,1,0,0,0,0,0,0,0,0,0,0,0,0,0,0,90,13.645,0,1,1.4,0,0,10,90,0.9654,0.0002,0.2608,13.64,90,0,0,0,0,0,0,3,0,0,0,69,0,0,0,90,1,0,0.012,0,0,3,0,0,0,10,-3.869,0,0,1,1,0,0,VALID,0,0,0,0,0,1,0,0,0,0,0,0,0,0,0,0,0,0,0,0,2776.18,2784.95,6,0,0.08,0.08,449,14.29,0.08,0.06,30.76,FLYING,X11-D,0:/Integrated Flight Computer/aircraft/x11_d_cfg.ks (inferred preloaded)
31.2,TAKEOFF,TO_CLIMB,146.65,80,-66.65,22.09,4.81,15.47,13.58,90.01,0.022,1,0,0,0,0,0,0,0,0,0,0,0,0,0,0,90,12.861,0,1,1.88,0,0,13.09,90,0.9617,0.0002,0.274,12.86,90,0,0,0,0,0,0,3,0,0,0,69,0,0,0,90,1,0,0.01,0,0,3,0,0,0,10,-3.869,0,0,1,1,0,0,VALID,0,0,0,0,0,1,0,0,0,0,0,0,0,0,0,0,0,0,0,0,2789.69,2797.92,6,0,0.08,0.08,453,14.29,0.08,0.06,31.04,FLYING,X11-D,0:/Integrated Flight Computer/aircraft/x11_d_cfg.ks (inferred preloaded)
31.48,TAKEOFF,TO_CLIMB,147.67,80,-67.67,24.4,6.42,16.39,13.97,90.01,0.016,1,0,0,0,0,0,0,0,0,0,0,0,0,0,0,90,12.077,0,1,2.49,0,0,12.3,90,0.9579,0.0002,0.2872,12.08,90,0,0,0,0,0,0,3,0,0,0,69,0,0,0,90,1,0,0.01,0,0,3,0,0,0,10,-3.869,0,0,1,1,0,0,VALID,0,0,0,0,0,1,0,0,0,0,0,0,0,0,0,0,0,0,0,0,2802.04,2809.75,6,0,0.08,0.08,457,14.29,0.08,0.06,31.32,FLYING,X11-D,0:/Integrated Flight Computer/aircraft/x11_d_cfg.ks (inferred preloaded)
31.76,TAKEOFF,TO_CLIMB,148.58,80,-68.58,26.62,8.09,16.58,13.6,90.01,0.013,1,0,0,0,0,0,0,0,0,0,0,0,0,0,0,90,11.293,0,1,3.12,0,0,11.52,90,0.9538,0.0001,0.3004,11.29,90,0,0,0,0,0,0,3,0,0,0,69,0,0,0,90,1,0,0.01,0,0,3,0,0,0,10,-3.869,0,0,1,1,0,0,VALID,0,0,0,0,0,1,0,0,0,0,0,0,0,0,0,0,0,0,0,0,2812.82,2820.15,6,0,0.08,0.08,461,14.29,0.08,0.06,31.6,FLYING,X11-D,0:/Integrated Flight Computer/aircraft/x11_d_cfg.ks (inferred preloaded)
32.04,TAKEOFF,TO_CLIMB,149.54,80,-69.54,28.8,9.21,16.07,12.67,90.01,0.019,1,0,0,0,0,0,0,0,0,0,0,0,0,0,0,90,10.509,0,1,3.52,0,0,10.73,90,0.9496,0.0001,0.3135,10.51,90,0,0,0,0,0,0,3,0,0,0,69,0,0,0,90,1,0,0.012,0,0,3,0,0,0,10,-3.869,0,0,1,1,0,0,VALID,0,0,0,0,0,1,0,0,0,0,0,0,0,0,0,0,0,0,0,0,2823.77,2830.99,6,0,0.08,0.08,465,14.29,0.08,0.06,31.88,FLYING,X11-D,0:/Integrated Flight Computer/aircraft/x11_d_cfg.ks (inferred preloaded)
32.32,TAKEOFF,TO_CLIMB,150.69,80,-70.69,31.33,10.48,15.62,11.82,90.01,0.01,0.9931,0,0,0,0,0,0,0,0,0,0,0,0,0,0,90,9.725,0,1,3.98,0,0,9.95,90,0.9452,0.0001,0.3265,9.72,90,0,0,0,0,0,0,3,0,0,0,69,0,0,0,90,1,0,0.01,0,0,3,0,0,0,10,-3.869,0,0,1,1,0,0,VALID,0,0,0,0,0,1,0,0,0,0,0,0,0,0,0,0,0,0,0,0,2837.27,2844.29,6,0,0.08,0.08,469,14.29,0.08,0.06,32.16,FLYING,X11-D,0:/Integrated Flight Computer/aircraft/x11_d_cfg.ks (inferred preloaded)
32.6,TAKEOFF,TO_CLIMB,151.88,80,-71.88,33.92,11.24,14.86,10.77,90.01,0.01,0.9812,0,0,0,0,0,0,0,0,0,0,0,0,0,0,90,8.941,0,1,4.23,0,0,9.17,90,0.9406,0.0001,0.3395,8.94,90,0,0,0,0,0,0,3,0,0,0,69,0,0,0,90,1,0,0.01,0,0,3,0,0,0,10,-3.869,0,0,1,1,0,0,VALID,0,0,0,0,0,1,0,0,0,0,0,0,0,0,0,0,0,0,0,0,2848.63,2857.93,6,0,0.08,0.08,473,14.29,0.08,0.06,32.44,FLYING,X11-D,0:/Integrated Flight Computer/aircraft/x11_d_cfg.ks (inferred preloaded)
32.88,TAKEOFF,TO_CLIMB,153.25,80,-73.25,36.89,11.85,14.35,10.06,90.01,0.008,0.9675,0,0,0,0,0,0,0,0,0,0,0,0,0,0,90,8.157,0,1,4.42,0,0,8.38,90,0.9359,0.0001,0.3524,8.16,90,0,0,0,0,0,0,3,0,0,0,69,0,0,0,90,1,0,0.011,0,0,3,0,0,0,10,-3.869,0,0,1,1,0,0,VALID,0,0,0,0,0,1,0,0,0,0,0,0,0,0,0,0,0,0,0,0,2859.15,2873.85,6,0,0.08,0.08,477,14.29,0.08,0.06,32.72,FLYING,X11-D,0:/Integrated Flight Computer/aircraft/x11_d_cfg.ks (inferred preloaded)
33.16,TAKEOFF,TO_CLIMB,154.67,80,-74.67,40.19,12.43,14.11,9.64,90.01,0.004,0.9533,0,0,0,0,0,0,0,0,0,0,0,0,0,0,90,7.373,0,1,4.59,0,0,7.6,90,0.9309,0.0001,0.3652,7.37,90,0,0,0,0,0,0,3,0,0,0,69,0,0,0,90,1,0,0.008,0,0,3,0,0,0,10,-3.869,0,0,1,1,0,0,VALID,0,0,0,0,0,1,0,0,0,0,0,0,0,0,0,0,0,0,0,0,2867.09,2890.57,6,0,0.08,0.08,481,14.29,0.08,0.06,33,FLYING,X11-D,0:/Integrated Flight Computer/aircraft/x11_d_cfg.ks (inferred preloaded)
33.44,TAKEOFF,TO_CLIMB,156.12,80,-76.12,43.67,12.91,13.92,9.32,90.01,0.003,0.9388,0,0,0,0,0,0,0,0,0,0,0,0,0,0,90,7,0,1,4.73,0,0,7,90,0.9285,0.0001,0.3713,7,90,0,0,0,0,0,0,3,0,0,0,69,0,0,0,90,1,0,0.009,0,0,3,0,0,0,10,-3.869,0,0,1,1,0,0,VALID,0,0,0,0,0,1,0,0,0,0,0,0,0,0,0,0,0,0,0,0,2872.11,2907.64,6,0,0.08,0.08,485,14.29,0.08,0.06,33.28,FLYING,X11-D,0:/Integrated Flight Computer/aircraft/x11_d_cfg.ks (inferred preloaded)
33.72,TAKEOFF,TO_CLIMB,157.59,80,-77.59,47.3,13.38,13.76,9.03,90.01,0,0.9241,0,0,0,0,0,0,0,0,0,0,0,0,0,0,90,7,0,1,4.85,0,0,7,90,0.9285,0.0001,0.3714,7,90,0,0,0,0,0,0,3,0,0,0,69,0,0,0,90,1,0,0.008,0,0,3,0,0,0,10,-3.869,0,0,1,1,0,0,VALID,0,0,0,0,0,1,0,0,0,0,0,0,0,0,0,0,0,0,0,0,2874.46,2925.09,6,0,0.08,0.08,489,14.29,0.08,0.06,33.56,FLYING,X11-D,0:/Integrated Flight Computer/aircraft/x11_d_cfg.ks (inferred preloaded)
34,TAKEOFF,TO_CLIMB,159.08,80,-79.08,51.09,13.74,13.68,8.86,90.01,-0.002,0.9092,0,0,0,0,0,0,0,0,0,0,0,0,0,0,90,7,0,1,4.94,0,0,7,90,0.9285,0.0001,0.3715,7,90,0,0,0,0,0,0,3,0,0,0,69,0,0,0,90,1,0,0.007,0,0,3,0,0,0,10,-3.869,0,0,1,1,0,0,VALID,0,0,0,0,0,1,0,0,0,0,0,0,0,0,0,0,0,0,0,0,2874.2,2942.88,6,0,0.08,0.08,493,14.29,0.08,0.06,33.84,FLYING,X11-D,0:/Integrated Flight Computer/aircraft/x11_d_cfg.ks (inferred preloaded)
34.28,TAKEOFF,TO_CLIMB,160.59,80,-80.59,55.11,14.11,13.78,8.87,90.01,-0.006,0.8941,0,0,0,0,0,0,0,0,0,0,0,0,0,0,90,7,0,1,5.02,0,0,7,90,0.9284,0.0001,0.3715,7,90,0,0,0,0,0,0,3,0,0,0,69,0,0,0,90,1,0,0.006,0,0,3,0,0,0,10,-3.869,0,0,1,1,0,0,VALID,0,0,0,0,0,1,0,0,0,0,0,0,0,0,0,0,0,0,0,0,2871.56,2961.02,6,0,0.08,0.08,497,14.29,0.08,0.06,34.12,FLYING,X11-D,0:/Integrated Flight Computer/aircraft/x11_d_cfg.ks (inferred preloaded)
34.56,TAKEOFF,TO_CLIMB,162.05,80,-82.05,59.19,14.48,13.79,8.76,90.01,-0.005,0.8795,0,0,0,0,0,0,0,0,0,0,0,0,0,0,90,7,0,1,5.1,0,0,7,90,0.9284,0.0001,0.3716,7,90,0,0,0,0,0,0,3,0,0,0,69,0,0,0,90,1,0,0.008,0,0,3,0,0,0,10,-3.869,0,0,1,1,0,0,VALID,0,0,0,0,0,1,0,0,0,0,0,0,0,0,0,0,0,0,0,0,2865.87,2978.66,6,0,0.08,0.08,501,14.29,0.08,0.06,34.4,FLYING,X11-D,0:/Integrated Flight Computer/aircraft/x11_d_cfg.ks (inferred preloaded)
34.84,TAKEOFF,TO_CLIMB,163.53,80,-83.53,63.6,15.1,14.05,8.89,90.01,-0.009,0.8647,0,0,0,0,0,0,0,0,0,0,0,0,0,0,90,7,0,1,5.27,0,0,7,90,0.9284,0.0001,0.3717,7,90,0,0,0,0,0,0,3,0,0,0,69,0,0,0,90,1,0,0.007,0,0,3,0,0,0,10,-3.869,0,0,1,1,0,0,VALID,0,0,0,0,0,1,0,0,0,0,0,0,0,0,0,0,0,0,0,0,2858.21,2996.6,6,0,0.08,0.08,505,14.29,0.08,0.06,34.68,FLYING,X11-D,0:/Integrated Flight Computer/aircraft/x11_d_cfg.ks (inferred preloaded)
35.12,TAKEOFF,TO_CLIMB,164.91,80,-84.91,67.81,15.63,13.84,8.55,90.01,-0.009,0.8509,0,0,0,0,0,0,0,0,0,0,0,0,0,0,90,7,0,1,5.42,0,0,7,90,0.9283,0.0001,0.3717,7,90,0,0,0,0,0,0,3,0,0,0,69,0,0,0,90,1,0,0.006,0,0,3,0,0,0,10,-3.869,0,0,1,1,0,0,VALID,0,0,0,0,0,1,0,0,0,0,0,0,0,0,0,0,0,0,0,0,2847.3,3013.39,6,0,0.08,0.08,509,14.29,0.08,0.06,34.96,FLYING,X11-D,0:/Integrated Flight Computer/aircraft/x11_d_cfg.ks (inferred preloaded)
35.4,TAKEOFF,TO_CLIMB,166.39,80,-86.39,72.14,16.03,13.61,8.2,90.01,-0.009,0.8361,0,0,0,0,0,0,0,0,0,0,0,0,0,0,90,7,0,1,5.5,0,0,7,90,0.9283,0.0001,0.3718,7,90,0,0,0,0,0,0,3,0,0,0,69,0,0,0,90,1,0,0.007,0,0,3,0,0,0,10,-3.869,0,0,1,1,0,0,VALID,0,0,0,0,0,1,0,0,0,0,0,0,0,0,0,0,0,0,0,0,2835.75,3031.43,6,0,0.08,0.08,513,14.29,0.08,0.06,35.24,FLYING,X11-D,0:/Integrated Flight Computer/aircraft/x11_d_cfg.ks (inferred preloaded)
35.68,TAKEOFF,TO_CLIMB,167.87,80,-87.87,76.93,16.41,13.91,8.42,90,-0.012,0.8213,0,0,0,0,0,0,0,0,0,0,0,0,0,0,90,7,0,1,5.58,0,0,7,90,0.9283,0.0001,0.3719,7,90,0,0,0,0,0,0,3,0,0,0,69,0,0,0,90,1,0,0.004,0,0,3,0,0,0,10,-3.869,0,0,1,1,0,0,VALID,0,0,0,0,0,1,0,0,0,0,0,0,0,0,0,0,0,0,0,0,2822.49,3049.63,6,0,0.08,0.08,517,14.29,0.08,0.06,35.52,FLYING,X11-D,0:/Integrated Flight Computer/aircraft/x11_d_cfg.ks (inferred preloaded)
35.96,TAKEOFF,TO_CLIMB,169.18,80,-89.18,81.47,17.11,13.6,7.95,90.01,-0.012,0.82,0,0,0,0,0,0,0,0,0,0,0,0,0,0,90,7,0,1,5.77,0,0,7,90,0.9282,0.0001,0.372,7,90,0,0,0,0,0,0,3,0,0,0,69,0,0,0,90,1,0,0.006,0,0,3,0,0,0,10,-3.869,0,0,1,1,0,0,VALID,0,0,0,0,0,1,0,0,0,0,0,0,0,0,0,0,0,0,0,0,2806.53,3065.7,6,0,0.08,0.08,521,14.29,0.08,0.06,35.8,FLYING,X11-D,0:/Integrated Flight Computer/aircraft/x11_d_cfg.ks (inferred preloaded)
36.24,TAKEOFF,TO_CLIMB,170.64,80,-90.64,86.26,17.2,13.55,7.87,90.01,-0.012,0.82,0,0,0,0,0,0,0,0,0,0,0,0,0,0,90,7,0,1,5.76,0,0,7,90,0.9282,0.0001,0.372,7,90,0,0,0,0,0,0,3,0,0,0,69,0,0,0,90,1,0,0.005,0,0,3,0,0,0,10,-3.869,0,0,1,1,0,0,VALID,0,0,0,0,0,1,0,0,0,0,0,0,0,0,0,0,0,0,0,0,2794.41,3083.67,6,0,0.08,0.08,525,14.29,0.08,0.06,36.08,FLYING,X11-D,0:/Integrated Flight Computer/aircraft/x11_d_cfg.ks (inferred preloaded)
36.52,TAKEOFF,TO_CLIMB,172.05,80,-92.05,91.22,17.9,13.54,7.72,90,-0.014,0.82,0,0,0,0,0,0,0,0,0,0,0,0,0,0,90,7,0,1,5.94,0,0,7,90,0.9282,0.0001,0.3721,7,90,0,0,0,0,0,0,3,0,0,0,69,0,0,0,90,1,0,0.003,0,0,3,0,0,0,10,-3.869,0,0,1,1,0,0,VALID,0,0,0,0,0,1,0,0,0,0,0,0,0,0,0,0,0,0,0,0,2784.45,3101.02,6,0,0.08,0.08,529,14.29,0.08,0.06,36.36,FLYING,X11-D,0:/Integrated Flight Computer/aircraft/x11_d_cfg.ks (inferred preloaded)
36.8,TAKEOFF,TO_CLIMB,173.46,80,-93.46,96.31,17.9,13.63,7.77,90,-0.011,0.82,0,0,0,0,0,0,0,0,0,0,0,0,0,0,90,7,0,1,5.89,0,0,7,90,0.9282,0.0001,0.3722,7,90,0,0,0,0,0,0,3,0,0,0,69,0,0,0,90,1,0,0.005,0,0,3,0,0,0,10,-3.869,0,0,1,1,0,0,VALID,0,0,0,0,0,1,0,0,0,0,0,0,0,0,0,0,0,0,0,0,2776.61,3118.56,6,0,0.08,0.08,533,14.29,0.08,0.06,36.64,FLYING,X11-D,0:/Integrated Flight Computer/aircraft/x11_d_cfg.ks (inferred preloaded)
37.08,TAKEOFF,TO_CLIMB,174.83,80,-94.83,102.05,18.6,14.47,8.47,90,-0.016,0.82,0,0,0,0,0,0,0,0,0,0,0,0,0,0,90,7,0,1,6.07,0,0,7,90,0.9281,0.0001,0.3723,7,90,0,0,0,0,0,0,3,0,0,0,69,0,0,0,90,1,0,0.003,0,0,3,0,0,0,10,-3.869,0,0,1,1,0,0,VALID,0,0,0,0,0,1,0,0,0,0,0,0,0,0,0,0,0,0,0,0,2770.64,3135.68,6,0,0.08,0.08,537,14.29,0.08,0.06,36.92,FLYING,X11-D,0:/Integrated Flight Computer/aircraft/x11_d_cfg.ks (inferred preloaded)
37.36,TAKEOFF,TO_CLIMB,175.96,80,-95.96,107.27,19.69,14.22,7.98,90,-0.016,0.82,0,0,0,0,0,0,0,0,0,0,0,0,0,0,90,7,0,1,6.39,0,0,7,90,0.9281,0.0001,0.3723,7,90,0,0,0,0,0,0,3,0,0,0,69,0,0,0,90,1,0,0.002,0,0,3,0,0,0,10,-3.869,0,0,1,1,0,0,VALID,0,0,0,0,0,1,0,0,0,0,0,0,0,0,0,0,0,0,0,0,2763.77,3149.58,6,0,0.08,0.08,541,14.29,0.08,0.06,37.2,FLYING,X11-D,0:/Integrated Flight Computer/aircraft/x11_d_cfg.ks (inferred preloaded)
37.64,TAKEOFF,TO_CLIMB,177.29,80,-97.29,112.41,20.03,13.6,7.29,90,-0.022,0.82,0,0,0,0,0,0,0,0,0,0,0,0,0,0,90,7,0,1,6.45,0,0,7,90,0.9281,0.0001,0.3724,7,90,0,0,0,0,0,0,3,0,0,0,69,0,0,0,90,1,0,0.004,0,0,3,0,0,0,10,-3.869,0,0,1,1,0,0,VALID,0,0,0,0,0,1,0,0,0,0,0,0,0,0,0,0,0,0,0,0,2760.26,3165.95,6,0,0.08,0.08,545,14.29,0.08,0.06,37.48,FLYING,X11-D,0:/Integrated Flight Computer/aircraft/x11_d_cfg.ks (inferred preloaded)
37.92,TAKEOFF,TO_CLIMB,178.72,80,-98.72,117.81,20.44,13.24,6.83,90,-0.018,0.82,0,0,0,0,0,0,0,0,0,0,0,0,0,0,90,7,0,1,6.52,0,0,7,90,0.928,0.0001,0.3725,7,90,0,0,0,0,0,0,3,0,0,0,69,0,0,0,90,1,0,0.003,0,0,3,0,0,0,10,-3.869,0,0,1,1,0,0,VALID,0,0,0,0,0,1,0,0,0,0,0,0,0,0,0,0,0,0,0,0,2759.86,3183.8,6,0,0.08,0.08,549,14.29,0.08,0.06,37.76,FLYING,X11-D,0:/Integrated Flight Computer/aircraft/x11_d_cfg.ks (inferred preloaded)
38.2,TAKEOFF,TO_CLIMB,180.18,80,-100.18,123.44,20.69,13.05,6.61,90,-0.015,0.82,0,0,0,0,0,0,0,0,0,0,0,0,0,0,90,7,0,1,6.55,0,0,7,90,0.928,0.0001,0.3726,7,90,0,0,0,0,0,0,3,0,0,0,69,0,0,0,90,1,0,0.003,0,0,3,0,0,0,10,-3.869,0,0,1,1,0,0,VALID,0,0,0,0,0,1,0,0,0,0,0,0,0,0,0,0,0,0,0,0,2761.13,3202.05,6,0,0.08,0.08,553,14.29,0.08,0.06,38.04,FLYING,X11-D,0:/Integrated Flight Computer/aircraft/x11_d_cfg.ks (inferred preloaded)
38.48,TAKEOFF,TO_CLIMB,181.65,80,-101.65,129.31,20.93,13.11,6.63,90,-0.016,0.82,0,0,0,0,0,0,0,0,0,0,0,0,0,0,90,7,0,1,6.57,0,0,7,90,0.928,0.0001,0.3727,7,90,0,0,0,0,0,0,3,0,0,0,69,0,0,0,90,1,0,0.003,0,0,3,0,0,0,10,-3.869,0,0,1,1,0,0,VALID,0,0,0,0,0,1,0,0,0,0,0,0,0,0,0,0,0,0,0,0,2763.88,3220.55,6,0,0.08,0.08,557,14.29,0.08,0.06,38.32,FLYING,X11-D,0:/Integrated Flight Computer/aircraft/x11_d_cfg.ks (inferred preloaded)
38.76,TAKEOFF,TO_CLIMB,183.02,80,-103.02,135,21.44,12.74,6.18,90,-0.013,0.82,0,0,0,0,0,0,0,0,0,0,0,0,0,0,90,7,0,1,6.68,0,0,7,90,0.9279,0.0001,0.3727,7,90,0,0,0,0,0,0,3,0,0,0,69,0,0,0,90,1,0,0.003,0,0,3,0,0,0,10,-3.869,0,0,1,1,0,0,VALID,0,0,0,0,0,1,0,0,0,0,0,0,0,0,0,0,0,0,0,0,2766.66,3237.63,6,0,0.08,0.08,561,14.29,0.08,0.06,38.6,FLYING,X11-D,0:/Integrated Flight Computer/aircraft/x11_d_cfg.ks (inferred preloaded)
