t_s,phase,subphase,ias_ms,vapp_ms,spd_err_ms,agl_m,vs_ms,pitch_deg,aoa_deg,hdg_deg,bank_deg,thr_cmd,thr_cur,thr_intg,at_gain,at_tau_s,at_a_up,at_a_dn,at_kp_thr,at_ki_spd,at_thr_slew,as_cmd_deg,as_cap_deg,as_raw_deg,as_spd_err_ms,as_active,aa_hdg_cmd_deg,aa_fpa_cmd_deg,aa_fbw,aa_dir,actual_fpa_deg,ftf_hdg_err_deg,ftf_fix_idx,kos_steer_pit_deg,kos_steer_hdg_deg,aa_dir_vx,aa_dir_vy,aa_dir_vz,aa_dir_pitch_deg,aa_dir_hdg_deg,ils_loc_m,ils_gs_m,ils_dist_km,loc_corr_deg,gs_corr_deg,gs_latched,active_gs_ang_deg,ils_intercept_alt_m,d_gs_ms,fpa_preclamped_deg,gs_nom_alt_m,flare_fpa_cmd,flare_tgt_vs,flare_frac,steer_hdg_deg,steer_blend,ro_loc_corr_deg,ro_hdg_err_deg,ro_yaw_tgt,ro_yaw_scale,ro_yaw_gate,yaw_cmd,roll_cmd,pitch_cmd,ro_pitch_tgt_deg,ro_pitch_err_deg,ro_pitch_ff,ro_roll_assist,flaps_cur,flaps_tgt,asc_j_ab,asc_j_rk,asc_validity,asc_q_pa,asc_q_raw_pa,asc_mach,asc_apo_m,asc_drag_n,asc_w_prop,asc_edot_aero,asc_edot_orb,asc_pitch_bias,asc_blend,asc_spooling,asc_ab_thr_ratio,asc_ab_t_now,asc_ab_t_avail,asc_ab_ign_on,asc_ab_flameouts,asc_rk_t_now,asc_rk_t_avail,asc_rk_ign_on,asc_rk_flameouts,ship_thrust,ship_avail_thrust,ship_ign_on,ship_flameouts,ifc_raw_dt_s,ifc_dt_s,ifc_loop_n,ifc_hz_est,ifc_raw_dt_max_s,ifc_raw_dt_min_s,phase_el_s,status,craft_name,cfg_file
0.18,APPROACH,FLY_TO_FIX,225.65,146.22,-79.42,1446.77,-11.28,4.83,7.48,248.15,-0.61,0,0,0,1,0.6,0.972,0.75,0.35,0.0168,0.4,3.5,14,14,79.443,1,248.16,2.878,1,0,-2.86,0.02,0,0,90,0,0,0,0,0,0,0,45.426,0,0,0,3,0,0,0,2454.96,0,0,0,248.15,0,0,0,0,0,0,0,0,0,0,0,0,0,0,0,0,0,VALID,0,0,0,0,0,1,0,0,0,0,0,0,0,0,0,0,0,0,0,0,12.67,1388.54,2,0,0.14,0.14,1,3.45,0.14,0.02,0.18,FLYING,X10-F,0:/Integrated Flight Computer/aircraft/x10_f_cfg.ks (inferred preloaded)
0.48,APPROACH,FLY_TO_FIX,225.38,146.7,-78.68,1443.33,-11.42,4.7,7.41,248.16,-0.477,0,0,0,1,0.6,3.444,0.75,0.35,0.0168,0.4,11,14,14,78.694,1,248.16,2.938,0,0,-2.9,0.01,0,2.93,248.16,0,0,0,0,0,0,0,45.364,0,0,0,3,0,0,0,2451.7,0,0,0,248.15,0,0,0,0,0,0,0,0,0,0,0,0,0,1,1,0,0,VALID,0,0,0,0,0,1,0,0,0,0,0,0,0,0,0,0,0,0,0,0,11.39,1387.31,2,0,0.08,0.08,4,10,0.14,0.08,0.48,FLYING,X10-F,0:/Integrated Flight Computer/aircraft/x10_f_cfg.ks (inferred preloaded)
0.76,APPROACH,FLY_TO_FIX,225.12,147.15,-77.97,1440.19,-11.45,4.96,7.71,248.18,-0.23,0,0,0,1,0.6,4.5,0.75,0.35,0.0168,0.4,14,14,14,77.99,1,248.16,2.973,0,0,-2.93,0.02,0,2.99,248.16,0,0,0,0,0,0,0,45.301,0,0,0,3,0,0,0,2448.43,0,0,0,248.15,0,0,0,0,0,0,0,0,0,0,0,0,0,1,1,0,0,VALID,0,0,0,0,0,1,0,0,0,0,0,0,0,0,0,0,0,0,0,0,10.32,1386.11,2,0,0.1,0.1,7,10.71,0.1,0.08,0.76,FLYING,X10-F,0:/Integrated Flight Computer/aircraft/x10_f_cfg.ks (inferred preloaded)
1.02,APPROACH,FLY_TO_FIX,224.82,147.57,-77.25,1437.21,-11.28,4.89,7.56,248.2,-0.169,0,0,-6.16,1,0.6,4.5,0.75,0.35,0.0168,0.4,14,14,14,77.27,1,248.16,2.928,0,0,-2.87,0.04,0,2.93,248.16,0,0,0,0,0,0,0,45.244,0,0,0,3,0,0,0,2445.4,0,0,0,248.15,0,0,0,0,0,0,0,0,0,0,0,0,0,1,1,0,0,VALID,0,0,0,0,0,1,0,0,0,0,0,0,0,0,0,0,0,0,0,0,9.41,1384.64,2,0,0.08,0.08,10,11.54,0.1,0.08,1.02,FLYING,X10-F,0:/Integrated Flight Computer/aircraft/x10_f_cfg.ks (inferred preloaded)
1.3,APPROACH,FLY_TO_FIX,224.49,148.02,-76.47,1434.15,-11.45,5.16,7.96,248.19,-0.199,0,0,-6.068,1,0.6,4.5,0.765,0.35,0.0168,0.4,14,14,14,76.499,1,248.16,2.996,0,0,-2.92,0.03,0,2.97,248.16,0,0,0,0,0,0,0,45.181,0,0,0,3,0,0,0,2442.15,0,0,0,248.15,0,0,0,0,0,0,0,0,0,0,0,0,0,1,1,0,0,VALID,0,0,0,0,0,1,0,0,0,0,0,0,0,0,0,0,0,0,0,0,8.52,1383.09,2,0,0.1,0.1,13,10.71,0.1,0.08,1.3,FLYING,X10-F,0:/Integrated Flight Computer/aircraft/x10_f_cfg.ks (inferred preloaded)
1.56,APPROACH,FLY_TO_FIX,224.12,148.43,-75.69,1431.47,-11.09,6.02,8.74,248.19,-0.176,0,0,-12.048,1,0.6,4.5,0.824,0.35,0.0168,0.4,14,14,14,75.717,1,248.16,2.908,0,0,-2.85,0.03,0,2.94,248.16,0,0,0,0,0,0,0,45.124,0,0,0,3,0,0,0,2439.13,0,0,0,248.15,0,0,0,0,0,0,0,0,0,0,0,0,0,1,1,0,0,VALID,0,0,0,0,0,1,0,0,0,0,0,0,0,0,0,0,0,0,0,0,7.76,1381.3,2,0,0.08,0.08,16,11.54,0.1,0.08,1.56,FLYING,X10-F,0:/Integrated Flight Computer/aircraft/x10_f_cfg.ks (inferred preloaded)
1.84,APPROACH,FLY_TO_FIX,223.57,148.88,-74.69,1428.91,-10.61,7.49,10.2,248.18,-0.202,0,0,-19.401,1,0.6,4.5,0.911,0.35,0.0168,0.4,14,14,14,74.738,1,248.16,2.783,0,0,-2.74,0.02,0,2.84,248.16,0,0,0,0,0,0,0,45.062,0,0,0,3,0,0,0,2435.89,0,0,0,248.15,0,0,0,0,0,0,0,0,0,0,0,0,0,1,1,0,0,VALID,0,0,0,0,0,1,0,0,0,0,0,0,0,0,0,0,0,0,0,0,7.02,1378.6,2,0,0.1,0.1,19,10.71,0.1,0.08,1.84,FLYING,X10-F,0:/Integrated Flight Computer/aircraft/x10_f_cfg.ks (inferred preloaded)
2.1,APPROACH,FLY_TO_FIX,222.8,149.3,-73.5,1426.96,-9.19,9.74,12.14,248.16,-0.214,0.039,0,-20,1,0.6,4.5,1.06,0.35,0.0168,0.4,14,14,14,73.572,1,248.16,2.399,0,0,-2.44,0,0,2.57,248.16,0,0,0,0,0,0,0,45.005,0,0,0,3,0,0,0,2432.88,0,0,0,248.15,0,0,0,0,0,0,0,0,0,0,0,0,0,1,1,0,0,VALID,0,0,0,0,0,1,0,0,0,0,0,0,0,0,0,0,0,0,0,0,6.57,1374.7,2,0,0.08,0.08,22,11.54,0.1,0.08,2.1,FLYING,X10-F,0:/Integrated Flight Computer/aircraft/x10_f_cfg.ks (inferred preloaded)
2.38,APPROACH,FLY_TO_FIX,221.54,149.74,-71.8,1425.04,-6.75,11.05,12.73,248.15,-0.221,0.151,0,-20,1,0.6,4.5,1.213,0.35,0.0168,0.4,9.5,14,0,71.902,1,248.16,1.682,0,0,-1.83,0.01,0,1.95,248.16,0,0,0,0,0,0,0,44.943,0,0,0,3,0,0,0,2429.66,0,0,0,248.15,0,0,0,0,0,0,0,0,0,0,0,0,0,1,1,0,0,VALID,0,0,0,0,0,1,0,0,0,0,0,0,0,0,0,0,0,0,0,0,11.35,1368.2,2,0,0.1,0.1,25,10.71,0.1,0.08,2.38,FLYING,X10-F,0:/Integrated Flight Computer/aircraft/x10_f_cfg.ks (inferred preloaded)
2.64,APPROACH,FLY_TO_FIX,220.3,150.16,-70.14,1423.41,-4.83,10.62,11.76,248.15,-0.224,0.255,0,-20,1,0.6,4.5,1.213,0.35,0.0168,0.4,3,14,0,70.222,1,248.16,1.097,0,0,-1.32,0.01,0,1.25,248.16,0,0,0,0,0,0,0,44.886,0,0,0,3,0,0,0,2426.69,0,0,0,248.15,0,0,0,0,0,0,0,0,0,0,0,0,0,1,1,0,0,VALID,0,0,0,0,0,1,0,0,0,0,0,0,0,0,0,0,0,0,0,0,22.98,1361.66,2,0,0.08,0.08,28,11.54,0.1,0.08,2.64,FLYING,X10-F,0:/Integrated Flight Computer/aircraft/x10_f_cfg.ks (inferred preloaded)
2.92,APPROACH,FLY_TO_FIX,219.29,150.61,-68.68,1422.06,-3.54,9.86,10.71,248.15,-0.228,0.367,0,-20,1,0.6,4.5,1.213,0.35,0.0168,0.4,0,14,0,68.747,0,248.16,0.707,0,0,-0.97,0.01,0,0.84,248.16,0,0,0,0,0,0,0,44.826,0,0,0,3,0,0,0,2423.5,0,0,0,248.15,0,0,0,0,0,0,0,0,0,0,0,0,0,2,2,0,0,VALID,0,0,0,0,0,1,0,0,0,0,0,0,0,0,0,0,0,0,0,0,42.76,1356.38,2,0,0.1,0.1,31,10.71,0.1,0.08,2.92,FLYING,X10-F,0:/Integrated Flight Computer/aircraft/x10_f_cfg.ks (inferred preloaded)
3.18,APPROACH,FLY_TO_FIX,218.54,151.02,-67.51,1421.12,-2.32,9.26,9.78,248.15,-0.229,0.4251,0,-20,1,0.6,4.5,1.213,0.35,0.0168,0.4,0,14,0,67.565,0,248.16,0.346,0,0,-0.65,0.01,0,0.46,248.16,0,0,0,0,0,0,0,44.769,0,0,0,3,0,0,0,2420.55,0,0,0,248.15,0,0,0,0,0,0,0,0,0,0,0,0,0,2,2,0,0,VALID,0,0,0,0,0,1,0,0,0,0,0,0,0,0,0,0,0,0,0,0,67.48,1352.42,2,0,0.08,0.08,34,11.54,0.1,0.08,3.18,FLYING,X10-F,0:/Integrated Flight Computer/aircraft/x10_f_cfg.ks (inferred preloaded)
3.46,APPROACH,FLY_TO_FIX,217.92,151.47,-66.45,1420.3,-1.54,8.21,8.53,248.15,-0.227,0.3131,0,-20,1,0.6,4.5,1.213,0.35,0.0168,0.4,0,14,0,66.483,0,248.16,0.105,0,0,-0.43,0.01,0,0.17,248.16,0,0,0,0,0,0,0,44.709,0,0,0,3,0,0,0,2417.38,0,0,0,248.15,0,0,0,0,0,0,0,0,0,0,0,0,0,2,2,0,0,VALID,0,0,0,0,0,1,0,0,0,0,0,0,0,0,0,0,0,0,0,0,92.62,1349.17,2,0,0.1,0.1,37,10.71,0.1,0.08,3.46,FLYING,X10-F,0:/Integrated Flight Computer/aircraft/x10_f_cfg.ks (inferred preloaded)
3.72,APPROACH,FLY_TO_FIX,217.54,151.89,-65.65,1419.7,-1.12,7.29,7.5,248.15,-0.21,0.2091,0,-19.9,1,0.6,4.5,1.213,0.35,0.0168,0.4,0,14,0,65.672,0,248.16,-0.026,0,0,-0.31,0.01,0,0,248.16,0,0,0,0,0,0,0,44.653,0,0,0,3,0,0,0,2414.44,0,0,0,248.15,0,0,0,0,0,0,0,0,0,0,0,0,0,2,2,0,0,VALID,0,0,0,0,0,1,0,0,0,0,0,0,0,0,0,0,0,0,0,0,107.4,1347.14,2,0,0.08,0.08,40,11.54,0.1,0.08,3.72,FLYING,X10-F,0:/Integrated Flight Computer/aircraft/x10_f_cfg.ks (inferred preloaded)
4,APPROACH,FLY_TO_FIX,217.26,152.34,-64.92,1419.2,-1.02,6.5,6.71,248.16,-0.171,0.0971,0,-19.603,1,0.6,4.5,1.213,0.35,0.0168,0.4,0,14,0,64.941,0,248.16,-0.06,0,0,-0.27,0,0,-0.06,248.16,0,0,0,0,0,0,0,44.592,0,0,0,3,0,0,0,2411.27,0,0,0,248.15,0,0,0,0,0,0,0,0,0,0,0,0,0,2,2,0,0,VALID,0,0,0,0,0,1,0,0,0,0,0,0,0,0,0,0,0,0,0,0,114.57,1345.69,2,0,0.1,0.1,43,10.71,0.1,0.08,4,FLYING,X10-F,0:/Integrated Flight Computer/aircraft/x10_f_cfg.ks (inferred preloaded)
4.26,APPROACH,FLY_TO_FIX,217.07,152.75,-64.31,1418.84,-1.05,6.14,6.38,248.16,-0.141,0,0,-19.31,1,0.6,4.5,1.225,0.35,0.0168,0.4,6.5,14,14,64.328,1,248.16,-0.049,0,0,-0.28,0,0,-0.05,248.16,0,0,0,0,0,0,0,44.536,0,0,0,3,0,0,0,2408.34,0,0,0,248.15,0,0,0,0,0,0,0,0,0,0,0,0,0,2,2,0,0,VALID,0,0,0,0,0,1,0,0,0,0,0,0,0,0,0,0,0,0,0,0,112.39,1344.67,2,0,0.08,0.08,46,11.54,0.1,0.08,4.26,FLYING,X10-F,0:/Integrated Flight Computer/aircraft/x10_f_cfg.ks (inferred preloaded)
4.54,APPROACH,FLY_TO_FIX,216.85,153.2,-63.65,1418.52,-1.01,6.02,6.27,248.16,-0.118,0,0,-19.022,1,0.6,4.5,1.215,0.35,0.0168,0.4,13.5,14,14,63.665,1,248.16,-0.055,0,0,-0.27,0,0,-0.05,248.16,0,0,0,0,0,0,0,44.476,0,0,0,3,0,0,0,2405.19,0,0,0,248.15,0,0,0,0,0,0,0,0,0,0,0,0,0,2,2,0,0,VALID,0,0,0,0,0,1,0,0,0,0,0,0,0,0,0,0,0,0,0,0,102,1343.53,2,0,0.1,0.1,49,10.71,0.1,0.08,4.54,FLYING,X10-F,0:/Integrated Flight Computer/aircraft/x10_f_cfg.ks (inferred preloaded)
4.8,APPROACH,FLY_TO_FIX,216.6,153.62,-62.98,1418.24,-0.94,5.93,6.15,248.16,-0.101,0,0,-18.738,1,0.6,4.5,1.196,0.35,0.0168,0.4,14,14,14,63.005,1,248.16,-0.076,0,0,-0.25,0,0,-0.07,248.16,0,0,0,0,0,0,0,44.42,0,0,0,3,0,0,0,2402.26,0,0,0,248.15,0,0,0,0,0,0,0,0,0,0,0,0,0,2,2,0,0,VALID,0,0,0,0,0,1,0,0,0,0,0,0,0,0,0,0,0,0,0,0,93.01,1342.24,2,0,0.08,0.08,52,11.54,0.1,0.08,4.8,FLYING,X10-F,0:/Integrated Flight Computer/aircraft/x10_f_cfg.ks (inferred preloaded)
5.08,APPROACH,FLY_TO_FIX,216.29,154.06,-62.22,1417.94,-0.89,5.79,6,248.17,-0.083,0,0,-18.459,1,0.6,4.5,1.187,0.35,0.0168,0.4,14,14,14,62.246,1,248.16,-0.089,0,0,-0.24,0.01,0,-0.09,248.16,0,0,0,0,0,0,0,44.36,0,0,0,3,0,0,0,2399.11,0,0,0,248.15,0,0,0,0,0,0,0,0,0,0,0,0,0,2,2,0,0,VALID,0,0,0,0,0,1,0,0,0,0,0,0,0,0,0,0,0,0,0,0,84.19,1340.6,2,0,0.1,0.1,55,10.71,0.1,0.08,5.08,FLYING,X10-F,0:/Integrated Flight Computer/aircraft/x10_f_cfg.ks (inferred preloaded)
5.34,APPROACH,FLY_TO_FIX,215.96,154.48,-61.48,1417.68,-0.86,5.66,5.87,248.17,-0.069,0,0,-18.183,1,0.6,4.5,1.191,0.35,0.0168,0.4,14,14,14,61.506,1,248.16,-0.099,0,0,-0.23,0.01,0,-0.1,248.16,0,0,0,0,0,0,0,44.304,0,0,0,3,0,0,0,2396.19,0,0,0,248.15,0,0,0,0,0,0,0,0,0,0,0,0,0,2,2,0,0,VALID,0,0,0,0,0,1,0,0,0,0,0,0,0,0,0,0,0,0,0,0,76.75,1338.89,2,0,0.08,0.08,58,11.54,0.1,0.08,5.34,FLYING,X10-F,0:/Integrated Flight Computer/aircraft/x10_f_cfg.ks (inferred preloaded)
5.62,APPROACH,FLY_TO_FIX,215.57,154.93,-60.65,1417.41,-0.81,5.54,5.73,248.17,-0.059,0,0,-17.912,1,0.6,4.5,1.208,0.35,0.0168,0.4,14,14,14,60.675,1,248.16,-0.114,0,0,-0.21,0.01,0,-0.1,248.16,0,0,0,0,0,0,0,44.245,0,0,0,3,0,0,0,2393.05,0,0,0,248.15,0,0,0,0,0,0,0,0,0,0,0,0,0,2,2,0,0,VALID,0,0,0,0,0,1,0,0,0,0,0,0,0,0,0,0,0,0,0,0,69.46,1336.87,2,0,0.1,0.1,61,10.71,0.1,0.08,5.62,FLYING,X10-F,0:/Integrated Flight Computer/aircraft/x10_f_cfg.ks (inferred preloaded)
5.88,APPROACH,FLY_TO_FIX,215.18,155.34,-59.84,1417.17,-0.8,5.44,5.62,248.17,-0.051,0,0,-17.644,1,0.6,4.5,1.238,0.35,0.0168,0.4,14,14,14,59.87,1,248.16,-0.117,0,0,-0.21,0.01,0,-0.12,248.16,0,0,0,0,0,0,0,44.189,0,0,0,3,0,0,0,2390.14,0,0,0,248.15,0,0,0,0,0,0,0,0,0,0,0,0,0,2,2,0,0,VALID,0,0,0,0,0,1,0,0,0,0,0,0,0,0,0,0,0,0,0,0,63.3,1334.83,2,0,0.08,0.08,64,11.54,0.1,0.08,5.88,FLYING,X10-F,0:/Integrated Flight Computer/aircraft/x10_f_cfg.ks (inferred preloaded)
6.16,APPROACH,FLY_TO_FIX,214.73,155.79,-58.94,1416.92,-0.76,5.31,5.49,248.17,-0.046,0,0,-17.381,1,0.6,4.5,1.28,0.35,0.0168,0.4,14,14,14,58.971,1,248.16,-0.127,0,0,-0.2,0.01,0,-0.13,248.16,0,0,0,0,0,0,0,44.129,0,0,0,3,0,0,0,2387.01,0,0,0,248.15,0,0,0,0,0,0,0,0,0,0,0,0,0,2,2,0,0,VALID,0,0,0,0,0,1,0,0,0,0,0,0,0,0,0,0,0,0,0,0,57.27,1332.46,2,0,0.1,0.1,67,10.71,0.1,0.08,6.16,FLYING,X10-F,0:/Integrated Flight Computer/aircraft/x10_f_cfg.ks (inferred preloaded)
6.42,APPROACH,FLY_TO_FIX,214.27,156.21,-58.07,1416.69,-0.69,5.22,5.37,248.17,-0.04,0,0,-17.122,1,0.6,4.5,1.333,0.35,0.0168,0.4,14,14,14,58.101,1,248.16,-0.146,0,0,-0.18,0.01,0,-0.13,248.16,0,0,0,0,0,0,0,44.074,0,0,0,3,0,0,0,2384.11,0,0,0,248.15,0,0,0,0,0,0,0,0,0,0,0,0,0,2,2,0,0,VALID,0,0,0,0,0,1,0,0,0,0,0,0,0,0,0,0,0,0,0,0,52.18,1330.08,2,0,0.08,0.08,70,11.54,0.1,0.08,6.42,FLYING,X10-F,0:/Integrated Flight Computer/aircraft/x10_f_cfg.ks (inferred preloaded)
6.7,APPROACH,FLY_TO_FIX,213.75,156.66,-57.09,1416.47,-0.7,5.13,5.3,248.17,-0.033,0,0,-16.866,1,0.6,4.5,1.395,0.35,0.0168,0.4,14,14,14,57.132,1,248.16,-0.137,0,0,-0.2,0.01,0,-0.12,248.16,0,0,0,0,0,0,0,44.015,0,0,0,3,0,0,0,2381,0,0,0,248.15,0,0,0,0,0,0,0,0,0,0,0,0,0,2,2,0,0,VALID,0,0,0,0,0,1,0,0,0,0,0,0,0,0,0,0,0,0,0,0,47.19,1327.34,2,0,0.1,0.1,73,10.71,0.1,0.08,6.7,FLYING,X10-F,0:/Integrated Flight Computer/aircraft/x10_f_cfg.ks (inferred preloaded)
6.96,APPROACH,FLY_TO_FIX,213.24,157.07,-56.17,1416.25,-0.75,4.99,5.19,248.17,-0.029,0,0,-16.614,1,0.6,4.5,1.464,0.35,0.0168,0.4,14,14,14,56.207,1,248.16,-0.125,0,0,-0.2,0.01,0,-0.14,248.16,0,0,0,0,0,0,0,43.96,0,0,0,3,0,0,0,2378.11,0,0,0,248.15,0,0,0,0,0,0,0,0,0,0,0,0,0,2,2,0,0,VALID,0,0,0,0,0,1,0,0,0,0,0,0,0,0,0,0,0,0,0,0,42.99,1324.67,2,0,0.08,0.08,76,11.54,0.1,0.08,6.96,FLYING,X10-F,0:/Integrated Flight Computer/aircraft/x10_f_cfg.ks (inferred preloaded)
7.24,APPROACH,FLY_TO_FIX,212.66,157.52,-55.14,1416.04,-0.73,4.92,5.1,248.17,-0.025,0,0,-16.366,1,0.6,4.5,1.54,0.35,0.0168,0.4,14,14,14,55.18,1,248.16,-0.135,0,0,-0.19,0.01,0,-0.15,248.16,0,0,0,0,0,0,0,43.9,0,0,0,3,0,0,0,2375.01,0,0,0,248.15,0,0,0,0,0,0,0,0,0,0,0,0,0,2,2,0,0,VALID,0,0,0,0,0,1,0,0,0,0,0,0,0,0,0,0,0,0,0,0,38.87,1321.66,2,0,0.1,0.1,79,10.71,0.1,0.08,7.24,FLYING,X10-F,0:/Integrated Flight Computer/aircraft/x10_f_cfg.ks (inferred preloaded)
7.5,APPROACH,FLY_TO_FIX,212.11,157.7,-54.41,1415.87,-0.71,5.01,5.19,248.17,-0.021,0,0,-16.122,1,0.6,4.5,1.617,0.35,0.0168,0.4,14,14,14,54.45,1,248.16,-0.135,0,0,-0.19,0.01,0,-0.12,248.16,0,0,0,0,0,0,0,43.846,0,0,0,3,0,0,0,2372.14,0,0,0,248.15,0,0,0,0,0,0,0,0,0,0,0,0,0,2,2,0,0,VALID,0,0,0,0,0,1,0,0,0,0,0,0,0,0,0,0,0,0,0,0,35.4,1318.79,2,0,0.08,0.08,82,11.54,0.1,0.08,7.5,FLYING,X10-F,0:/Integrated Flight Computer/aircraft/x10_f_cfg.ks (inferred preloaded)
7.78,APPROACH,FLY_TO_FIX,211.52,157.7,-53.82,1415.68,-0.71,5.03,5.21,248.16,-0.017,0,0,-15.882,1,0.6,4.5,1.692,0.35,0.0168,0.4,14,14,14,53.858,1,248.16,-0.132,0,0,-0.19,0.01,0,-0.13,248.16,0,0,0,0,0,0,0,43.787,0,0,0,3,0,0,0,2369.05,0,0,0,248.15,0,0,0,0,0,0,0,0,0,0,0,0,0,2,2,0,0,VALID,0,0,0,0,0,1,0,0,0,0,0,0,0,0,0,0,0,0,0,0,32.01,1315.72,2,0,0.1,0.1,85,10.71,0.1,0.08,7.78,FLYING,X10-F,0:/Integrated Flight Computer/aircraft/x10_f_cfg.ks (inferred preloaded)
8.04,APPROACH,FLY_TO_FIX,210.96,157.7,-53.26,1415.5,-0.71,5.08,5.26,248.16,-0.014,0,0,-15.644,1,0.6,4.5,1.763,0.35,0.0168,0.4,14,14,14,53.299,1,248.16,-0.134,0,0,-0.19,0.01,0,-0.13,248.16,0,0,0,0,0,0,0,43.732,0,0,0,3,0,0,0,2366.19,0,0,0,248.15,0,0,0,0,0,0,0,0,0,0,0,0,0,2,2,0,0,VALID,0,0,0,0,0,1,0,0,0,0,0,0,0,0,0,0,0,0,0,0,29.15,1312.81,2,0,0.08,0.08,88,11.54,0.1,0.08,8.04,FLYING,X10-F,0:/Integrated Flight Computer/aircraft/x10_f_cfg.ks (inferred preloaded)
8.32,APPROACH,FLY_TO_FIX,210.35,157.7,-52.65,1415.32,-0.7,5.12,5.31,248.16,-0.011,0,0,-15.411,1,0.6,4.5,1.831,0.35,0.0168,0.4,14,14,14,52.689,1,248.16,-0.134,0,0,-0.19,0.01,0,-0.13,248.16,0,0,0,0,0,0,0,43.673,0,0,0,3,0,0,0,2363.12,0,0,0,248.15,0,0,0,0,0,0,0,0,0,0,0,0,0,2,2,0,0,VALID,0,0,0,0,0,1,0,0,0,0,0,0,0,0,0,0,0,0,0,0,26.36,1309.65,2,0,0.1,0.1,91,10.71,0.1,0.08,8.32,FLYING,X10-F,0:/Integrated Flight Computer/aircraft/x10_f_cfg.ks (inferred preloaded)
8.6,APPROACH,FLY_TO_FIX,209.73,157.7,-52.03,1415.14,-0.7,5.17,5.35,248.16,-0.008,0,0,-15.181,1,0.6,4.5,1.894,0.35,0.0168,0.4,14,14,14,52.071,1,248.16,-0.134,0,0,-0.19,0.01,0,-0.13,248.16,0,0,0,0,0,0,0,43.615,0,0,0,3,0,0,0,2360.06,0,0,0,248.15,0,0,0,0,0,0,0,0,0,0,0,0,0,2,2,0,0,VALID,0,0,0,0,0,1,0,0,0,0,0,0,0,0,0,0,0,0,0,0,23.83,1306.45,2,0,0.08,0.08,94,10.71,0.1,0.08,8.6,FLYING,X10-F,0:/Integrated Flight Computer/aircraft/x10_f_cfg.ks (inferred preloaded)
8.88,APPROACH,FLY_TO_FIX,209.1,157.7,-51.4,1414.95,-0.69,5.22,5.4,248.16,-0.006,0,0,-14.954,1,0.6,4.5,1.954,0.35,0.0168,0.4,14,14,14,51.446,1,248.16,-0.136,0,0,-0.19,0.01,0,-0.13,248.16,0,0,0,0,0,0,0,43.557,0,0,0,3,0,0,0,2357,0,0,0,248.15,0,0,0,0,0,0,0,0,0,0,0,0,0,2,2,0,0,VALID,0,0,0,0,0,1,0,0,0,0,0,0,0,0,0,0,0,0,0,0,21.55,1303.22,2,0,0.1,0.1,97,10.71,0.1,0.08,8.88,FLYING,X10-F,0:/Integrated Flight Computer/aircraft/x10_f_cfg.ks (inferred preloaded)
9.16,APPROACH,FLY_TO_FIX,208.47,157.7,-50.77,1414.78,-0.69,5.27,5.45,248.16,-0.002,0,0,-14.731,1,0.6,4.5,2.011,0.35,0.0168,0.4,14,14,14,50.814,1,248.16,-0.136,0,0,-0.19,0.01,0,-0.13,248.16,0,0,0,0,0,0,0,43.499,0,0,0,3,0,0,0,2353.96,0,0,0,248.15,0,0,0,0,0,0,0,0,0,0,0,0,0,2,2,0,0,VALID,0,0,0,0,0,1,0,0,0,0,0,0,0,0,0,0,0,0,0,0,19.48,1299.95,2,0,0.08,0.08,100,10.71,0.1,0.08,9.16,FLYING,X10-F,0:/Integrated Flight Computer/aircraft/x10_f_cfg.ks (inferred preloaded)
9.44,APPROACH,FLY_TO_FIX,207.83,157.7,-50.13,1414.6,-0.68,5.32,5.5,248.16,0,0,0,-14.511,1,0.6,4.5,2.064,0.35,0.0168,0.4,14,14,14,50.176,1,248.16,-0.136,0,0,-0.19,0.01,0,-0.13,248.16,0,0,0,0,0,0,0,43.441,0,0,0,3,0,0,0,2350.92,0,0,0,248.15,0,0,0,0,0,0,0,0,0,0,0,0,0,2,2,0,0,VALID,0,0,0,0,0,1,0,0,0,0,0,0,0,0,0,0,0,0,0,0,17.61,1296.66,2,0,0.1,0.1,103,10.71,0.1,0.08,9.44,FLYING,X10-F,0:/Integrated Flight Computer/aircraft/x10_f_cfg.ks (inferred preloaded)
9.72,APPROACH,FLY_TO_FIX,207.19,157.7,-49.49,1414.42,-0.68,5.37,5.55,248.16,0.002,0,0,-14.295,1,0.6,4.5,2.114,0.35,0.0168,0.4,14,14,14,49.533,1,248.16,-0.137,0,0,-0.19,0.01,0,-0.14,248.16,0,0,0,0,0,0,0,43.383,0,0,0,3,0,0,0,2347.89,0,0,0,248.15,0,0,0,0,0,0,0,0,0,0,0,0,0,2,2,0,0,VALID,0,0,0,0,0,1,0,0,0,0,0,0,0,0,0,0,0,0,0,0,15.92,1293.35,2,0,0.08,0.08,106,10.71,0.1,0.08,9.72,FLYING,X10-F,0:/Integrated Flight Computer/aircraft/x10_f_cfg.ks (inferred preloaded)
10,APPROACH,FLY_TO_FIX,206.54,157.7,-48.84,1414.25,-0.68,5.42,5.6,248.16,0.005,0,0,-14.081,1,0.6,4.5,2.161,0.35,0.0168,0.4,14,14,14,48.884,1,248.16,-0.137,0,0,-0.19,0.01,0,-0.13,248.16,0,0,0,0,0,0,0,43.325,0,0,0,3,0,0,0,2344.87,0,0,0,248.15,0,0,0,0,0,0,0,0,0,0,0,0,0,2,2,0,0,VALID,0,0,0,0,0,1,0,0,0,0,0,0,0,0,0,0,0,0,0,0,14.39,1290.02,2,0,0.1,0.1,109,10.71,0.1,0.08,10,FLYING,X10-F,0:/Integrated Flight Computer/aircraft/x10_f_cfg.ks (inferred preloaded)
10.28,APPROACH,FLY_TO_FIX,205.88,157.7,-48.18,1414.07,-0.68,5.48,5.66,248.16,0.007,0,0,-13.871,1,0.6,4.5,2.204,0.35,0.0168,0.4,14,14,14,48.232,1,248.16,-0.134,0,0,-0.19,0.01,0,-0.14,248.16,0,0,0,0,0,0,0,43.268,0,0,0,3,0,0,0,2341.86,0,0,0,248.15,0,0,0,0,0,0,0,0,0,0,0,0,0,2,2,0,0,VALID,0,0,0,0,0,1,0,0,0,0,0,0,0,0,0,0,0,0,0,0,13.01,1286.66,2,0,0.08,0.08,112,10.71,0.1,0.08,10.28,FLYING,X10-F,0:/Integrated Flight Computer/aircraft/x10_f_cfg.ks (inferred preloaded)
10.56,APPROACH,FLY_TO_FIX,205.23,157.7,-47.53,1413.9,-0.66,5.52,5.69,248.16,0.01,0,0,-13.664,1,0.6,4.5,2.245,0.35,0.0168,0.4,14,14,14,47.574,1,248.16,-0.144,0,0,-0.18,0.01,0,-0.14,248.16,0,0,0,0,0,0,0,43.21,0,0,0,3,0,0,0,2338.85,0,0,0,248.15,0,0,0,0,0,0,0,0,0,0,0,0,0,2,2,0,0,VALID,0,0,0,0,0,1,0,0,0,0,0,0,0,0,0,0,0,0,0,0,11.76,1283.29,2,0,0.1,0.1,115,10.71,0.1,0.08,10.56,FLYING,X10-F,0:/Integrated Flight Computer/aircraft/x10_f_cfg.ks (inferred preloaded)
10.84,APPROACH,FLY_TO_FIX,204.56,157.7,-46.86,1413.76,-0.7,5.67,5.87,248.16,0.013,0,0,-13.46,1,0.6,4.5,2.284,0.35,0.0168,0.4,14,14,14,46.905,1,248.16,-0.126,0,0,-0.2,0.01,0,-0.12,248.16,0,0,0,0,0,0,0,43.153,0,0,0,3,0,0,0,2335.86,0,0,0,248.15,0,0,0,0,0,0,0,0,0,0,0,0,0,2,2,0,0,VALID,0,0,0,0,0,1,0,0,0,0,0,0,0,0,0,0,0,0,0,0,10.63,1279.87,2,0,0.08,0.08,118,10.71,0.1,0.08,10.84,FLYING,X10-F,0:/Integrated Flight Computer/aircraft/x10_f_cfg.ks (inferred preloaded)
11.12,APPROACH,FLY_TO_FIX,203.88,157.7,-46.18,1413.53,-0.52,5.53,5.63,248.16,0.016,0,0,-13.259,1,0.6,4.5,2.323,0.35,0.0168,0.4,14,14,14,46.23,1,248.16,-0.182,0,0,-0.14,0.01,0,-0.18,248.16,0,0,0,0,0,0,0,43.096,0,0,0,3,0,0,0,2332.88,0,0,0,248.15,0,0,0,0,0,0,0,0,0,0,0,0,0,2,2,0,0,VALID,0,0,0,0,0,1,0,0,0,0,0,0,0,0,0,0,0,0,0,0,9.61,1276.41,2,0,0.1,0.1,121,10.71,0.1,0.08,11.12,FLYING,X10-F,0:/Integrated Flight Computer/aircraft/x10_f_cfg.ks (inferred preloaded)
11.4,APPROACH,FLY_TO_FIX,203.21,157.7,-45.51,1413.34,-0.79,5.41,5.64,248.16,0.017,0,0,-13.061,1,0.6,4.5,2.358,0.35,0.0168,0.4,14,14,14,45.557,1,248.16,-0.099,0,0,-0.22,0.01,0,-0.12,248.16,0,0,0,0,0,0,0,43.04,0,0,0,3,0,0,0,2329.9,0,0,0,248.15,0,0,0,0,0,0,0,0,0,0,0,0,0,2,2,0,0,VALID,0,0,0,0,0,1,0,0,0,0,0,0,0,0,0,0,0,0,0,0,8.69,1272.97,2,0,0.08,0.08,124,10.71,0.1,0.08,11.4,FLYING,X10-F,0:/Integrated Flight Computer/aircraft/x10_f_cfg.ks (inferred preloaded)
11.68,APPROACH,FLY_TO_FIX,202.54,157.7,-44.84,1413.18,-0.77,5.65,5.86,248.16,0.017,0,0,-12.867,1,0.6,4.5,2.39,0.35,0.0168,0.4,14,14,14,44.89,1,248.16,-0.103,0,0,-0.22,0.01,0,-0.1,248.16,0,0,0,0,0,0,0,42.983,0,0,0,3,0,0,0,2326.93,0,0,0,248.15,0,0,0,0,0,0,0,0,0,0,0,0,0,2,2,0,0,VALID,0,0,0,0,0,1,0,0,0,0,0,0,0,0,0,0,0,0,0,0,7.85,1269.58,2,0,0.1,0.1,127,10.71,0.1,0.08,11.68,FLYING,X10-F,0:/Integrated Flight Computer/aircraft/x10_f_cfg.ks (inferred preloaded)
11.96,APPROACH,FLY_TO_FIX,201.88,157.7,-44.18,1413,-0.76,5.77,5.97,248.16,0.017,0,0,-12.674,1,0.6,4.5,2.416,0.35,0.0168,0.4,14,14,14,44.227,1,248.16,-0.104,0,0,-0.22,0.01,0,-0.1,248.16,0,0,0,0,0,0,0,42.927,0,0,0,3,0,0,0,2323.97,0,0,0,248.15,0,0,0,0,0,0,0,0,0,0,0,0,0,2,2,0,0,VALID,0,0,0,0,0,1,0,0,0,0,0,0,0,0,0,0,0,0,0,0,7.1,1266.21,2,0,0.08,0.08,130,10.71,0.1,0.08,11.96,FLYING,X10-F,0:/Integrated Flight Computer/aircraft/x10_f_cfg.ks (inferred preloaded)
12.22,APPROACH,FLY_TO_FIX,201.26,157.7,-43.56,1412.82,-0.76,5.83,6.04,248.16,0.018,0,0,-12.485,1,0.6,4.5,2.44,0.35,0.0168,0.4,14,14,14,43.604,1,248.16,-0.105,0,0,-0.22,0.01,0,-0.1,248.16,0,0,0,0,0,0,0,42.874,0,0,0,3,0,0,0,2321.23,0,0,0,248.15,0,0,0,0,0,0,0,0,0,0,0,0,0,2,2,0,0,VALID,0,0,0,0,0,1,0,0,0,0,0,0,0,0,0,0,0,0,0,0,6.46,1263.05,2,0,0.08,0.08,133,11.53,0.1,0.08,12.22,FLYING,X10-F,0:/Integrated Flight Computer/aircraft/x10_f_cfg.ks (inferred preloaded)
12.51,APPROACH,FLY_TO_FIX,200.64,157.7,-42.94,1412.62,-0.76,5.9,6.11,248.16,0.017,0,0,-12.299,1,0.6,4.5,2.456,0.35,0.0168,0.4,14,14,14,42.996,1,248.16,-0.105,0,0,-0.22,0.01,0,-0.1,248.16,0,0,0,0,0,0,0,42.819,0,0,0,3,0,0,0,2318.35,0,0,0,248.15,0,0,0,0,0,0,0,0,0,0,0,0,0,2,2,0,0,VALID,0,0,0,0,0,1,0,0,0,0,0,0,0,0,0,0,0,0,0,0,5.82,1259.92,2,0,0.102,0.102,136,10.34,0.102,0.08,12.51,FLYING,X10-F,0:/Integrated Flight Computer/aircraft/x10_f_cfg.ks (inferred preloaded)
12.88,APPROACH,FLY_TO_FIX,199.81,157.7,-42.11,1412.36,-0.75,5.98,6.19,248.16,0.015,0,0,-12.115,1,0.6,4.5,2.46,0.35,0.0168,0.4,14,14,14,42.183,1,248.16,-0.104,0,0,-0.22,0.01,0,-0.1,248.16,0,0,0,0,0,0,0,42.746,0,0,0,3,0,0,0,2314.54,0,0,0,248.15,0,0,0,0,0,0,0,0,0,0,0,0,0,2,2,0,0,VALID,0,0,0,0,0,1,0,0,0,0,0,0,0,0,0,0,0,0,0,0,5.09,1255.72,2,0,0.125,0.125,139,8.06,0.125,0.102,12.88,FLYING,X10-F,0:/Integrated Flight Computer/aircraft/x10_f_cfg.ks (inferred preloaded)
13.14,APPROACH,FLY_TO_FIX,199.19,157.7,-41.49,1412.18,-0.74,6.03,6.24,248.16,0.018,0,0,-11.995,1,0.6,4.5,2.465,0.35,0.0168,0.4,14,14,14,41.57,1,248.16,-0.104,0,0,-0.22,0.01,0,-0.1,248.16,0,0,0,0,0,0,0,42.695,0,0,0,3,0,0,0,2311.84,0,0,0,248.15,0,0,0,0,0,0,0,0,0,0,0,0,0,2,2,0,0,VALID,0,0,0,0,0,1,0,0,0,0,0,0,0,0,0,0,0,0,0,0,4.63,1252.61,2,0,0.13,0.13,141,7.66,0.13,0.125,13.14,FLYING,X10-F,0:/Integrated Flight Computer/aircraft/x10_f_cfg.ks (inferred preloaded)
13.42,APPROACH,FLY_TO_FIX,198.55,157.7,-40.85,1411.99,-0.75,6.09,6.29,248.16,0.021,0,0,-11.875,1,0.6,4.5,2.473,0.35,0.0168,0.4,14,14,14,40.93,1,248.16,-0.106,0,0,-0.21,0.01,0,-0.1,248.16,0,0,0,0,0,0,0,42.642,0,0,0,3,0,0,0,2309.04,0,0,0,248.15,0,0,0,0,0,0,0,0,0,0,0,0,0,2,2,0,0,VALID,0,0,0,0,0,1,0,0,0,0,0,0,0,0,0,0,0,0,0,0,4.2,1249.36,2,0,0.136,0.136,143,7.36,0.136,0.13,13.42,FLYING,X10-F,0:/Integrated Flight Computer/aircraft/x10_f_cfg.ks (inferred preloaded)
13.69,APPROACH,FLY_TO_FIX,197.88,157.7,-40.18,1411.8,-0.74,6.16,6.37,248.16,0.02,0,0,-11.756,1,0.6,4.5,2.482,0.35,0.0168,0.4,14,14,14,40.263,1,248.16,-0.105,0,0,-0.22,0.01,0,-0.1,248.16,0,0,0,0,0,0,0,42.587,0,0,0,3,0,0,0,2306.16,0,0,0,248.15,0,0,0,0,0,0,0,0,0,0,0,0,0,2,2,0,0,VALID,0,0,0,0,0,1,0,0,0,0,0,0,0,0,0,0,0,0,0,0,3.79,1245.99,2,0,0.14,0.14,145,7.15,0.14,0.136,13.69,FLYING,X10-F,0:/Integrated Flight Computer/aircraft/x10_f_cfg.ks (inferred preloaded)
13.97,APPROACH,FLY_TO_FIX,197.19,157.7,-39.49,1411.61,-0.74,6.22,6.43,248.16,0.023,0,0,-11.639,1,0.6,4.5,2.492,0.35,0.0168,0.4,14,14,14,39.579,1,248.16,-0.102,0,0,-0.22,0.01,0,-0.1,248.16,0,0,0,0,0,0,0,42.531,0,0,0,3,0,0,0,2303.26,0,0,0,248.15,0,0,0,0,0,0,0,0,0,0,0,0,0,2,2,0,0,VALID,0,0,0,0,0,1,0,0,0,0,0,0,0,0,0,0,0,0,0,0,3.43,1242.55,2,0,0.14,0.14,147,7.14,0.14,0.14,13.97,FLYING,X10-F,0:/Integrated Flight Computer/aircraft/x10_f_cfg.ks (inferred preloaded)
14.25,APPROACH,FLY_TO_FIX,196.51,157.7,-38.81,1411.42,-0.74,6.29,6.49,248.16,0.023,0,0,-11.523,1,0.6,4.5,2.505,0.35,0.0168,0.4,14,14,14,38.892,1,248.16,-0.104,0,0,-0.22,0.01,0,-0.1,248.16,0,0,0,0,0,0,0,42.476,0,0,0,3,0,0,0,2300.38,0,0,0,248.15,0,0,0,0,0,0,0,0,0,0,0,0,0,2,2,0,0,VALID,0,0,0,0,0,1,0,0,0,0,0,0,0,0,0,0,0,0,0,0,3.1,1239.1,2,0,0.14,0.14,149,7.14,0.14,0.14,14.25,FLYING,X10-F,0:/Integrated Flight Computer/aircraft/x10_f_cfg.ks (inferred preloaded)
14.53,APPROACH,FLY_TO_FIX,195.82,157.7,-38.12,1411.24,-0.74,6.35,6.56,248.17,0.024,0,0,-11.408,1,0.6,4.5,2.517,0.35,0.0168,0.4,14,14,14,38.203,1,248.16,-0.101,0,0,-0.22,0.01,0,-0.1,248.16,0,0,0,0,0,0,0,42.421,0,0,0,3,0,0,0,2297.5,0,0,0,248.15,0,0,0,0,0,0,0,0,0,0,0,0,0,2,2,0,0,VALID,0,0,0,0,0,1,0,0,0,0,0,0,0,0,0,0,0,0,0,0,2.8,1235.65,2,0,0.14,0.14,151,7.14,0.14,0.14,14.53,FLYING,X10-F,0:/Integrated Flight Computer/aircraft/x10_f_cfg.ks (inferred preloaded)
14.81,APPROACH,FLY_TO_FIX,195.13,157.7,-37.43,1411.05,-0.74,6.41,6.62,248.17,0.023,0,0,-11.294,1,0.6,4.5,2.53,0.35,0.0168,0.4,14,14,14,37.513,1,248.16,-0.102,0,0,-0.22,0.01,0,-0.1,248.16,0,0,0,0,0,0,0,42.367,0,0,0,3,0,0,0,2294.64,0,0,0,248.15,0,0,0,0,0,0,0,0,0,0,0,0,0,2,2,0,0,VALID,0,0,0,0,0,1,0,0,0,0,0,0,0,0,0,0,0,0,0,0,2.53,1232.2,2,0,0.14,0.14,153,7.14,0.14,0.14,14.81,FLYING,X10-F,0:/Integrated Flight Computer/aircraft/x10_f_cfg.ks (inferred preloaded)
15.09,APPROACH,FLY_TO_FIX,194.43,157.7,-36.73,1410.86,-0.74,6.48,6.69,248.17,0.022,0,0,-11.182,1,0.6,4.5,2.543,0.35,0.0168,0.4,14,14,14,36.821,1,248.16,-0.101,0,0,-0.22,0.01,0,-0.1,248.16,0,0,0,0,0,0,0,42.312,0,0,0,3,0,0,0,2291.78,0,0,0,248.15,0,0,0,0,0,0,0,0,0,0,0,0,0,2,2,0,0,VALID,0,0,0,0,0,1,0,0,0,0,0,0,0,0,0,0,0,0,0,0,2.29,1228.74,2,0,0.14,0.14,155,7.14,0.14,0.14,15.09,FLYING,X10-F,0:/Integrated Flight Computer/aircraft/x10_f_cfg.ks (inferred preloaded)
15.37,APPROACH,FLY_TO_FIX,193.74,157.7,-36.04,1410.67,-0.74,6.55,6.75,248.17,0.024,0,0,-11.07,1,0.6,4.5,2.556,0.35,0.0168,0.4,14,14,14,36.128,1,248.16,-0.103,0,0,-0.22,0.01,0,-0.1,248.16,0,0,0,0,0,0,0,42.258,0,0,0,3,0,0,0,2288.93,0,0,0,248.15,0,0,0,0,0,0,0,0,0,0,0,0,0,2,2,0,0,VALID,0,0,0,0,0,1,0,0,0,0,0,0,0,0,0,0,0,0,0,0,2.06,1225.29,2,0,0.14,0.14,157,7.14,0.14,0.14,15.37,FLYING,X10-F,0:/Integrated Flight Computer/aircraft/x10_f_cfg.ks (inferred preloaded)
15.65,APPROACH,FLY_TO_FIX,193.05,157.7,-35.35,1410.49,-0.73,6.62,6.82,248.17,0.023,0,0,-10.96,1,0.6,4.5,2.568,0.35,0.0168,0.4,14,14,14,35.434,1,248.16,-0.103,0,0,-0.22,0.01,0,-0.1,248.16,0,0,0,0,0,0,0,42.204,0,0,0,3,0,0,0,2286.1,0,0,0,248.15,0,0,0,0,0,0,0,0,0,0,0,0,0,2,2,0,0,VALID,0,0,0,0,0,1,0,0,0,0,0,0,0,0,0,0,0,0,0,0,1.87,1221.84,2,0,0.14,0.14,159,7.14,0.14,0.14,15.65,FLYING,X10-F,0:/Integrated Flight Computer/aircraft/x10_f_cfg.ks (inferred preloaded)
15.93,APPROACH,FLY_TO_FIX,192.35,157.7,-34.65,1410.3,-0.73,6.68,6.89,248.17,0.021,0,0,-10.85,1,0.6,4.5,2.58,0.35,0.0168,0.4,14,14,14,34.739,1,248.16,-0.1,0,0,-0.22,0.01,0,-0.1,248.16,0,0,0,0,0,0,0,42.15,0,0,0,3,0,0,0,2283.27,0,0,0,248.15,0,0,0,0,0,0,0,0,0,0,0,0,0,2,2,0,0,VALID,0,0,0,0,0,1,0,0,0,0,0,0,0,0,0,0,0,0,0,0,1.69,1218.38,2,0,0.14,0.14,161,7.14,0.14,0.14,15.93,FLYING,X10-F,0:/Integrated Flight Computer/aircraft/x10_f_cfg.ks (inferred preloaded)
16.21,APPROACH,FLY_TO_FIX,191.65,157.7,-33.95,1410.12,-0.73,6.75,6.96,248.17,0.021,0,0,-10.742,1,0.6,4.5,2.591,0.35,0.0168,0.4,14,14,14,34.042,1,248.16,-0.102,0,0,-0.22,0.01,0,-0.1,248.16,0,0,0,0,0,0,0,42.096,0,0,0,3,0,0,0,2280.45,0,0,0,248.15,0,0,0,0,0,0,0,0,0,0,0,0,0,2,2,0,0,VALID,0,0,0,0,0,1,0,0,0,0,0,0,0,0,0,0,0,0,0,0,1.52,1214.93,2,0,0.14,0.14,163,7.14,0.14,0.14,16.21,FLYING,X10-F,0:/Integrated Flight Computer/aircraft/x10_f_cfg.ks (inferred preloaded)
16.49,APPROACH,FLY_TO_FIX,190.96,157.7,-33.26,1409.93,-0.73,6.82,7.03,248.17,0.023,0,0,-10.635,1,0.6,4.5,2.602,0.35,0.0168,0.4,14,14,14,33.344,1,248.16,-0.1,0,0,-0.22,0.01,0,-0.1,248.16,0,0,0,0,0,0,0,42.042,0,0,0,3,0,0,0,2277.64,0,0,0,248.15,0,0,0,0,0,0,0,0,0,0,0,0,0,2,2,0,0,VALID,0,0,0,0,0,1,0,0,0,0,0,0,0,0,0,0,0,0,0,0,1.38,1211.48,2,0,0.14,0.14,165,7.14,0.14,0.14,16.49,FLYING,X10-F,0:/Integrated Flight Computer/aircraft/x10_f_cfg.ks (inferred preloaded)
16.77,APPROACH,FLY_TO_FIX,190.26,157.7,-32.56,1409.75,-0.72,6.89,7.1,248.17,0.022,0,0,-10.529,1,0.6,4.5,2.613,0.35,0.0168,0.4,14,14,14,32.644,1,248.16,-0.1,0,0,-0.22,0.01,0,-0.1,248.16,0,0,0,0,0,0,0,41.989,0,0,0,3,0,0,0,2274.84,0,0,0,248.15,0,0,0,0,0,0,0,0,0,0,0,0,0,2,2,0,0,VALID,0,0,0,0,0,1,0,0,0,0,0,0,0,0,0,0,0,0,0,0,1.24,1208.03,2,0,0.14,0.14,167,7.14,0.14,0.14,16.77,FLYING,X10-F,0:/Integrated Flight Computer/aircraft/x10_f_cfg.ks (inferred preloaded)
17.05,APPROACH,FLY_TO_FIX,189.56,157.7,-31.86,1409.57,-0.72,6.97,7.18,248.17,0.023,0,0,-10.424,1,0.6,4.5,2.623,0.35,0.0168,0.4,14,14,14,31.944,1,248.16,-0.1,0,0,-0.22,0.01,0,-0.1,248.16,0,0,0,0,0,0,0,41.936,0,0,0,3,0,0,0,2272.05,0,0,0,248.15,0,0,0,0,0,0,0,0,0,0,0,0,0,2,2,0,0,VALID,0,0,0,0,0,1,0,0,0,0,0,0,0,0,0,0,0,0,0,0,1.12,1204.58,2,0,0.14,0.14,169,7.14,0.14,0.14,17.05,FLYING,X10-F,0:/Integrated Flight Computer/aircraft/x10_f_cfg.ks (inferred preloaded)
17.33,APPROACH,FLY_TO_FIX,188.85,157.7,-31.15,1409.39,-0.72,7.04,7.25,248.17,0.025,0,0,-10.32,1,0.6,4.5,2.633,0.35,0.0168,0.4,14,14,14,31.242,1,248.16,-0.1,0,0,-0.22,0.01,0,-0.1,248.16,0,0,0,0,0,0,0,41.883,0,0,0,3,0,0,0,2269.27,0,0,0,248.15,0,0,0,0,0,0,0,0,0,0,0,0,0,2,2,0,0,VALID,0,0,0,0,0,1,0,0,0,0,0,0,0,0,0,0,0,0,0,0,1.01,1201.12,2,0,0.14,0.14,171,7.14,0.14,0.14,17.33,FLYING,X10-F,0:/Integrated Flight Computer/aircraft/x10_f_cfg.ks (inferred preloaded)
17.61,APPROACH,FLY_TO_FIX,188.15,157.7,-30.45,1409.21,-0.72,7.11,7.32,248.17,0.025,0,0,-10.217,1,0.6,4.5,2.642,0.35,0.0168,0.4,14,14,14,30.538,1,248.16,-0.1,0,0,-0.22,0.01,0,-0.1,248.16,0,0,0,0,0,0,0,41.83,0,0,0,3,0,0,0,2266.5,0,0,0,248.15,0,0,0,0,0,0,0,0,0,0,0,0,0,2,2,0,0,VALID,0,0,0,0,0,1,0,0,0,0,0,0,0,0,0,0,0,0,0,0,0.92,1197.67,2,0,0.14,0.14,173,7.14,0.14,0.14,17.61,FLYING,X10-F,0:/Integrated Flight Computer/aircraft/x10_f_cfg.ks (inferred preloaded)
17.89,APPROACH,FLY_TO_FIX,187.45,157.7,-29.75,1409.03,-0.71,7.19,7.4,248.17,0.024,0,0,-10.115,1,0.6,4.5,2.651,0.35,0.0168,0.4,14,14,14,29.834,1,248.16,-0.1,0,0,-0.22,0.01,0,-0.1,248.16,0,0,0,0,0,0,0,41.777,0,0,0,3,0,0,0,2263.73,0,0,0,248.15,0,0,0,0,0,0,0,0,0,0,0,0,0,2,2,0,0,VALID,0,0,0,0,0,1,0,0,0,0,0,0,0,0,0,0,0,0,0,0,0.83,1194.22,2,0,0.14,0.14,175,7.14,0.14,0.14,17.89,FLYING,X10-F,0:/Integrated Flight Computer/aircraft/x10_f_cfg.ks (inferred preloaded)
18.17,APPROACH,FLY_TO_FIX,186.74,157.7,-29.04,1408.86,-0.71,7.27,7.48,248.17,0.026,0,0,-10.014,1,0.6,4.5,2.66,0.35,0.0168,0.4,14,14,14,29.128,1,248.16,-0.1,0,0,-0.22,0.01,0,-0.1,248.16,0,0,0,0,0,0,0,41.725,0,0,0,3,0,0,0,2260.98,0,0,0,248.15,0,0,0,0,0,0,0,0,0,0,0,0,0,2,2,0,0,VALID,0,0,0,0,0,1,0,0,0,0,0,0,0,0,0,0,0,0,0,0,0.75,1190.77,2,0,0.14,0.14,177,7.14,0.14,0.14,18.17,FLYING,X10-F,0:/Integrated Flight Computer/aircraft/x10_f_cfg.ks (inferred preloaded)
18.45,APPROACH,FLY_TO_FIX,186.03,157.7,-28.33,1408.68,-0.71,7.34,7.55,248.17,0.024,0,0,-9.914,1,0.6,4.5,2.668,0.35,0.0168,0.4,14,14,14,28.42,1,248.16,-0.099,0,0,-0.22,0.01,0,-0.1,248.16,0,0,0,0,0,0,0,41.672,0,0,0,3,0,0,0,2258.24,0,0,0,248.15,0,0,0,0,0,0,0,0,0,0,0,0,0,2,2,0,0,VALID,0,0,0,0,0,1,0,0,0,0,0,0,0,0,0,0,0,0,0,0,0.68,1187.32,2,0,0.14,0.14,179,7.14,0.14,0.14,18.45,FLYING,X10-F,0:/Integrated Flight Computer/aircraft/x10_f_cfg.ks (inferred preloaded)
18.73,APPROACH,FLY_TO_FIX,185.32,157.7,-27.62,1408.5,-0.71,7.42,7.63,248.17,0.023,0,0,-9.815,1,0.6,4.5,2.677,0.35,0.0168,0.4,14,14,14,27.711,1,248.16,-0.099,0,0,-0.22,0.01,0,-0.1,248.16,0,0,0,0,0,0,0,41.62,0,0,0,3,0,0,0,2255.51,0,0,0,248.15,0,0,0,0,0,0,0,0,0,0,0,0,0,2,2,0,0,VALID,0,0,0,0,0,1,0,0,0,0,0,0,0,0,0,0,0,0,0,0,0.61,1183.87,2,0,0.14,0.14,181,7.14,0.14,0.14,18.73,FLYING,X10-F,0:/Integrated Flight Computer/aircraft/x10_f_cfg.ks (inferred preloaded)
19.01,APPROACH,FLY_TO_FIX,184.61,157.7,-26.91,1408.33,-0.71,7.5,7.71,248.17,0.023,0,0,-9.717,1,0.6,4.5,2.685,0.35,0.0168,0.4,14,14,14,27,1,248.16,-0.099,0,0,-0.22,0.01,0,-0.1,248.16,0,0,0,0,0,0,0,41.568,0,0,0,3,0,0,0,2252.78,0,0,0,248.15,0,0,0,0,0,0,0,0,0,0,0,0,0,2,2,0,0,VALID,0,0,0,0,0,1,0,0,0,0,0,0,0,0,0,0,0,0,0,0,0.55,1180.42,2,0,0.14,0.14,183,7.14,0.14,0.14,19.01,FLYING,X10-F,0:/Integrated Flight Computer/aircraft/x10_f_cfg.ks (inferred preloaded)
19.29,APPROACH,FLY_TO_FIX,183.9,157.7,-26.2,1408.15,-0.7,7.58,7.79,248.17,0.021,0,0,-9.621,1,0.6,4.5,2.693,0.35,0.0168,0.4,14,14,14,26.288,1,248.16,-0.098,0,0,-0.22,0.01,0,-0.1,248.16,0,0,0,0,0,0,0,41.516,0,0,0,3,0,0,0,2250.07,0,0,0,248.15,0,0,0,0,0,0,0,0,0,0,0,0,0,2,2,0,0,VALID,0,0,0,0,0,1,0,0,0,0,0,0,0,0,0,0,0,0,0,0,0.5,1176.97,2,0,0.14,0.14,185,7.14,0.14,0.14,19.29,FLYING,X10-F,0:/Integrated Flight Computer/aircraft/x10_f_cfg.ks (inferred preloaded)
19.57,APPROACH,FLY_TO_FIX,183.18,157.7,-25.48,1407.98,-0.7,7.67,7.88,248.17,0.023,0,0,-9.525,1,0.6,4.5,2.701,0.35,0.0168,0.4,14,14,14,25.574,1,248.16,-0.098,0,0,-0.22,0.01,0,-0.1,248.16,0,0,0,0,0,0,0,41.465,0,0,0,3,0,0,0,2247.36,0,0,0,248.15,0,0,0,0,0,0,0,0,0,0,0,0,0,2,2,0,0,VALID,0,0,0,0,0,1,0,0,0,0,0,0,0,0,0,0,0,0,0,0,0.45,1173.51,2,0,0.14,0.14,187,7.14,0.14,0.14,19.57,FLYING,X10-F,0:/Integrated Flight Computer/aircraft/x10_f_cfg.ks (inferred preloaded)
19.85,APPROACH,FLY_TO_FIX,182.47,157.7,-24.77,1407.81,-0.7,7.75,7.96,248.17,0.02,0,0,-9.43,1,0.6,4.5,2.708,0.35,0.0168,0.4,14,14,14,24.858,1,248.16,-0.097,0,0,-0.22,0.01,0,-0.1,248.16,0,0,0,0,0,0,0,41.413,0,0,0,3,0,0,0,2244.67,0,0,0,248.15,0,0,0,0,0,0,0,0,0,0,0,0,0,2,2,0,0,VALID,0,0,0,0,0,1,0,0,0,0,0,0,0,0,0,0,0,0,0,0,0.41,1170.06,2,0,0.14,0.14,189,7.14,0.14,0.14,19.85,FLYING,X10-F,0:/Integrated Flight Computer/aircraft/x10_f_cfg.ks (inferred preloaded)
20.13,APPROACH,FLY_TO_FIX,181.75,157.7,-24.05,1407.64,-0.7,7.83,8.05,248.17,0.019,0,0,-9.336,1,0.6,4.5,2.716,0.35,0.0168,0.4,14,14,14,24.14,1,248.16,-0.097,0,0,-0.22,0.01,0,-0.09,248.16,0,0,0,0,0,0,0,41.362,0,0,0,3,0,0,0,2241.99,0,0,0,248.15,0,0,0,0,0,0,0,0,0,0,0,0,0,2,2,0,0,VALID,0,0,0,0,0,1,0,0,0,0,0,0,0,0,0,0,0,0,0,0,0.37,1166.6,2,0,0.14,0.14,191,7.14,0.14,0.14,20.13,FLYING,X10-F,0:/Integrated Flight Computer/aircraft/x10_f_cfg.ks (inferred preloaded)
20.41,APPROACH,FLY_TO_FIX,181.03,157.7,-23.33,1407.47,-0.7,7.92,8.14,248.17,0.02,0,0,-9.242,1,0.6,4.5,2.724,0.35,0.0168,0.4,14,14,14,23.42,1,248.16,-0.096,0,0,-0.22,0.01,0,-0.09,248.16,0,0,0,0,0,0,0,41.311,0,0,0,3,0,0,0,2239.31,0,0,0,248.15,0,0,0,0,0,0,0,0,0,0,0,0,0,2,2,0,0,VALID,0,0,0,0,0,1,0,0,0,0,0,0,0,0,0,0,0,0,0,0,0.33,1163.14,2,0,0.14,0.14,193,7.14,0.14,0.14,20.41,FLYING,X10-F,0:/Integrated Flight Computer/aircraft/x10_f_cfg.ks (inferred preloaded)
20.69,APPROACH,FLY_TO_FIX,180.31,157.7,-22.61,1407.3,-0.7,8.01,8.22,248.17,0.022,0,0,-9.15,1,0.6,4.5,2.731,0.35,0.0168,0.4,14,14,14,22.698,1,248.16,-0.096,0,0,-0.22,0.01,0,-0.09,248.16,0,0,0,0,0,0,0,41.26,0,0,0,3,0,0,0,2236.65,0,0,0,248.15,0,0,0,0,0,0,0,0,0,0,0,0,0,2,2,0,0,VALID,0,0,0,0,0,1,0,0,0,0,0,0,0,0,0,0,0,0,0,0,0.3,1159.68,2,0,0.14,0.14,195,7.14,0.14,0.14,20.69,FLYING,X10-F,0:/Integrated Flight Computer/aircraft/x10_f_cfg.ks (inferred preloaded)
20.97,APPROACH,FLY_TO_FIX,179.58,157.7,-21.88,1407.13,-0.7,8.1,8.31,248.17,0.02,0,0,-9.059,1,0.6,4.5,2.739,0.35,0.0168,0.4,14.092,14.092,14.092,21.975,1,248.16,-0.095,0,0,-0.22,0.01,0,-0.09,248.16,0,0,0,0,0,0,0,41.21,0,0,0,3,0,0,0,2233.99,0,0,0,248.15,0,0,0,0,0,0,0,0,0,0,0,0,0,2,2,0,0,VALID,0,0,0,0,0,1,0,0,0,0,0,0,0,0,0,0,0,0,0,0,0.27,1156.22,2,0,0.14,0.14,197,7.14,0.14,0.14,20.97,FLYING,X10-F,0:/Integrated Flight Computer/aircraft/x10_f_cfg.ks (inferred preloaded)
21.25,APPROACH,FLY_TO_FIX,178.86,157.7,-21.16,1406.96,-0.7,8.19,8.41,248.17,0.019,0,0,-8.969,1,0.6,4.5,2.747,0.35,0.0168,0.4,14.296,14.296,14.296,21.249,1,248.16,-0.095,0,0,-0.22,0.01,0,-0.09,248.16,0,0,0,0,0,0,0,41.159,0,0,0,3,0,0,0,2231.35,0,0,0,248.15,0,0,0,0,0,0,0,0,0,0,0,0,0,2,2,0,0,VALID,0,0,0,0,0,1,0,0,0,0,0,0,0,0,0,0,0,0,0,0,0.24,1152.76,2,0,0.14,0.14,199,7.14,0.14,0.14,21.25,FLYING,X10-F,0:/Integrated Flight Computer/aircraft/x10_f_cfg.ks (inferred preloaded)
21.53,APPROACH,FLY_TO_FIX,178.13,157.7,-20.43,1406.79,-0.69,8.28,8.5,248.17,0.018,0,0,-8.879,1,0.6,4.5,2.754,0.35,0.0168,0.4,14.502,14.502,14.502,20.52,1,248.16,-0.094,0,0,-0.22,0.01,0,-0.09,248.16,0,0,0,0,0,0,0,41.109,0,0,0,3,0,0,0,2228.71,0,0,0,248.15,0,0,0,0,0,0,0,0,0,0,0,0,0,2,2,0,0,VALID,0,0,0,0,0,1,0,0,0,0,0,0,0,0,0,0,0,0,0,0,0.22,1149.29,2,0,0.14,0.14,201,7.14,0.14,0.14,21.53,FLYING,X10-F,0:/Integrated Flight Computer/aircraft/x10_f_cfg.ks (inferred preloaded)
21.81,APPROACH,FLY_TO_FIX,177.4,157.7,-19.7,1406.62,-0.69,8.38,8.59,248.17,0.019,0,0,-8.791,1,0.6,4.5,2.762,0.35,0.0168,0.4,14.539,14.708,14.539,19.788,1,248.16,-0.094,0,0,-0.22,0.01,0,-0.09,248.16,0,0,0,0,0,0,0,41.059,0,0,0,3,0,0,0,2226.09,0,0,0,248.15,0,0,0,0,0,0,0,0,0,0,0,0,0,2,2,0,0,VALID,0,0,0,0,0,1,0,0,0,0,0,0,0,0,0,0,0,0,0,0,0.2,1145.82,2,0,0.14,0.14,203,7.14,0.14,0.14,21.81,FLYING,X10-F,0:/Integrated Flight Computer/aircraft/x10_f_cfg.ks (inferred preloaded)
22.09,APPROACH,FLY_TO_FIX,176.66,157.7,-18.96,1406.46,-0.69,8.47,8.69,248.17,0.017,0,0,-8.703,1,0.6,4.5,2.77,0.35,0.0168,0.4,14.152,14.915,14.152,19.054,1,248.15,-0.093,0,0,-0.22,0.01,0,-0.09,248.15,0,0,0,0,0,0,0,41.009,0,0,0,3,0,0,0,2223.47,0,0,0,248.15,0,0,0,0,0,0,0,0,0,0,0,0,0,2,2,0,0,VALID,0,0,0,0,0,1,0,0,0,0,0,0,0,0,0,0,0,0,0,0,0.18,1142.34,2,0,0.14,0.14,205,7.14,0.14,0.14,22.09,FLYING,X10-F,0:/Integrated Flight Computer/aircraft/x10_f_cfg.ks (inferred preloaded)
22.37,APPROACH,FLY_TO_FIX,175.93,157.7,-18.23,1406.29,-0.69,8.57,8.79,248.17,0.016,0,0,-8.616,1,0.6,4.5,2.778,0.35,0.0168,0.4,13.747,15.122,13.747,18.317,1,248.15,-0.092,0,0,-0.23,0.01,0,-0.09,248.15,0,0,0,0,0,0,0,40.959,0,0,0,3,0,0,0,2220.87,0,0,0,248.15,0,0,0,0,0,0,0,0,0,0,0,0,0,2,2,0,0,VALID,0,0,0,0,0,1,0,0,0,0,0,0,0,0,0,0,0,0,0,0,0.16,1138.86,2,0,0.14,0.14,207,7.14,0.14,0.14,22.37,FLYING,X10-F,0:/Integrated Flight Computer/aircraft/x10_f_cfg.ks (inferred preloaded)
22.65,APPROACH,FLY_TO_FIX,175.19,157.7,-17.49,1406.12,-0.69,8.67,8.89,248.17,0.018,0,0,-8.53,1,0.6,4.5,2.787,0.35,0.0168,0.4,13.325,15.33,13.325,17.58,1,248.15,-0.092,0,0,-0.23,0.01,0,-0.09,248.15,0,0,0,0,0,0,0,40.91,0,0,0,3,0,0,0,2218.28,0,0,0,248.15,0,0,0,0,0,0,0,0,0,0,0,0,0,2,2,0,0,VALID,0,0,0,0,0,1,0,0,0,0,0,0,0,0,0,0,0,0,0,0,0.15,1135.38,2,0,0.14,0.14,209,7.14,0.14,0.14,22.65,FLYING,X10-F,0:/Integrated Flight Computer/aircraft/x10_f_cfg.ks (inferred preloaded)
22.93,APPROACH,FLY_TO_FIX,174.45,157.7,-16.75,1405.96,-0.69,8.77,8.99,248.17,0.016,0,0,-8.445,1,0.6,4.5,2.795,0.35,0.0168,0.4,12.885,15.538,12.885,16.841,1,248.15,-0.091,0,0,-0.23,0.01,0,-0.09,248.15,0,0,0,0,0,0,0,40.86,0,0,0,3,0,0,0,2215.69,0,0,0,248.15,0,0,0,0,0,0,0,0,0,0,0,0,0,2,2,0,0,VALID,0,0,0,0,0,1,0,0,0,0,0,0,0,0,0,0,0,0,0,0,0.13,1131.91,2,0,0.14,0.14,211,7.14,0.14,0.14,22.93,FLYING,X10-F,0:/Integrated Flight Computer/aircraft/x10_f_cfg.ks (inferred preloaded)
23.21,APPROACH,FLY_TO_FIX,173.71,157.7,-16.01,1405.79,-0.69,8.87,9.09,248.17,0.016,0,0,-8.361,1,0.6,4.5,2.803,0.35,0.0168,0.4,12.428,15.747,12.428,16.1,1,248.15,-0.09,0,0,-0.23,0.01,0,-0.09,248.15,0,0,0,0,0,0,0,40.811,0,0,0,3,0,0,0,2213.12,0,0,0,248.15,0,0,0,0,0,0,0,0,0,0,0,0,0,2,2,0,0,VALID,0,0,0,0,0,1,0,0,0,0,0,0,0,0,0,0,0,0,0,0,0.12,1128.44,2,0,0.14,0.14,213,7.14,0.14,0.14,23.21,FLYING,X10-F,0:/Integrated Flight Computer/aircraft/x10_f_cfg.ks (inferred preloaded)
23.49,APPROACH,FLY_TO_FIX,172.97,157.7,-15.27,1405.63,-0.69,8.97,9.2,248.17,0.016,0,0,-8.277,1,0.6,4.5,2.81,0.35,0.0168,0.4,11.953,15.956,11.953,15.358,1,248.15,-0.089,0,0,-0.23,0.01,0,-0.09,248.15,0,0,0,0,0,0,0,40.762,0,0,0,3,0,0,0,2210.55,0,0,0,248.15,0,0,0,0,0,0,0,0,0,0,0,0,0,2,2,0,0,VALID,0,0,0,0,0,1,0,0,0,0,0,0,0,0,0,0,0,0,0,0,0,1124.96,2,0,0.14,0.14,215,7.14,0.14,0.14,23.49,FLYING,X10-F,0:/Integrated Flight Computer/aircraft/x10_f_cfg.ks (inferred preloaded)
23.77,APPROACH,FLY_TO_FIX,172.22,157.7,-14.52,1405.47,-0.69,9.08,9.3,248.17,0.016,0,0,-8.195,1,0.6,4.5,2.818,0.35,0.0168,0.4,11.459,16.166,11.459,14.614,1,248.15,-0.089,0,0,-0.23,0.01,0,-0.09,248.15,0,0,0,0,0,0,0,40.714,0,0,0,3,0,0,0,2208,0,0,0,248.15,0,0,0,0,0,0,0,0,0,0,0,0,0,2,2,0,0,VALID,0,0,0,0,0,1,0,0,0,0,0,0,0,0,0,0,0,0,0,0,0,1121.49,2,0,0.14,0.14,217,7.14,0.14,0.14,23.77,FLYING,X10-F,0:/Integrated Flight Computer/aircraft/x10_f_cfg.ks (inferred preloaded)
24.05,APPROACH,FLY_TO_FIX,171.47,157.7,-13.77,1405.3,-0.69,9.18,9.41,248.17,0.018,0,0,-8.113,1,0.6,4.5,2.826,0.35,0.0168,0.4,10.948,16.376,10.948,13.867,1,248.15,-0.088,0,0,-0.23,0.01,0,-0.09,248.15,0,0,0,0,0,0,0,40.665,0,0,0,3,0,0,0,2205.46,0,0,0,248.15,0,0,0,0,0,0,0,0,0,0,0,0,0,2,2,0,0,VALID,0,0,0,0,0,1,0,0,0,0,0,0,0,0,0,0,0,0,0,0,0,1118.02,2,0,0.14,0.14,219,7.14,0.14,0.14,24.05,FLYING,X10-F,0:/Integrated Flight Computer/aircraft/x10_f_cfg.ks (inferred preloaded)
24.33,APPROACH,FLY_TO_FIX,170.72,157.7,-13.02,1405.14,-0.69,9.29,9.52,248.17,0.019,0,0,-8.032,1,0.6,4.5,2.834,0.35,0.0168,0.4,10.417,16.587,10.417,13.119,1,248.15,-0.087,0,0,-0.23,0.01,0,-0.09,248.15,0,0,0,0,0,0,0,40.617,0,0,0,3,0,0,0,2202.93,0,0,0,248.15,0,0,0,0,0,0,0,0,0,0,0,0,0,2,2,0,0,VALID,0,0,0,0,0,1,0,0,0,0,0,0,0,0,0,0,0,0,0,0,0,1114.54,2,0,0.14,0.14,221,7.14,0.14,0.14,24.33,FLYING,X10-F,0:/Integrated Flight Computer/aircraft/x10_f_cfg.ks (inferred preloaded)
24.61,APPROACH,FLY_TO_FIX,169.97,157.7,-12.27,1404.98,-0.69,9.4,9.63,248.17,0.015,0,0,-7.952,1,0.6,4.5,2.842,0.35,0.0168,0.4,9.868,16.799,9.868,12.368,1,248.15,-0.086,0,0,-0.23,0.01,0,-0.08,248.15,0,0,0,0,0,0,0,40.569,0,0,0,3,0,0,0,2200.4,0,0,0,248.15,0,0,0,0,0,0,0,0,0,0,0,0,0,2,2,0,0,VALID,0,0,0,0,0,1,0,0,0,0,0,0,0,0,0,0,0,0,0,0,0,1111.07,2,0,0.14,0.14,223,7.14,0.14,0.14,24.61,FLYING,X10-F,0:/Integrated Flight Computer/aircraft/x10_f_cfg.ks (inferred preloaded)
24.89,APPROACH,FLY_TO_FIX,169.22,157.7,-11.52,1404.82,-0.69,9.52,9.75,248.17,0.014,0,0,-7.873,1,0.6,4.5,2.849,0.35,0.0168,0.4,9.3,17.011,9.3,11.614,1,248.15,-0.085,0,0,-0.23,0.01,0,-0.08,248.15,0,0,0,0,0,0,0,40.521,0,0,0,3,0,0,0,2197.89,0,0,0,248.15,0,0,0,0,0,0,0,0,0,0,0,0,0,2,2,0,0,VALID,0,0,0,0,0,1,0,0,0,0,0,0,0,0,0,0,0,0,0,0,0,1107.59,2,0,0.14,0.14,225,7.14,0.14,0.14,24.89,FLYING,X10-F,0:/Integrated Flight Computer/aircraft/x10_f_cfg.ks (inferred preloaded)
25.17,APPROACH,FLY_TO_FIX,168.46,157.7,-10.76,1404.66,-0.69,9.63,9.86,248.17,0.013,0,0,-10.966,1,0.6,4.5,2.857,0.35,0.0168,0.4,8.713,17.225,8.713,10.858,1,248.15,-0.085,0,0,-0.23,0.01,0,-0.08,248.15,0,0,0,0,0,0,0,40.473,0,0,0,3,0,0,0,2195.39,0,0,0,248.15,0,0,0,0,0,0,0,0,0,0,0,0,0,2,2,0,0,VALID,0,0,0,0,0,1,0,0,0,0,0,0,0,0,0,0,0,0,0,0,0,1104.11,2,0,0.14,0.14,227,7.14,0.14,0.14,25.17,FLYING,X10-F,0:/Integrated Flight Computer/aircraft/x10_f_cfg.ks (inferred preloaded)
25.45,APPROACH,FLY_TO_FIX,167.7,157.7,-10,1404.5,-0.69,9.75,9.98,248.17,0.012,0.0037,0,-13.847,1,0.6,4.5,2.866,0.35,0.0168,0.4,8.105,17.439,8.105,10.099,1,248.15,-0.084,0,0,-0.24,0.01,0,-0.08,248.15,0,0,0,0,0,0,0,40.426,0,0,0,3,0,0,0,2192.9,0,0,0,248.15,0,0,0,0,0,0,0,0,0,0,0,0,0,2,2,0,0,VALID,0,0,0,0,0,1,0,0,0,0,0,0,0,0,0,0,0,0,0,0,0,1100.63,2,0,0.14,0.14,229,7.14,0.14,0.14,25.45,FLYING,X10-F,0:/Integrated Flight Computer/aircraft/x10_f_cfg.ks (inferred preloaded)
25.73,APPROACH,FLY_TO_FIX,166.94,157.7,-9.24,1404.34,-0.69,9.87,10.1,248.17,0.012,0.0155,0,-16.514,1,0.6,4.5,2.874,0.35,0.0168,0.4,7.478,17.653,7.478,9.337,1,248.15,-0.083,0,0,-0.24,0.01,0,-0.08,248.15,0,0,0,0,0,0,0,40.378,0,0,0,3,0,0,0,2190.42,0,0,0,248.15,0,0,0,0,0,0,0,0,0,0,0,0,0,2,2,0,0,VALID,0,0,0,0,0,1,0,0,0,0,0,0,0,0,0,0,0,0,0,0,0.32,1097.14,2,0,0.14,0.14,231,7.14,0.14,0.14,25.73,FLYING,X10-F,0:/Integrated Flight Computer/aircraft/x10_f_cfg.ks (inferred preloaded)
26.01,APPROACH,FLY_TO_FIX,166.18,157.7,-8.48,1404.18,-0.69,9.99,10.22,248.17,0.012,0.0308,0,-18.968,1,0.6,4.5,2.882,0.35,0.0168,0.4,6.831,17.869,6.831,8.573,1,248.15,-0.082,0,0,-0.24,0.01,0,-0.08,248.15,0,0,0,0,0,0,0,40.331,0,0,0,3,0,0,0,2187.95,0,0,0,248.15,0,0,0,0,0,0,0,0,0,0,0,0,0,2,2,0,0,VALID,0,0,0,0,0,1,0,0,0,0,0,0,0,0,0,0,0,0,0,0,1.34,1093.66,2,0,0.14,0.14,233,7.14,0.14,0.14,26.01,FLYING,X10-F,0:/Integrated Flight Computer/aircraft/x10_f_cfg.ks (inferred preloaded)
26.29,APPROACH,FLY_TO_FIX,165.41,157.7,-7.71,1404.02,-0.69,10.11,10.34,248.17,0.014,0.0692,0,-20,1,0.6,4.5,2.891,0.35,0.0168,0.4,6.166,18.084,6.166,7.808,1,248.15,-0.081,0,0,-0.24,0.01,0,-0.08,248.15,0,0,0,0,0,0,0,40.284,0,0,0,3,0,0,0,2185.49,0,0,0,248.15,0,0,0,0,0,0,0,0,0,0,0,0,0,2,2,0,0,VALID,0,0,0,0,0,1,0,0,0,0,0,0,0,0,0,0,0,0,0,0,3.29,1090.18,2,0,0.14,0.14,235,7.14,0.14,0.14,26.29,FLYING,X10-F,0:/Integrated Flight Computer/aircraft/x10_f_cfg.ks (inferred preloaded)
26.57,APPROACH,FLY_TO_FIX,164.65,157.7,-6.95,1403.86,-0.69,10.23,10.46,248.17,0.014,0.123,0,-20,1,0.6,4.5,2.895,0.35,0.0168,0.4,0,18.299,0,7.046,0,248.15,-0.081,0,0,-0.24,0.01,0,-0.08,248.15,0,0,0,0,0,0,0,40.237,0,0,0,3,0,0,0,2183.04,0,0,0,248.15,0,0,0,0,0,0,0,0,0,0,0,0,0,2,2,0,0,VALID,0,0,0,0,0,1,0,0,0,0,0,0,0,0,0,0,0,0,0,0,7.63,1086.72,2,0,0.14,0.14,237,7.14,0.14,0.14,26.57,FLYING,X10-F,0:/Integrated Flight Computer/aircraft/x10_f_cfg.ks (inferred preloaded)
26.85,APPROACH,FLY_TO_FIX,163.9,157.7,-6.2,1403.7,-0.69,10.34,10.58,248.17,0.015,0.1718,0,-20,1,0.6,4.5,2.895,0.35,0.0168,0.4,0,18.511,0,6.292,0,248.15,-0.081,0,0,-0.24,0.02,0,-0.08,248.15,0,0,0,0,0,0,0,40.191,0,0,0,3,0,0,0,2180.61,0,0,0,248.15,0,0,0,0,0,0,0,0,0,0,0,0,0,2,2,0,0,VALID,0,0,0,0,0,1,0,0,0,0,0,0,0,0,0,0,0,0,0,0,14.86,1083.33,2,0,0.14,0.14,239,7.14,0.14,0.14,26.85,FLYING,X10-F,0:/Integrated Flight Computer/aircraft/x10_f_cfg.ks (inferred preloaded)
27.13,APPROACH,FLY_TO_FIX,163.17,157.7,-5.47,1403.54,-0.68,10.45,10.68,248.17,0.016,0.2122,0,-20,1,0.6,4.5,2.895,0.35,0.0168,0.4,0,18.718,0,5.558,0,248.15,-0.082,0,0,-0.24,0.02,0,-0.08,248.15,0,0,0,0,0,0,0,40.145,0,0,0,3,0,0,0,2178.18,0,0,0,248.15,0,0,0,0,0,0,0,0,0,0,0,0,0,2,2,0,0,VALID,0,0,0,0,0,1,0,0,0,0,0,0,0,0,0,0,0,0,0,0,24.45,1080.03,2,0,0.14,0.14,241,7.14,0.14,0.14,27.13,FLYING,X10-F,0:/Integrated Flight Computer/aircraft/x10_f_cfg.ks (inferred preloaded)
27.41,APPROACH,FLY_TO_FIX,162.46,157.7,-4.76,1403.38,-0.67,10.55,10.78,248.17,0.016,0.2445,0,-20,1,0.6,4.5,2.895,0.35,0.0168,0.4,0,18.919,0,4.846,0,248.15,-0.083,0,0,-0.24,0.02,0,-0.08,248.15,0,0,0,0,0,0,0,40.098,0,0,0,3,0,0,0,2175.76,0,0,0,248.15,0,0,0,0,0,0,0,0,0,0,0,0,0,2,2,0,0,VALID,0,0,0,0,0,1,0,0,0,0,0,0,0,0,0,0,0,0,0,0,35.79,1076.84,2,0,0.14,0.14,243,7.14,0.14,0.14,27.41,FLYING,X10-F,0:/Integrated Flight Computer/aircraft/x10_f_cfg.ks (inferred preloaded)
27.69,APPROACH,FLY_TO_FIX,161.78,157.7,-4.08,1403.21,-0.67,10.64,10.87,248.17,0.017,0.2684,0,-20,1,0.6,4.5,2.895,0.35,0.0168,0.4,0,19.111,0,4.163,0,248.15,-0.084,0,0,-0.24,0.02,0,-0.08,248.15,0,0,0,0,0,0,0,40.053,0,0,0,3,0,0,0,2173.35,0,0,0,248.15,0,0,0,0,0,0,0,0,0,0,0,0,0,2,2,0,0,VALID,0,0,0,0,0,1,0,0,0,0,0,0,0,0,0,0,0,0,0,0,48.28,1073.8,2,0,0.14,0.14,245,7.14,0.14,0.14,27.69,FLYING,X10-F,0:/Integrated Flight Computer/aircraft/x10_f_cfg.ks (inferred preloaded)
27.97,APPROACH,FLY_TO_FIX,161.13,157.7,-3.43,1403.05,-0.66,10.72,10.95,248.17,0.015,0.284,0,-20,1,0.6,4.5,2.895,0.35,0.0168,0.4,0,19.295,0,3.512,0,248.15,-0.086,0,0,-0.24,0.02,0,-0.08,248.15,0,0,0,0,0,0,0,40.007,0,0,0,3,0,0,0,2170.96,0,0,0,248.15,0,0,0,0,0,0,0,0,0,0,0,0,0,2,2,0,0,VALID,0,0,0,0,0,1,0,0,0,0,0,0,0,0,0,0,0,0,0,0,61.35,1070.91,2,0,0.14,0.14,247,7.14,0.14,0.14,27.97,FLYING,X10-F,0:/Integrated Flight Computer/aircraft/x10_f_cfg.ks (inferred preloaded)
28.25,APPROACH,FLY_TO_FIX,160.52,157.7,-2.82,1402.89,-0.65,10.8,11.02,248.17,0.014,0.2923,0,-20,1,0.6,4.5,2.895,0.35,0.0168,0.4,0,19.469,0,2.895,0,248.15,-0.087,0,0,-0.23,0.02,0,-0.08,248.15,0,0,0,0,0,0,0,39.961,0,0,0,3,0,0,0,2168.56,0,0,0,248.15,0,0,0,0,0,0,0,0,0,0,0,0,0,2,2,0,0,VALID,0,0,0,0,0,1,0,0,0,0,0,0,0,0,0,0,0,0,0,0,74.49,1068.18,2,0,0.14,0.14,249,7.14,0.14,0.14,28.25,FLYING,X10-F,0:/Integrated Flight Computer/aircraft/x10_f_cfg.ks (inferred preloaded)
28.53,APPROACH,FLY_TO_FIX,159.94,157.7,-2.24,1402.73,-0.65,10.87,11.09,248.17,0.015,0.2946,0,-20,1,0.6,4.5,2.895,0.35,0.0168,0.4,0,19.632,0,2.315,0,248.15,-0.089,0,0,-0.23,0.02,0,-0.09,248.15,0,0,0,0,0,0,0,39.916,0,0,0,3,0,0,0,2166.18,0,0,0,248.15,0,0,0,0,0,0,0,0,0,0,0,0,0,2,2,0,0,VALID,0,0,0,0,0,1,0,0,0,0,0,0,0,0,0,0,0,0,0,0,87.3,1065.62,2,0,0.14,0.14,251,7.14,0.14,0.14,28.53,FLYING,X10-F,0:/Integrated Flight Computer/aircraft/x10_f_cfg.ks (inferred preloaded)
28.81,APPROACH,FLY_TO_FIX,159.4,157.7,-1.7,1402.56,-0.64,10.93,11.15,248.17,0.013,0.2924,0,-20,1,0.6,4.5,2.895,0.35,0.0168,0.4,0,19.786,0,1.769,0,248.15,-0.09,0,0,-0.23,0.02,0,-0.09,248.15,0,0,0,0,0,0,0,39.87,0,0,0,3,0,0,0,2163.81,0,0,0,248.15,0,0,0,0,0,0,0,0,0,0,0,0,0,2,2,0,0,VALID,0,0,0,0,0,1,0,0,0,0,0,0,0,0,0,0,0,0,0,0,99.45,1063.23,2,0,0.14,0.14,253,7.14,0.14,0.14,28.81,FLYING,X10-F,0:/Integrated Flight Computer/aircraft/x10_f_cfg.ks (inferred preloaded)
29.09,APPROACH,FLY_TO_FIX,158.9,157.7,-1.2,1402.4,-0.63,10.99,11.2,248.17,0.013,0.2872,0,-20,1,0.6,4.5,2.895,0.35,0.0168,0.4,0,19.93,0,1.258,0,248.15,-0.091,0,0,-0.23,0.02,0,-0.09,248.15,0,0,0,0,0,0,0,39.825,0,0,0,3,0,0,0,2161.44,0,0,0,248.15,0,0,0,0,0,0,0,0,0,0,0,0,0,2,2,0,0,VALID,0,0,0,0,0,1,0,0,0,0,0,0,0,0,0,0,0,0,0,0,110.73,1060.98,2,0,0.14,0.14,255,7.14,0.14,0.14,29.09,FLYING,X10-F,0:/Integrated Flight Computer/aircraft/x10_f_cfg.ks (inferred preloaded)
29.37,APPROACH,FLY_TO_FIX,158.42,157.7,-0.72,1402.24,-0.62,11.04,11.26,248.17,0.015,0.2805,0,-20,1,0.6,4.5,2.895,0.35,0.0168,0.4,0,20.065,0,0.778,0,248.15,-0.092,0,0,-0.23,0.02,0,-0.09,248.15,0,0,0,0,0,0,0,39.78,0,0,0,3,0,0,0,2159.08,0,0,0,248.15,0,0,0,0,0,0,0,0,0,0,0,0,0,2,2,0,0,VALID,0,0,0,0,0,1,0,0,0,0,0,0,0,0,0,0,0,0,0,0,121.04,1058.88,2,0,0.14,0.14,257,7.14,0.14,0.14,29.37,FLYING,X10-F,0:/Integrated Flight Computer/aircraft/x10_f_cfg.ks (inferred preloaded)
29.65,APPROACH,FLY_TO_FIX,157.97,157.7,-0.27,1402.08,-0.62,11.1,11.3,248.17,0.015,0.2734,0,-20,1,0.6,4.5,2.895,0.35,0.0168,0.4,0,20.193,0,0.326,0,248.15,-0.094,0,0,-0.22,0.02,0,-0.09,248.15,0,0,0,0,0,0,0,39.735,0,0,0,3,0,0,0,2156.72,0,0,0,248.15,0,0,0,0,0,0,0,0,0,0,0,0,0,2,2,0,0,VALID,0,0,0,0,0,1,0,0,0,0,0,0,0,0,0,0,0,0,0,0,130.36,1056.91,2,0,0.14,0.14,259,7.14,0.14,0.14,29.65,FLYING,X10-F,0:/Integrated Flight Computer/aircraft/x10_f_cfg.ks (inferred preloaded)
29.93,APPROACH,FLY_TO_FIX,157.55,157.7,0.15,1401.92,-0.61,11.15,11.36,248.17,0.014,0.267,0,-19.986,1,0.6,4.5,2.895,0.35,0.0168,0.4,0,20.313,0,-0.099,0,248.15,-0.094,0,0,-0.22,0.02,0,-0.09,248.15,0,0,0,0,0,0,0,39.69,0,0,0,3,0,0,0,2154.38,0,0,0,248.15,0,0,0,0,0,0,0,0,0,0,0,0,0,2,2,0,0,VALID,0,0,0,0,0,1,0,0,0,0,0,0,0,0,0,0,0,0,0,0,138.74,1055.05,2,0,0.14,0.14,261,7.14,0.14,0.14,29.93,FLYING,X10-F,0:/Integrated Flight Computer/aircraft/x10_f_cfg.ks (inferred preloaded)
30.21,APPROACH,FLY_TO_FIX,157.15,157.7,0.55,1401.77,-0.61,11.19,11.4,248.17,0.014,0.2633,0,-19.873,1,0.6,4.5,2.895,0.35,0.0168,0.4,0,20.426,0,-0.502,0,248.15,-0.093,0,0,-0.22,0.02,0,-0.09,248.15,0,0,0,0,0,0,0,39.646,0,0,0,3,0,0,0,2152.03,0,0,0,248.15,0,0,0,0,0,0,0,0,0,0,0,0,0,2,2,0,0,VALID,0,0,0,0,0,1,0,0,0,0,0,0,0,0,0,0,0,0,0,0,146.28,1053.3,2,0,0.14,0.14,263,7.14,0.14,0.14,30.21,FLYING,X10-F,0:/Integrated Flight Computer/aircraft/x10_f_cfg.ks (inferred preloaded)
30.49,APPROACH,FLY_TO_FIX,156.77,157.7,0.93,1401.61,-0.61,11.24,11.45,248.17,0.015,0.2627,0,-19.652,1,0.6,4.5,2.895,0.35,0.0168,0.4,0,20.533,0,-0.883,0,248.15,-0.097,0,0,-0.22,0.02,0,-0.09,248.15,0,0,0,0,0,0,0,39.601,0,0,0,3,0,0,0,2149.7,0,0,0,248.15,0,0,0,0,0,0,0,0,0,0,0,0,0,2,2,0,0,VALID,0,0,0,0,0,1,0,0,0,0,0,0,0,0,0,0,0,0,0,0,153.19,1051.64,2,0,0.14,0.14,265,7.14,0.14,0.14,30.49,FLYING,X10-F,0:/Integrated Flight Computer/aircraft/x10_f_cfg.ks (inferred preloaded)
30.77,APPROACH,FLY_TO_FIX,156.41,157.7,1.29,1401.45,-0.59,11.29,11.49,248.17,0.015,0.2653,0,-19.329,1,0.6,4.5,2.895,0.35,0.0168,0.4,0,20.636,0,-1.246,0,248.15,-0.097,0,0,-0.22,0.02,0,-0.1,248.15,0,0,0,0,0,0,0,39.557,0,0,0,3,0,0,0,2147.36,0,0,0,248.15,0,0,0,0,0,0,0,0,0,0,0,0,0,2,2,0,0,VALID,0,0,0,0,0,1,0,0,0,0,0,0,0,0,0,0,0,0,0,0,159.7,1050.07,2,0,0.14,0.14,267,7.14,0.14,0.14,30.77,FLYING,X10-F,0:/Integrated Flight Computer/aircraft/x10_f_cfg.ks (inferred preloaded)
31.05,APPROACH,FLY_TO_FIX,156.07,157.7,1.63,1401.3,-0.59,11.33,11.54,248.17,0.016,0.2706,0,-18.907,1,0.6,4.5,2.895,0.35,0.0168,0.4,0,20.733,0,-1.591,0,248.15,-0.094,0,0,-0.22,0.02,0,-0.09,248.15,0,0,0,0,0,0,0,39.512,0,0,0,3,0,0,0,2145.04,0,0,0,248.15,0,0,0,0,0,0,0,0,0,0,0,0,0,2,2,0,0,VALID,0,0,0,0,0,1,0,0,0,0,0,0,0,0,0,0,0,0,0,0,166.01,1048.57,2,0,0.14,0.14,269,7.14,0.14,0.14,31.05,FLYING,X10-F,0:/Integrated Flight Computer/aircraft/x10_f_cfg.ks (inferred preloaded)
31.33,APPROACH,FLY_TO_FIX,155.74,157.7,1.96,1401.15,-0.6,11.38,11.58,248.17,0.013,0.2782,0,-18.393,1,0.6,4.5,2.895,0.35,0.0168,0.4,0,20.825,0,-1.919,0,248.15,-0.098,0,0,-0.22,0.02,0,-0.09,248.15,0,0,0,0,0,0,0,39.468,0,0,0,3,0,0,0,2142.71,0,0,0,248.15,0,0,0,0,0,0,0,0,0,0,0,0,0,2,2,0,0,VALID,0,0,0,0,0,1,0,0,0,0,0,0,0,0,0,0,0,0,0,0,172.26,1047.15,2,0,0.14,0.14,271,7.14,0.14,0.14,31.33,FLYING,X10-F,0:/Integrated Flight Computer/aircraft/x10_f_cfg.ks (inferred preloaded)
31.61,APPROACH,FLY_TO_FIX,155.43,157.7,2.27,1400.99,-0.59,11.41,11.61,248.17,0.014,0.2872,0,-17.789,1,0.6,4.5,2.895,0.35,0.0168,0.4,0,20.913,0,-2.231,0,248.15,-0.098,0,0,-0.22,0.02,0,-0.1,248.15,0,0,0,0,0,0,0,39.424,0,0,0,3,0,0,0,2140.39,0,0,0,248.15,0,0,0,0,0,0,0,0,0,0,0,0,0,2,2,0,0,VALID,0,0,0,0,0,1,0,0,0,0,0,0,0,0,0,0,0,0,0,0,178.61,1045.81,2,0,0.14,0.14,273,7.14,0.14,0.14,31.61,FLYING,X10-F,0:/Integrated Flight Computer/aircraft/x10_f_cfg.ks (inferred preloaded)
31.89,APPROACH,FLY_TO_FIX,155.14,157.7,2.56,1400.84,-0.58,11.45,11.65,248.17,0.015,0.2966,0,-17.103,1,0.6,4.5,2.895,0.35,0.0168,0.4,0,20.996,0,-2.525,0,248.15,-0.099,0,0,-0.21,0.02,0,-0.1,248.15,0,0,0,0,0,0,0,39.379,0,0,0,3,0,0,0,2138.08,0,0,0,248.15,0,0,0,0,0,0,0,0,0,0,0,0,0,2,2,0,0,VALID,0,0,0,0,0,1,0,0,0,0,0,0,0,0,0,0,0,0,0,0,185.11,1044.54,2,0,0.14,0.14,275,7.14,0.14,0.14,31.89,FLYING,X10-F,0:/Integrated Flight Computer/aircraft/x10_f_cfg.ks (inferred preloaded)
32.17,APPROACH,FLY_TO_FIX,154.87,157.7,2.83,1400.69,-0.58,11.48,11.68,248.17,0.016,0.3062,0,-16.337,1,0.6,4.5,2.895,0.35,0.0168,0.4,0,21.074,0,-2.801,0,248.15,-0.099,0,0,-0.21,0.02,0,-0.1,248.15,0,0,0,0,0,0,0,39.335,0,0,0,3,0,0,0,2135.77,0,0,0,248.15,0,0,0,0,0,0,0,0,0,0,0,0,0,2,2,0,0,VALID,0,0,0,0,0,1,0,0,0,0,0,0,0,0,0,0,0,0,0,0,191.78,1043.35,2,0,0.14,0.14,277,7.14,0.14,0.14,32.17,FLYING,X10-F,0:/Integrated Flight Computer/aircraft/x10_f_cfg.ks (inferred preloaded)
32.45,APPROACH,FLY_TO_FIX,154.61,157.7,3.09,1400.53,-0.57,11.5,11.7,248.17,0.014,0.3155,0,-15.499,1,0.6,4.5,2.895,0.35,0.0168,0.4,0,21.146,0,-3.059,0,248.15,-0.1,0,0,-0.21,0.02,0,-0.1,248.15,0,0,0,0,0,0,0,39.291,0,0,0,3,0,0,0,2133.46,0,0,0,248.15,0,0,0,0,0,0,0,0,0,0,0,0,0,2,2,0,0,VALID,0,0,0,0,0,1,0,0,0,0,0,0,0,0,0,0,0,0,0,0,198.61,1042.25,2,0,0.14,0.14,279,7.14,0.14,0.14,32.45,FLYING,X10-F,0:/Integrated Flight Computer/aircraft/x10_f_cfg.ks (inferred preloaded)
32.73,APPROACH,FLY_TO_FIX,154.37,157.7,3.33,1400.38,-0.57,11.53,11.72,248.17,0.015,0.3244,0,-14.592,1,0.6,4.5,2.895,0.35,0.0168,0.4,0,21.214,0,-3.297,0,248.15,-0.101,0,0,-0.21,0.02,0,-0.1,248.15,0,0,0,0,0,0,0,39.247,0,0,0,3,0,0,0,2131.16,0,0,0,248.15,0,0,0,0,0,0,0,0,0,0,0,0,0,2,2,0,0,VALID,0,0,0,0,0,1,0,0,0,0,0,0,0,0,0,0,0,0,0,0,205.6,1041.23,2,0,0.14,0.14,281,7.14,0.14,0.14,32.73,FLYING,X10-F,0:/Integrated Flight Computer/aircraft/x10_f_cfg.ks (inferred preloaded)
33.01,APPROACH,FLY_TO_FIX,154.16,157.7,3.54,1400.23,-0.56,11.55,11.74,248.17,0.016,0.3326,0,-13.622,1,0.6,4.5,2.895,0.35,0.0168,0.4,0,21.276,0,-3.517,0,248.15,-0.102,0,0,-0.21,0.02,0,-0.1,248.15,0,0,0,0,0,0,0,39.203,0,0,0,3,0,0,0,2128.86,0,0,0,248.15,0,0,0,0,0,0,0,0,0,0,0,0,0,2,2,0,0,VALID,0,0,0,0,0,1,0,0,0,0,0,0,0,0,0,0,0,0,0,0,212.69,1040.3,2,0,0.14,0.14,283,7.14,0.14,0.14,33.01,FLYING,X10-F,0:/Integrated Flight Computer/aircraft/x10_f_cfg.ks (inferred preloaded)
33.29,APPROACH,FLY_TO_FIX,153.96,157.7,3.74,1400.08,-0.55,11.57,11.76,248.17,0.015,0.34,0,-12.595,1,0.6,4.5,2.895,0.35,0.0168,0.4,0,21.332,0,-3.717,0,248.15,-0.102,0,0,-0.21,0.02,0,-0.1,248.15,0,0,0,0,0,0,0,39.16,0,0,0,3,0,0,0,2126.56,0,0,0,248.15,0,0,0,0,0,0,0,0,0,0,0,0,0,2,2,0,0,VALID,0,0,0,0,0,1,0,0,0,0,0,0,0,0,0,0,0,0,0,0,219.85,1039.45,2,0,0.14,0.14,285,7.14,0.14,0.14,33.29,FLYING,X10-F,0:/Integrated Flight Computer/aircraft/x10_f_cfg.ks (inferred preloaded)
33.57,APPROACH,FLY_TO_FIX,153.78,157.7,3.92,1399.92,-0.55,11.58,11.76,248.17,0.014,0.3464,0,-11.516,1,0.6,4.5,2.895,0.35,0.0168,0.4,0,21.383,0,-3.896,0,248.15,-0.103,0,0,-0.2,0.02,0,-0.1,248.15,0,0,0,0,0,0,0,39.116,0,0,0,3,0,0,0,2124.26,0,0,0,248.15,0,0,0,0,0,0,0,0,0,0,0,0,0,2,2,0,0,VALID,0,0,0,0,0,1,0,0,0,0,0,0,0,0,0,0,0,0,0,0,227.03,1038.69,2,0,0.14,0.14,287,7.14,0.14,0.14,33.57,FLYING,X10-F,0:/Integrated Flight Computer/aircraft/x10_f_cfg.ks (inferred preloaded)
33.85,APPROACH,FLY_TO_FIX,153.63,157.7,4.07,1399.77,-0.54,11.59,11.77,248.17,0.012,0.3517,0,-10.392,1,0.6,4.5,2.895,0.35,0.0168,0.4,0,21.427,0,-4.056,0,248.15,-0.104,0,0,-0.2,0.02,0,-0.1,248.15,0,0,0,0,0,0,0,39.072,0,0,0,3,0,0,0,2121.97,0,0,0,248.15,0,0,0,0,0,0,0,0,0,0,0,0,0,2,2,0,0,VALID,0,0,0,0,0,1,0,0,0,0,0,0,0,0,0,0,0,0,0,0,234.17,1038.02,2,0,0.14,0.14,289,7.14,0.14,0.14,33.85,FLYING,X10-F,0:/Integrated Flight Computer/aircraft/x10_f_cfg.ks (inferred preloaded)
34.13,APPROACH,FLY_TO_FIX,153.49,157.7,4.21,1399.62,-0.54,11.59,11.77,248.17,0.013,0.3559,0,-9.227,1,0.6,4.5,2.895,0.35,0.0168,0.4,0,21.467,0,-4.194,0,248.15,-0.105,0,0,-0.2,0.02,0,-0.1,248.15,0,0,0,0,0,0,0,39.028,0,0,0,3,0,0,0,2119.68,0,0,0,248.15,0,0,0,0,0,0,0,0,0,0,0,0,0,2,2,0,0,VALID,0,0,0,0,0,1,0,0,0,0,0,0,0,0,0,0,0,0,0,0,241.22,1037.43,2,0,0.14,0.14,291,7.14,0.14,0.14,34.13,FLYING,X10-F,0:/Integrated Flight Computer/aircraft/x10_f_cfg.ks (inferred preloaded)
34.41,APPROACH,FLY_TO_FIX,153.37,157.7,4.33,1399.47,-0.53,11.59,11.77,248.17,0.011,0.3592,0,-8.027,1,0.6,4.5,2.895,0.35,0.0168,0.4,0,21.5,0,-4.313,0,248.15,-0.106,0,0,-0.2,0.02,0,-0.1,248.15,0,0,0,0,0,0,0,38.985,0,0,0,3,0,0,0,2117.39,0,0,0,248.15,0,0,0,0,0,0,0,0,0,0,0,0,0,2,2,0,0,VALID,0,0,0,0,0,1,0,0,0,0,0,0,0,0,0,0,0,0,0,0,248.12,1036.94,2,0,0.14,0.14,293,7.14,0.14,0.14,34.41,FLYING,X10-F,0:/Integrated Flight Computer/aircraft/x10_f_cfg.ks (inferred preloaded)
34.69,APPROACH,FLY_TO_FIX,153.28,157.7,4.42,1399.32,-0.53,11.59,11.77,248.17,0.013,0.3616,0,-6.798,1,0.6,4.5,2.895,0.35,0.0168,0.4,0,21.528,0,-4.411,0,248.15,-0.107,0,0,-0.2,0.02,0,-0.1,248.15,0,0,0,0,0,0,0,38.941,0,0,0,3,0,0,0,2115.1,0,0,0,248.15,0,0,0,0,0,0,0,0,0,0,0,0,0,2,2,0,0,VALID,0,0,0,0,0,1,0,0,0,0,0,0,0,0,0,0,0,0,0,0,254.84,1036.53,2,0,0.14,0.14,295,7.14,0.14,0.14,34.69,FLYING,X10-F,0:/Integrated Flight Computer/aircraft/x10_f_cfg.ks (inferred preloaded)
34.97,APPROACH,FLY_TO_FIX,153.2,157.7,4.5,1399.17,-0.52,11.58,11.76,248.17,0.014,0.3633,0,-5.546,1,0.6,4.5,2.895,0.35,0.0168,0.4,0,21.55,0,-4.49,0,248.15,-0.108,0,0,-0.2,0.02,0,-0.11,248.15,0,0,0,0,0,0,0,38.897,0,0,0,3,0,0,0,2112.81,0,0,0,248.15,0,0,0,0,0,0,0,0,0,0,0,0,0,2,2,0,0,VALID,0,0,0,0,0,1,0,0,0,0,0,0,0,0,0,0,0,0,0,0,261.32,1036.21,2,0,0.14,0.14,297,7.14,0.14,0.14,34.97,FLYING,X10-F,0:/Integrated Flight Computer/aircraft/x10_f_cfg.ks (inferred preloaded)
