t_s,phase,subphase,ias_ms,vapp_ms,spd_err_ms,agl_m,vs_ms,pitch_deg,aoa_deg,hdg_deg,bank_deg,thr_cmd,thr_cur,thr_intg,at_gain,at_tau_s,at_a_up,at_a_dn,at_kp_thr,at_ki_spd,at_thr_slew,as_cmd_deg,as_cap_deg,as_raw_deg,as_spd_err_ms,as_active,aa_hdg_cmd_deg,aa_fpa_cmd_deg,aa_fbw,aa_dir,actual_fpa_deg,ftf_hdg_err_deg,ftf_fix_idx,kos_steer_pit_deg,kos_steer_hdg_deg,aa_dir_vx,aa_dir_vy,aa_dir_vz,aa_dir_pitch_deg,aa_dir_hdg_deg,ils_loc_m,ils_gs_m,ils_dist_km,loc_corr_deg,gs_corr_deg,gs_latched,active_gs_ang_deg,ils_intercept_alt_m,d_gs_ms,fpa_preclamped_deg,gs_nom_alt_m,flare_fpa_cmd,flare_tgt_vs,flare_frac,steer_hdg_deg,steer_blend,ro_loc_corr_deg,ro_hdg_err_deg,ro_yaw_tgt,ro_yaw_scale,ro_yaw_gate,yaw_cmd,roll_cmd,pitch_cmd,ro_pitch_tgt_deg,ro_pitch_err_deg,ro_pitch_ff,ro_roll_assist,flaps_cur,flaps_tgt,asc_j_ab,asc_j_rk,asc_validity,asc_q_pa,asc_q_raw_pa,asc_mach,asc_apo_m,asc_drag_n,asc_w_prop,asc_edot_aero,asc_edot_orb,asc_pitch_bias,asc_blend,asc_spooling,asc_ab_thr_ratio,asc_ab_t_now,asc_ab_t_avail,asc_ab_ign_on,asc_ab_flameouts,asc_rk_t_now,asc_rk_t_avail,asc_rk_ign_on,asc_rk_flameouts,ship_thrust,ship_avail_thrust,ship_ign_on,ship_flameouts,ifc_raw_dt_s,ifc_dt_s,ifc_loop_n,ifc_hz_est,ifc_raw_dt_max_s,ifc_raw_dt_min_s,phase_el_s,status,craft_name,cfg_file
0.18,TAKEOFF,TO_PREFLIGHT,0.58,80,79.42,3.61,0,-0.18,0.13,89.78,0.104,0.064,0,0,0,0,0,0,0,0,0,0,0,0,0,0,90.4,0,1,0,-0.19,0,0,0,90,0,0,0,0,0,0,0,0,0,0,0,3,0,0,0,69,0,0,0,90.4,1,0,-0.625,0,0,1,0,0,0,0,0,0,0,0,1,0,0,VALID,0,0,0,0,0,1,0,0,0,0,0,0,0,0,0,0,0,0,0,0,0,517.98,2,0,0.16,0.16,1,3.45,0.16,0.02,0.04,PRELAUNCH,CF1-J,0:/Integrated Flight Computer/aircraft/cf1_j_cfg.ks (inferred preloaded)
0.44,TAKEOFF,TO_PREFLIGHT,0.58,80,79.42,3.61,0,-0.2,-0.01,89.77,0.103,0.112,0,0,0,0,0,0,0,0,0,0,0,0,0,0,90.4,0,1,0,-0.07,0,0,0,90,0,0,0,0,0,0,0,0,0,0,0,3,0,0,0,69,0,0,0,90.4,1,0,-0.626,0,0,1,0,0,0,0,0,0,0,1,1,0,0,VALID,0,0,0,0,0,1,0,0,0,0,0,0,0,0,0,0,0,0,0,0,0.41,517.98,2,0,0.04,0.04,6,19.23,0.16,0.04,0.3,PRELAUNCH,CF1-J,0:/Integrated Flight Computer/aircraft/cf1_j_cfg.ks (inferred preloaded)
0.7,TAKEOFF,TO_PREFLIGHT,0.45,80,79.55,3.6,0,-0.28,-0.96,89.77,0.104,0.216,0,0,0,0,0,0,0,0,0,0,0,0,0,0,90.4,0,1,0,0.25,0,0,0,90,0,0,0,0,0,0,0,0,0,0,0,3,0,0,0,69,0,0,0,90.4,1,0,-0.626,0,0,1,0,0,0,0,0,0,0,1,1,0,0,VALID,0,0,0,0,0,1,0,0,0,0,0,0,0,0,0,0,0,0,0,0,1.5,518.01,2,0,0.04,0.04,11,19.23,0.08,0.04,0.56,PRELAUNCH,CF1-J,0:/Integrated Flight Computer/aircraft/cf1_j_cfg.ks (inferred preloaded)
0.96,TAKEOFF,TO_PREFLIGHT,0.14,80,79.86,3.59,0,-0.33,-80.63,89.78,0.106,0.32,0,0,0,0,0,0,0,0,0,0,0,0,0,0,90.4,0,1,0,0.16,0,0,0,90,0,0,0,0,0,0,0,0,0,0,0,3,0,0,0,69,0,0,0,90.4,1,0,-0.626,0,0,1,0,0,0,0,0,0,0,1,1,0,0,VALID,0,0,0,0,0,1,0,0,0,0,0,0,0,0,0,0,0,0,0,0,3.41,518.08,2,0,0.04,0.04,16,19.23,0.08,0.04,0.82,PRELAUNCH,CF1-J,0:/Integrated Flight Computer/aircraft/cf1_j_cfg.ks (inferred preloaded)
1.22,TAKEOFF,TO_PREFLIGHT,0.05,80,79.95,3.62,-0.03,-0.14,24.97,89.78,0.106,0.424,0,0,0,0,0,0,0,0,0,0,0,0,0,0,90.4,0,1,0,-1.47,0,0,0,90,0,0,0,0,0,0,0,0,0,0,0,3,0,0,0,69,0,0,0,90.4,1,0,-0.626,0,0,1,0,0,0,0,0,0,0,1,1,0,0,VALID,0,0,0,0,0,1,0,0,0,0,0,0,0,0,0,0,0,0,0,0,6.12,518.1,2,0,0.04,0.04,21,19.23,0.08,0.04,1.08,PRELAUNCH,CF1-J,0:/Integrated Flight Computer/aircraft/cf1_j_cfg.ks (inferred preloaded)
1.48,TAKEOFF,TO_PREFLIGHT,0.01,80,79.99,3.62,0.01,-0.13,-27.46,89.77,0.103,0.528,0,0,0,0,0,0,0,0,0,0,0,0,0,0,90.4,0,1,0,0.8,0,0,0,90,0,0,0,0,0,0,0,0,0,0,0,3,0,0,0,69,0,0,0,90.4,1,0,-0.626,0,0,1,0,0,0,0,0,0,0,1,1,0,0,VALID,0,0,0,0,0,1,0,0,0,0,0,0,0,0,0,0,0,0,0,0,9.63,518.11,2,0,0.04,0.04,26,19.23,0.08,0.04,1.34,PRELAUNCH,CF1-J,0:/Integrated Flight Computer/aircraft/cf1_j_cfg.ks (inferred preloaded)
1.74,TAKEOFF,TO_PREFLIGHT,0.05,80,79.95,3.6,0,-0.25,-5.44,89.77,0.101,0.632,0,0,0,0,0,0,0,0,0,0,0,0,0,0,90.4,0,1,0,0.18,0,0,0,90,0,0,0,0,0,0,0,0,0,0,0,3,0,0,0,69,0,0,0,90.4,1,0,-0.626,0,0,1,0,0,0,0,0,0,0,1,1,0,0,VALID,0,0,0,0,0,1,0,0,0,0,0,0,0,0,0,0,0,0,0,0,13.92,518.1,2,0,0.04,0.04,31,19.23,0.08,0.04,1.6,PRELAUNCH,CF1-J,0:/Integrated Flight Computer/aircraft/cf1_j_cfg.ks (inferred preloaded)
2,TAKEOFF,TO_PREFLIGHT,0.01,80,79.99,3.61,-0.01,-0.22,38.75,89.77,0.103,0.736,0,0,0,0,0,0,0,0,0,0,0,0,0,0,90.4,0,1,0,-0.38,0,0,0,90,0,0,0,0,0,0,0,0,0,0,0,3,0,0,0,69,0,0,0,90.4,1,0,-0.626,0,0,1,0,0,0,0,0,0,0,1,1,0,0,VALID,0,0,0,0,0,1,0,0,0,0,0,0,0,0,0,0,0,0,0,0,18.97,518.11,2,0,0.04,0.04,36,19.23,0.08,0.04,1.86,PRELAUNCH,CF1-J,0:/Integrated Flight Computer/aircraft/cf1_j_cfg.ks (inferred preloaded)
2.32,TAKEOFF,TO_PREFLIGHT,0.01,80,79.99,3.61,0,-0.18,-4.94,89.77,0.106,0.864,0,0,0,0,0,0,0,0,0,0,0,0,0,0,90.4,0,1,0,0.16,0,0,0,90,0,0,0,0,0,0,0,0,0,0,0,3,0,0,0,69,0,0,0,90.4,1,0,-0.626,0,0,1,0,0,0,0,0,0,0,1,1,0,0,VALID,0,0,0,0,0,1,0,0,0,0,0,0,0,0,0,0,0,0,0,0,26.23,518.11,2,0,0.08,0.08,41,15.63,0.08,0.04,2.18,PRELAUNCH,CF1-J,0:/Integrated Flight Computer/aircraft/cf1_j_cfg.ks (inferred preloaded)
2.6,TAKEOFF,TO_PREFLIGHT,0.04,80,79.96,3.61,0,-0.23,-3.46,89.76,0.106,0.976,0,0,0,0,0,0,0,0,0,0,0,0,0,0,90.4,0,1,0,0.11,0,0,0,90,0,0,0,0,0,0,0,0,0,0,0,3,0,0,0,69,0,0,0,90.4,1,0,-0.626,0,0,1,0,0,0,0,0,0,0,1,1,0,0,VALID,0,0,0,0,0,1,0,0,0,0,0,0,0,0,0,0,0,0,0,0,33.48,518.1,2,0,0.08,0.08,45,14.29,0.08,0.06,2.46,PRELAUNCH,CF1-J,0:/Integrated Flight Computer/aircraft/cf1_j_cfg.ks (inferred preloaded)
2.88,TAKEOFF,TO_PREFLIGHT,0.03,80,79.97,3.61,0,-0.23,5.64,89.76,0.105,1,0,0,0,0,0,0,0,0,0,0,0,0,0,0,90.4,0,1,0,-0.16,0,0,0,90,0,0,0,0,0,0,0,0,0,0,0,3,0,0,0,69,0,0,0,90.4,1,0,-0.626,0,0,1,0,0,0,0,0,0,0,1,1,0,0,VALID,0,0,0,0,0,1,0,0,0,0,0,0,0,0,0,0,0,0,0,0,41.44,518.1,2,0,0.08,0.08,49,14.29,0.08,0.06,2.74,PRELAUNCH,CF1-J,0:/Integrated Flight Computer/aircraft/cf1_j_cfg.ks (inferred preloaded)
3.16,TAKEOFF,TO_PREFLIGHT,0.03,80,79.97,3.61,0,-0.22,-1.42,89.76,0.103,1,0,0,0,0,0,0,0,0,0,0,0,0,0,0,90.4,0,1,0,0.06,0,0,0,90,0,0,0,0,0,0,0,0,0,0,0,3,0,0,0,69,0,0,0,90.4,1,0,-0.626,0,0,1,0,0,0,0,0,0,0,1,1,0,0,VALID,0,0,0,0,0,1,0,0,0,0,0,0,0,0,0,0,0,0,0,0,49.39,518.1,2,0,0.08,0.08,53,14.29,0.08,0.06,3.02,PRELAUNCH,CF1-J,0:/Integrated Flight Computer/aircraft/cf1_j_cfg.ks (inferred preloaded)
3.44,TAKEOFF,TO_GROUND_ROLL,0.06,80,79.94,3.61,0,-0.23,-0.3,89.76,0.103,1,0,0,0,0,0,0,0,0,0,0,0,0,0,0,90.4,0,1,0,-0.08,0,0,0,90,0,0,0,0,0,0,0,0,0,0,0,3,0,0,0,69,0,0,0,90.4,1,0,-0.642,0,0,3,0,0,0,0,0,0,0,1,1,0,0,VALID,0,0,0,0,0,1,0,0,0,0,0,0,0,0,0,0,0,0,0,0,57.2,518.09,2,0,0.08,0.08,57,14.29,0.08,0.06,3.32,PRELAUNCH,CF1-J,0:/Integrated Flight Computer/aircraft/cf1_j_cfg.ks (inferred preloaded)
3.72,TAKEOFF,TO_GROUND_ROLL,0.29,80,79.71,3.62,-0.01,-0.12,1.22,89.76,0.104,1,0,0,0,0,0,0,0,0,0,0,0,0,0,0,90.4,0,1,0,-0.43,0,0,0,90,0,0,0,0,0,0,0,0,0,0,0,3,0,0,0,69,0,0,0,90.4,1,0,-0.643,0,0,3,0,0,0,0,0,0,0,1,1,0,0,VALID,0,0,0,0,0,1,0,0,0,0,0,0,0,0,0,0,0,0,0,0,64.88,518.04,2,0,0.08,0.08,61,14.29,0.08,0.06,3.6,PRELAUNCH,CF1-J,0:/Integrated Flight Computer/aircraft/cf1_j_cfg.ks (inferred preloaded)
4,TAKEOFF,TO_GROUND_ROLL,0.63,80,79.37,3.61,0,-0.17,-0.43,89.76,0.105,1,0,0,0,0,0,0,0,0,0,0,0,0,0,0,90.4,0,1,0,0.12,0,0,0,90,0,0,0,0,0,0,0,0,0,0,0,3,0,0,0,69,0,0,0,90.4,1,0,-0.64,0,0,3,0,0,0,0,0,0,0,1,1,0,0,VALID,0,0,0,0,0,1,0,0,0,0,0,0,0,0,0,0,0,0,0,0,72.42,517.96,2,0,0.08,0.08,65,14.29,0.08,0.06,3.88,PRELAUNCH,CF1-J,0:/Integrated Flight Computer/aircraft/cf1_j_cfg.ks (inferred preloaded)
4.28,TAKEOFF,TO_GROUND_ROLL,1.01,80,78.99,3.62,-0.01,-0.16,0.36,89.76,0.104,1,0,0,0,0,0,0,0,0,0,0,0,0,0,0,90.39,0,1,0,-0.64,0,0,0,90,0,0,0,0,0,0,0,0,0,0,0,3,0,0,0,69,0,0,0,90.39,1,0,-0.63,0,0,3,0,0,0,0,0,0,0,1,1,0,0,VALID,0,0,0,0,0,1,0,0,0,0,0,0,0,0,0,0,0,0,0,0,79.83,517.86,2,0,0.08,0.08,69,14.29,0.08,0.06,4.16,PRELAUNCH,CF1-J,0:/Integrated Flight Computer/aircraft/cf1_j_cfg.ks (inferred preloaded)
4.56,TAKEOFF,TO_GROUND_ROLL,1.43,80,78.57,3.62,-0.01,-0.14,0.13,89.78,0.103,1,0,0,0,0,0,0,0,0,0,0,0,0,0,0,90.39,0,1,0,-0.31,0,0,0,90,0,0,0,0,0,0,0,0,0,0,0,3,0,0,0,69,0,0,0,90.39,1,0,-0.615,0,0,3,0,0,0,0,0,0,0,1,1,0,0,VALID,0,0,0,0,0,1,0,0,0,0,0,0,0,0,0,0,0,0,0,0,87.12,517.76,2,0,0.08,0.08,73,14.29,0.08,0.06,4.44,PRELAUNCH,CF1-J,0:/Integrated Flight Computer/aircraft/cf1_j_cfg.ks (inferred preloaded)
4.84,TAKEOFF,TO_GROUND_ROLL,1.89,80,78.11,3.62,-0.01,-0.16,0.15,89.79,0.102,1,0,0,0,0,0,0,0,0,0,0,0,0,0,0,90.39,0,1,0,-0.36,0,0,0,90,0,0,0,0,0,0,0,0,0,0,0,3,0,0,0,69,0,0,0,90.39,1,0,-0.593,0,0,3,0,0,0,0,0,0,0,1,1,0,0,VALID,0,0,0,0,0,1,0,0,0,0,0,0,0,0,0,0,0,0,0,0,94.27,517.64,2,0,0.08,0.08,77,14.29,0.08,0.06,4.72,PRELAUNCH,CF1-J,0:/Integrated Flight Computer/aircraft/cf1_j_cfg.ks (inferred preloaded)
5.12,TAKEOFF,TO_GROUND_ROLL,2.38,80,77.62,3.62,-0.02,-0.14,0.2,89.82,0.103,1,0,0,0,0,0,0,0,0,0,0,0,0,0,0,90.38,0,1,0,-0.38,0,0,0,90,0,0,0,0,0,0,0,0,0,0,0,3,0,0,0,69,0,0,0,90.38,1,0,-0.565,0.0064,0.25,1,0.0064,0,0,0,0,0,0,1,1,0,0,VALID,0,0,0,0,0,1,0,0,0,0,0,0,0,0,0,0,0,0,0,0,101.31,517.51,2,0,0.08,0.08,81,14.29,0.08,0.06,5,LANDED,CF1-J,0:/Integrated Flight Computer/aircraft/cf1_j_cfg.ks (inferred preloaded)
5.4,TAKEOFF,TO_GROUND_ROLL,2.91,80,77.09,3.62,-0.02,-0.15,0.14,89.85,0.103,1,0,0,0,0,0,0,0,0,0,0,0,0,0,0,90.38,0,1,0,-0.33,0,0,0,90,0,0,0,0,0,0,0,0,0,0,0,3,0,0,0,69,0,0,0,90.38,1,0,-0.532,0.006,0.25,1,0.006,0,0,0,0,0,0,1,1,0,0,VALID,0,0,0,0,0,1,0,0,0,0,0,0,0,0,0,0,0,0,0,0,108.22,517.37,2,0,0.08,0.08,85,14.29,0.08,0.06,5.28,LANDED,CF1-J,0:/Integrated Flight Computer/aircraft/cf1_j_cfg.ks (inferred preloaded)
5.68,TAKEOFF,TO_GROUND_ROLL,3.47,80,76.53,3.62,-0.02,-0.15,0.16,89.88,0.101,1,0,0,0,0,0,0,0,0,0,0,0,0,0,0,90.37,0,1,0,-0.34,0,0,0,90,0,0,0,0,0,0,0,0,0,0,0,3,0,0,0,69,0,0,0,90.37,1,0,-0.494,0.0056,0.25,1,0.0056,0,0,0,0,0,0,1,1,0,0,VALID,0,0,0,0,0,1,0,0,0,0,0,0,0,0,0,0,0,0,0,0,115,517.22,2,0,0.08,0.08,89,14.29,0.08,0.06,5.56,LANDED,CF1-J,0:/Integrated Flight Computer/aircraft/cf1_j_cfg.ks (inferred preloaded)
5.96,TAKEOFF,TO_GROUND_ROLL,4.07,80,75.93,3.62,-0.02,-0.14,0.17,89.92,0.1,1,0,0,0,0,0,0,0,0,0,0,0,0,0,0,90.37,0,1,0,-0.34,0,0,0,90,0,0,0,0,0,0,0,0,0,0,0,3,0,0,0,69,0,0,0,90.37,1,0,-0.452,0.0051,0.25,1,0.0051,0,0,0,0,0,0,1,1,0,0,VALID,0,0,0,0,0,1,0,0,0,0,0,0,0,0,0,0,0,0,0,0,121.67,517.06,2,0,0.08,0.08,93,14.29,0.08,0.06,5.84,LANDED,CF1-J,0:/Integrated Flight Computer/aircraft/cf1_j_cfg.ks (inferred preloaded)
6.24,TAKEOFF,TO_GROUND_ROLL,4.69,80,75.31,3.62,-0.03,-0.14,0.16,89.96,0.099,1,0,0,0,0,0,0,0,0,0,0,0,0,0,0,90.37,0,1,0,-0.34,0,0,0,90,0,0,0,0,0,0,0,0,0,0,0,3,0,0,0,69,0,0,0,90.37,1,0,-0.407,0.0046,0.25,1,0.0046,0,0,0,0,0,0,1,1,0,0,VALID,0,0,0,0,0,1,0,0,0,0,0,0,0,0,0,0,0,0,0,0,128.22,516.88,2,0,0.08,0.08,97,14.29,0.08,0.06,6.12,LANDED,CF1-J,0:/Integrated Flight Computer/aircraft/cf1_j_cfg.ks (inferred preloaded)
6.52,TAKEOFF,TO_GROUND_ROLL,5.36,80,74.64,3.62,-0.03,-0.14,0.16,90.01,0.098,1,0,0,0,0,0,0,0,0,0,0,0,0,0,0,90.37,0,1,0,-0.33,0,0,0,90,0,0,0,0,0,0,0,0,0,0,0,3,0,0,0,69,0,0,0,90.37,1,0,-0.361,0.0039,0.25,1,0.0039,0,0,0,0,0,0,1,1,0,0,VALID,0,0,0,0,0,1,0,0,0,0,0,0,0,0,0,0,0,0,0,0,134.65,516.69,2,0,0.08,0.08,101,14.29,0.08,0.06,6.4,LANDED,CF1-J,0:/Integrated Flight Computer/aircraft/cf1_j_cfg.ks (inferred preloaded)
6.8,TAKEOFF,TO_GROUND_ROLL,6.05,80,73.95,3.62,-0.03,-0.13,0.17,90.05,0.097,1,0,0,0,0,0,0,0,0,0,0,0,0,0,0,90.37,0,1,0,-0.33,0,0,0,90,0,0,0,0,0,0,0,0,0,0,0,3,0,0,0,69,0,0,0,90.37,1,0,-0.314,0.0032,0.25,1,0.0032,0,0,0,0,0,0,1,1,0,0,VALID,0,0,0,0,0,1,0,0,0,0,0,0,0,0,0,0,0,0,0,0,140.96,516.48,2,0,0.08,0.08,105,14.29,0.08,0.06,6.68,LANDED,CF1-J,0:/Integrated Flight Computer/aircraft/cf1_j_cfg.ks (inferred preloaded)
7.08,TAKEOFF,TO_GROUND_ROLL,6.78,80,73.22,3.62,-0.04,-0.13,0.17,90.1,0.095,1,0,0,0,0,0,0,0,0,0,0,0,0,0,0,90.37,0,1,0,-0.33,0,0,0,90,0,0,0,0,0,0,0,0,0,0,0,3,0,0,0,69,0,0,0,90.37,1,0,-0.268,0.0026,0.25,1,0.0026,0,0,0,0,0,0,1,1,0,0,VALID,0,0,0,0,0,1,0,0,0,0,0,0,0,0,0,0,0,0,0,0,147.16,516.26,2,0,0.08,0.08,109,14.29,0.08,0.06,6.96,LANDED,CF1-J,0:/Integrated Flight Computer/aircraft/cf1_j_cfg.ks (inferred preloaded)
7.36,TAKEOFF,TO_GROUND_ROLL,7.53,80,72.47,3.62,-0.04,-0.13,0.17,90.14,0.095,1,0,0,0,0,0,0,0,0,0,0,0,0,0,0,90.37,0,1,0,-0.33,0,0,0,90,0,0,0,0,0,0,0,0,0,0,0,3,0,0,0,69,0,0,0,90.37,1,0,-0.224,0.002,0.25,1,0.002,0,0,0,0,0,0,1,1,0,0,VALID,0,0,0,0,0,1,0,0,0,0,0,0,0,0,0,0,0,0,0,0,153.24,516.03,2,0,0.08,0.08,113,14.29,0.08,0.06,7.24,LANDED,CF1-J,0:/Integrated Flight Computer/aircraft/cf1_j_cfg.ks (inferred preloaded)
7.64,TAKEOFF,TO_GROUND_ROLL,8.32,80,71.68,3.62,-0.05,-0.13,0.18,90.19,0.095,1,0,0,0,0,0,0,0,0,0,0,0,0,0,0,90.37,0,1,0,-0.33,0,0,0,90,0,0,0,0,0,0,0,0,0,0,0,3,0,0,0,69,0,0,0,90.37,1,0,-0.183,0.0016,0.25,1,0.0016,0,0,0,0,0,0,1,1,0,0,VALID,0,0,0,0,0,1,0,0,0,0,0,0,0,0,0,0,0,0,0,0,159.21,515.78,2,0,0.08,0.08,117,14.29,0.08,0.06,7.52,LANDED,CF1-J,0:/Integrated Flight Computer/aircraft/cf1_j_cfg.ks (inferred preloaded)
7.92,TAKEOFF,TO_GROUND_ROLL,9.13,80,70.87,3.62,-0.05,-0.13,0.18,90.23,0.094,1,0,0,0,0,0,0,0,0,0,0,0,0,0,0,90.37,0,1,0,-0.33,0,0,0,90,0,0,0,0,0,0,0,0,0,0,0,3,0,0,0,69,0,0,0,90.37,1,0,-0.146,0.0012,0.25,1,0.0012,0,0,0,0,0,0,1,1,0,0,VALID,0,0,0,0,0,1,0,0,0,0,0,0,0,0,0,0,0,0,0,0,165.07,515.51,2,0,0.08,0.08,121,14.29,0.08,0.06,7.8,LANDED,CF1-J,0:/Integrated Flight Computer/aircraft/cf1_j_cfg.ks (inferred preloaded)
8.2,TAKEOFF,TO_GROUND_ROLL,9.98,80,70.02,3.62,-0.06,-0.13,0.18,90.26,0.094,1,0,0,0,0,0,0,0,0,0,0,0,0,0,0,90.37,0,1,0,-0.33,0,0,0,90,0,0,0,0,0,0,0,0,-0.001,0,0,3,0,0,0,69,0,0,0,90.37,1,-0.001,-0.114,0.0009,0.25,1,0.0009,0,0,0,0,0,0,1,1,0,0,VALID,0,0,0,0,0,1,0,0,0,0,0,0,0,0,0,0,0,0,0,0,170.82,515.23,2,0,0.08,0.08,125,14.29,0.08,0.06,8.08,LANDED,CF1-J,0:/Integrated Flight Computer/aircraft/cf1_j_cfg.ks (inferred preloaded)
8.48,TAKEOFF,TO_GROUND_ROLL,10.85,80,69.15,3.62,-0.06,-0.12,0.18,90.29,0.094,1,0,0,0,0,0,0,0,0,0,0,0,0,0,0,90.38,0,1,0,-0.33,0,0,0,90,0,0,0,0,0,0,0,0,-0.001,0,0,3,0,0,0,69,0,0,0,90.38,1,-0.001,-0.086,0.0006,0.25,1,0.0006,0,0,0,0,0,0,1,1,0,0,VALID,0,0,0,0,0,1,0,0,0,0,0,0,0,0,0,0,0,0,0,0,176.46,514.93,2,0,0.08,0.08,129,14.29,0.08,0.06,8.36,LANDED,CF1-J,0:/Integrated Flight Computer/aircraft/cf1_j_cfg.ks (inferred preloaded)
8.76,TAKEOFF,TO_GROUND_ROLL,11.75,80,68.25,3.62,-0.07,-0.12,0.18,90.32,0.095,1,0,0,0,0,0,0,0,0,0,0,0,0,0,0,90.38,0,1,0,-0.32,0,0,0,90,0,0,0,0,0,0,0,0,-0.001,0,0,3,0,0,0,69,0,0,0,90.38,1,-0.001,-0.062,0.0004,0.25,1,0.0004,0,0,0,0,0,0,1,1,0,0,VALID,0,0,0,0,0,1,0,0,0,0,0,0,0,0,0,0,0,0,0,0,181.99,514.62,2,0,0.08,0.08,133,14.29,0.08,0.06,8.64,LANDED,CF1-J,0:/Integrated Flight Computer/aircraft/cf1_j_cfg.ks (inferred preloaded)
9.04,TAKEOFF,TO_GROUND_ROLL,12.68,80,67.32,3.62,-0.07,-0.12,0.18,90.34,0.096,1,0,0,0,0,0,0,0,0,0,0,0,0,0,0,90.38,0,1,0,-0.32,0,0,0,90,0,0,0,0,0,0,0,0,-0.002,0,0,3,0,0,0,69,0,0,0,90.38,1,-0.002,-0.044,0.0003,0.25,1,0.0003,0,0,0,0,0,0,1,1,0,0,VALID,0,0,0,0,0,1,0,0,0,0,0,0,0,0,0,0,0,0,0,0,187.42,514.28,2,0,0.08,0.08,137,14.29,0.08,0.06,8.92,LANDED,CF1-J,0:/Integrated Flight Computer/aircraft/cf1_j_cfg.ks (inferred preloaded)
9.32,TAKEOFF,TO_GROUND_ROLL,13.64,80,66.36,3.62,-0.08,-0.12,0.19,90.36,0.096,1,0,0,0,0,0,0,0,0,0,0,0,0,0,0,90.39,0,1,0,-0.33,0,0,0,90,0,0,0,0,0,0,0,0,-0.002,0,0,3,0,0,0,69,0,0,0,90.39,1,-0.002,-0.031,0.0002,0.25,1,0.0002,0,0,0,0,0,0,1,1,0,0,VALID,0,0,0,0,0,1,0,0,0,0,0,0,0,0,0,0,0,0,0,0,192.73,513.93,2,0,0.08,0.08,141,14.29,0.08,0.06,9.2,LANDED,CF1-J,0:/Integrated Flight Computer/aircraft/cf1_j_cfg.ks (inferred preloaded)
9.6,TAKEOFF,TO_GROUND_ROLL,14.62,80,65.38,3.62,-0.08,-0.11,0.19,90.37,0.096,1,0,0,0,0,0,0,0,0,0,0,0,0,0,0,90.39,0,1,0,-0.32,0,0,0,90,0,0,0,0,0,0,0,0,-0.003,0,0,3,0,0,0,69,0,0,0,90.39,1,-0.003,-0.019,0.0001,0.25,1,0.0001,0,0,0,0,0,0,1,1,0,0,VALID,0,0,0,0,0,1,0,0,0,0,0,0,0,0,0,0,0,0,0,0,197.95,513.57,2,0,0.08,0.08,145,14.29,0.08,0.06,9.48,LANDED,CF1-J,0:/Integrated Flight Computer/aircraft/cf1_j_cfg.ks (inferred preloaded)
9.88,TAKEOFF,TO_GROUND_ROLL,15.62,80,64.38,3.62,-0.09,-0.11,0.19,90.38,0.097,1,0,0,0,0,0,0,0,0,0,0,0,0,0,0,90.39,0,1,0,-0.32,0,0,0,90,0,0,0,0,0,0,0,0,-0.004,0,0,3,0,0,0,69,0,0,0,90.39,1,-0.004,-0.011,0.0001,0.25,1,0.0001,0,0,0,0,0,0,1,1,0,0,VALID,0,0,0,0,0,1,0,0,0,0,0,0,0,0,0,0,0,0,0,0,203.06,513.18,2,0,0.08,0.08,149,14.29,0.08,0.06,9.76,LANDED,CF1-J,0:/Integrated Flight Computer/aircraft/cf1_j_cfg.ks (inferred preloaded)
10.16,TAKEOFF,TO_GROUND_ROLL,16.66,80,63.34,3.62,-0.09,-0.11,0.19,90.38,0.099,1,0,0,0,0,0,0,0,0,0,0,0,0,0,0,90.4,0,1,0,-0.32,0,0,0,90,0,0,0,0,0,0,0,0,-0.004,0,0,3,0,0,0,69,0,0,0,90.4,1,-0.004,-0.013,0.0001,0.25,1,0.0001,0,0,0,0,0,0,1,1,0,0,VALID,0,0,0,0,0,1,0,0,0,0,0,0,0,0,0,0,0,0,0,0,208.06,512.77,2,0,0.08,0.08,153,14.29,0.08,0.06,10.04,LANDED,CF1-J,0:/Integrated Flight Computer/aircraft/cf1_j_cfg.ks (inferred preloaded)
10.44,TAKEOFF,TO_GROUND_ROLL,17.71,80,62.29,3.62,-0.1,-0.11,0.19,90.38,0.102,1,0,0,0,0,0,0,0,0,0,0,0,0,0,0,90.4,0,1,0,-0.32,0,0,0.01,90,0,0,0,0,0,0,0,0,-0.005,0,0,3,0,0,0,69,0,0,0,90.4,1,-0.005,-0.022,0.0001,0.25,1,0.0001,0,0,0,0,0,0,1,1,0,0,VALID,0,0,0,0,0,1,0,0,0,0,0,0,0,0,0,0,0,0,0,0,212.97,512.35,2,0,0.08,0.08,157,14.29,0.08,0.06,10.32,LANDED,CF1-J,0:/Integrated Flight Computer/aircraft/cf1_j_cfg.ks (inferred preloaded)
10.72,TAKEOFF,TO_GROUND_ROLL,18.79,80,61.21,3.62,-0.11,-0.11,0.19,90.38,0.103,1,0,0,0,0,0,0,0,0,0,0,0,0,0,0,90.39,0,1,0,-0.32,0,0,0.01,90,0,0,0,0,0,0,0,0,-0.006,0,0,3,0,0,0,69,0,0,0,90.39,1,-0.006,-0.02,0.0001,0.25,1,0.0001,0,0,0,0,0,0,1,1,0,0,VALID,0,0,0,0,0,1,0,0,0,0,0,0,0,0,0,0,0,0,0,0,217.77,511.9,2,0,0.08,0.08,161,14.29,0.08,0.06,10.6,LANDED,CF1-J,0:/Integrated Flight Computer/aircraft/cf1_j_cfg.ks (inferred preloaded)
11,TAKEOFF,TO_GROUND_ROLL,19.9,80,60.1,3.62,-0.11,-0.1,0.2,90.38,0.101,1,0,0,0,0,0,0,0,0,0,0,0,0,0,0,90.39,0,1,0,-0.32,0,0,0.01,90,0,0,0,0,0,0,0,0,-0.006,0,0,3,0,0,0,69,0,0,0,90.39,1,-0.006,-0.013,0.0001,0.25,1,0.0001,0,0,0,0,0,0,1,1,0,0,VALID,0,0,0,0,0,1,0,0,0,0,0,0,0,0,0,0,0,0,0,0,222.47,511.44,2,0,0.08,0.08,165,14.29,0.08,0.06,10.88,LANDED,CF1-J,0:/Integrated Flight Computer/aircraft/cf1_j_cfg.ks (inferred preloaded)
11.28,TAKEOFF,TO_GROUND_ROLL,21.02,80,58.98,3.62,-0.12,-0.1,0.2,90.38,0.097,1,0,0,0,0,0,0,0,0,0,0,0,0,0,0,90.39,0,1,0,-0.32,0,0,0.01,90,0,0,0,0,0,0,0,0,-0.007,0,0,3,0,0,0,69,0,0,0,90.39,1,-0.007,-0.006,0,0.261,0,0,0,0,0,0,0,0,1,1,0,0,VALID,0,0,0,0,0,1,0,0,0,0,0,0,0,0,0,0,0,0,0,0,227.07,510.95,2,0,0.08,0.08,169,14.29,0.08,0.06,11.16,LANDED,CF1-J,0:/Integrated Flight Computer/aircraft/cf1_j_cfg.ks (inferred preloaded)
11.56,TAKEOFF,TO_GROUND_ROLL,22.17,80,57.83,3.63,-0.12,-0.1,0.2,90.39,0.095,1,0,0,0,0,0,0,0,0,0,0,0,0,0,0,90.39,0,1,0,-0.32,0,0,0.01,90,0,0,0,0,0,0,0,0,-0.008,0,0,3,0,0,0,69,0,0,0,90.39,1,-0.008,0.001,0,0.273,0,0,0,0,0,0,0,0,1,1,0,0,VALID,0,0,0,0,0,1,0,0,0,0,0,0,0,0,0,0,0,0,0,0,231.58,510.45,2,0,0.08,0.08,173,14.29,0.08,0.06,11.44,LANDED,CF1-J,0:/Integrated Flight Computer/aircraft/cf1_j_cfg.ks (inferred preloaded)
11.84,TAKEOFF,TO_GROUND_ROLL,23.34,80,56.66,3.63,-0.13,-0.1,0.2,90.39,0.095,1,0,0,0,0,0,0,0,0,0,0,0,0,0,0,90.39,0,1,0,-0.31,0,0,0.01,90,0,0,0,0,0,0,0,0,-0.009,0,0,3,0,0,0,69,0,0,0,90.39,1,-0.009,0.004,0,0.286,0,0,0,0,0,0,0,0,1,1,0,0,VALID,0,0,0,0,0,1,0,0,0,0,0,0,0,0,0,0,0,0,0,0,235.98,509.92,2,0,0.08,0.08,177,14.29,0.08,0.06,11.72,LANDED,CF1-J,0:/Integrated Flight Computer/aircraft/cf1_j_cfg.ks (inferred preloaded)
12.12,TAKEOFF,TO_GROUND_ROLL,24.53,80,55.47,3.63,-0.13,-0.09,0.2,90.39,0.099,1,0,0,0,0,0,0,0,0,0,0,0,0,0,0,90.39,0,1,0,-0.31,0,0,0.01,90,0,0,0,0,0,0,0,0,-0.01,0,0,3,0,0,0,69,0,0,0,90.39,1,-0.01,0,0,0.299,0,0,0,0,0,0,0,0,1,1,0,0,VALID,0,0,0,0,0,1,0,0,0,0,0,0,0,0,0,0,0,0,0,0,240.3,509.38,2,0,0.08,0.08,181,14.29,0.08,0.06,12,LANDED,CF1-J,0:/Integrated Flight Computer/aircraft/cf1_j_cfg.ks (inferred preloaded)
12.4,TAKEOFF,TO_GROUND_ROLL,25.74,80,54.26,3.63,-0.14,-0.09,0.21,90.39,0.102,1,0,0,0,0,0,0,0,0,0,0,0,0,0,0,90.39,0,1,0,-0.31,0,0,0.01,90,0,0,0,0,0,0,0,0,-0.011,0,0,3,0,0,0,69,0,0,0,90.39,1,-0.011,-0.002,0,0.312,0,0,0,0,0,0,0,0,1,1,0,0,VALID,0,0,0,0,0,1,0,0,0,0,0,0,0,0,0,0,0,0,0,0,244.51,508.81,2,0,0.08,0.08,185,14.29,0.08,0.06,12.28,LANDED,CF1-J,0:/Integrated Flight Computer/aircraft/cf1_j_cfg.ks (inferred preloaded)
12.68,TAKEOFF,TO_GROUND_ROLL,26.97,80,53.03,3.63,-0.15,-0.09,0.21,90.38,0.105,1,0,0,0,0,0,0,0,0,0,0,0,0,0,0,90.39,0,1,0,-0.31,0,0,0.01,90,0,0,0,0,0,0,0,0,-0.012,0,0,3,0,0,0,69,0,0,0,90.39,1,-0.012,-0.011,0.0001,0.325,0,0.0001,0,0,0,0,0,0,1,1,0,0,VALID,0,0,0,0,0,1,0,0,0,0,0,0,0,0,0,0,0,0,0,0,248.63,508.23,2,0,0.08,0.08,189,14.29,0.08,0.06,12.56,LANDED,CF1-J,0:/Integrated Flight Computer/aircraft/cf1_j_cfg.ks (inferred preloaded)
12.96,TAKEOFF,TO_GROUND_ROLL,28.22,80,51.78,3.63,-0.15,-0.09,0.21,90.38,0.104,1,0,0,0,0,0,0,0,0,0,0,0,0,0,0,90.39,0,1,0,-0.31,0,0,0.01,90,0,0,0,0,0,0,0,0,-0.013,0,0,3,0,0,0,69,0,0,0,90.39,1,-0.013,-0.014,0.0001,0.338,0,0.0001,0,0,0,0,0,0,1,1,0,0,VALID,0,0,0,0,0,1,0,0,0,0,0,0,0,0,0,0,0,0,0,0,252.66,507.62,2,0,0.08,0.08,193,14.29,0.08,0.06,12.84,LANDED,CF1-J,0:/Integrated Flight Computer/aircraft/cf1_j_cfg.ks (inferred preloaded)
13.24,TAKEOFF,TO_GROUND_ROLL,29.49,80,50.51,3.63,-0.16,-0.08,0.21,90.38,0.102,1,0,0,0,0,0,0,0,0,0,0,0,0,0,0,90.38,0,1,0,-0.31,0,0,0.01,90,0,0,0,0,0,0,0,0,-0.014,0,0,3,0,0,0,69,0,0,0,90.38,1,-0.014,-0.01,0.0001,0.352,0,0.0001,0,0,0,0,0,0,1,1,0,0,VALID,0,0,0,0,0,1,0,0,0,0,0,0,0,0,0,0,0,0,0,0,256.59,506.99,2,0,0.08,0.08,197,14.29,0.08,0.06,13.12,LANDED,CF1-J,0:/Integrated Flight Computer/aircraft/cf1_j_cfg.ks (inferred preloaded)
13.52,TAKEOFF,TO_GROUND_ROLL,30.78,80,49.22,3.63,-0.17,-0.08,0.21,90.38,0.097,1,0,0,0,0,0,0,0,0,0,0,0,0,0,0,90.38,0,1,0,-0.31,0,0,0.01,90,0,0,0,0,0,0,0,0,-0.015,0,0,3,0,0,0,69,0,0,0,90.38,1,-0.015,-0.004,0,0.365,0,0,0,0,0,0,0,0,1,1,0,0,VALID,0,0,0,0,0,1,0,0,0,0,0,0,0,0,0,0,0,0,0,0,260.43,506.34,2,0,0.08,0.08,201,14.29,0.08,0.06,13.4,LANDED,CF1-J,0:/Integrated Flight Computer/aircraft/cf1_j_cfg.ks (inferred preloaded)
13.8,TAKEOFF,TO_GROUND_ROLL,32.08,80,47.92,3.63,-0.17,-0.08,0.21,90.38,0.094,1,0,0,0,0,0,0,0,0,0,0,0,0,0,0,90.38,0,1,0,-0.31,0,0,0.01,90,0,0,0,0,0,0,0,0,-0.017,0,0,3,0,0,0,69,0,0,0,90.38,1,-0.017,-0.002,0,0.379,0,0,0,0,0,0,0,0,1,1,0,0,VALID,0,0,0,0,0,1,0,0,0,0,0,0,0,0,0,0,0,0,0,0,264.18,505.67,2,0,0.08,0.08,205,14.29,0.08,0.06,13.68,LANDED,CF1-J,0:/Integrated Flight Computer/aircraft/cf1_j_cfg.ks (inferred preloaded)
14.08,TAKEOFF,TO_GROUND_ROLL,33.41,80,46.59,3.63,-0.18,-0.08,0.21,90.38,0.096,1,0,0,0,0,0,0,0,0,0,0,0,0,0,0,90.38,0,1,0,-0.31,0,0,0.01,90,0,0,0,0,0,0,0,0,-0.018,0,0,3,0,0,0,69,0,0,0,90.38,1,-0.018,0.002,0,0.394,0,0,0,0,0,0,0,0,1,1,0,0,VALID,0,0,0,0,0,1,0,0,0,0,0,0,0,0,0,0,0,0,0,0,267.84,504.98,2,0,0.08,0.08,209,14.29,0.08,0.06,13.96,LANDED,CF1-J,0:/Integrated Flight Computer/aircraft/cf1_j_cfg.ks (inferred preloaded)
14.36,TAKEOFF,TO_GROUND_ROLL,34.75,80,45.25,3.63,-0.19,-0.08,0.21,90.38,0.099,1,0,0,0,0,0,0,0,0,0,0,0,0,0,0,90.38,0,1,0,-0.31,0,0,0.02,90,0,0,0,0,0,0,0,0,-0.019,0,0,3,0,0,0,69,0,0,0,90.38,1,-0.019,-0.004,0,0.408,0,0,0,0,0,0,0,0,1,1,0,0,VALID,0,0,0,0,0,1,0,0,0,0,0,0,0,0,0,0,0,0,0,0,271.41,504.27,2,0,0.08,0.08,213,14.29,0.08,0.06,14.24,LANDED,CF1-J,0:/Integrated Flight Computer/aircraft/cf1_j_cfg.ks (inferred preloaded)
14.64,TAKEOFF,TO_GROUND_ROLL,36.1,80,43.9,3.63,-0.19,-0.07,0.22,90.37,0.104,1,0,0,0,0,0,0,0,0,0,0,0,0,0,0,90.38,0,1,0,-0.3,0,0,0.02,90,0,0,0,0,0,0,0,0,-0.021,0,0,3,0,0,0,69,0,0,0,90.38,1,-0.021,-0.01,0.0001,0.423,0,0.0001,0,0,0,0,0,0,1,1,0,0,VALID,0,0,0,0,0,1,0,0,0,0,0,0,0,0,0,0,0,0,0,0,274.9,503.53,2,0,0.08,0.08,217,14.29,0.08,0.06,14.52,LANDED,CF1-J,0:/Integrated Flight Computer/aircraft/cf1_j_cfg.ks (inferred preloaded)
14.92,TAKEOFF,TO_GROUND_ROLL,37.47,80,42.53,3.63,-0.2,-0.07,0.22,90.37,0.105,1,0,0,0,0,0,0,0,0,0,0,0,0,0,0,90.38,0,1,0,-0.3,0,0,0.02,90,0,0,0,0,0,0,0,0,-0.022,0,0,3,0,0,0,69,0,0,0,90.38,1,-0.022,-0.005,0.0001,0.437,0,0.0001,0,0,0,0,0,0,1,1,0,0,VALID,0,0,0,0,0,1,0,0,0,0,0,0,0,0,0,0,0,0,0,0,278.29,502.78,2,0,0.08,0.08,221,14.29,0.08,0.06,14.8,LANDED,CF1-J,0:/Integrated Flight Computer/aircraft/cf1_j_cfg.ks (inferred preloaded)
15.2,TAKEOFF,TO_GROUND_ROLL,38.86,80,41.14,3.63,-0.21,-0.07,0.22,90.38,0.099,1,0,0,0,0,0,0,0,0,0,0,0,0,0,0,90.37,0,1,0,-0.3,0,0,0.02,90,0,0,0,0,0,0,0,0,-0.024,0,0,3,0,0,0,69,0,0,0,90.37,1,-0.024,0.002,0,0.452,0,0,0,0,0,0,0,0,1,1,0,0,VALID,0,0,0,0,0,1,0,0,0,0,0,0,0,0,0,0,0,0,0,0,281.6,502.01,2,0,0.08,0.08,225,14.29,0.08,0.06,15.08,LANDED,CF1-J,0:/Integrated Flight Computer/aircraft/cf1_j_cfg.ks (inferred preloaded)
15.48,TAKEOFF,TO_GROUND_ROLL,40.26,80,39.74,3.63,-0.21,-0.07,0.22,90.38,0.091,1,0,0,0,0,0,0,0,0,0,0,0,0,0,0,90.37,0,1,0,-0.3,0,0,0.02,90,0,0,0,0,0,0,0,0,-0.025,0,0,3,0,0,0,69,0,0,0,90.37,1,-0.025,0.009,-0.0001,0.467,0,-0.0001,0,0,0,0,0,0,1,1,0,0,VALID,0,0,0,0,0,1,0,0,0,0,0,0,0,0,0,0,0,0,0,0,284.83,501.21,2,0,0.08,0.08,229,14.29,0.08,0.06,15.36,LANDED,CF1-J,0:/Integrated Flight Computer/aircraft/cf1_j_cfg.ks (inferred preloaded)
15.76,TAKEOFF,TO_GROUND_ROLL,41.68,80,38.32,3.63,-0.22,-0.06,0.22,90.38,0.089,1,0,0,0,0,0,0,0,0,0,0,0,0,0,0,90.37,0,1,0,-0.3,0,0,0.02,90,0,0,0,0,0,0,0,0,-0.027,0,0,3,0,0,0,69,0,0,0,90.37,1,-0.027,0.012,-0.0001,0.482,0,-0.0001,0,0,0,0,0,0,1,1,0,0,VALID,0,0,0,0,0,1,0,0,0,0,0,0,0,0,0,0,0,0,0,0,287.97,500.4,2,0,0.08,0.08,233,14.29,0.08,0.06,15.64,LANDED,CF1-J,0:/Integrated Flight Computer/aircraft/cf1_j_cfg.ks (inferred preloaded)
16.04,TAKEOFF,TO_GROUND_ROLL,43.11,80,36.89,3.63,-0.22,-0.06,0.22,90.39,0.093,1,0,0,0,0,0,0,0,0,0,0,0,0,0,0,90.37,0,1,0,-0.3,0,0,0.02,90,0,0,0,0,0,0,0,0,-0.028,0,0,3,0,0,0,69,0,0,0,90.37,1,-0.028,0.016,-0.0002,0.498,0,-0.0002,0,0,0,0,0,0,1,1,0,0,VALID,0,0,0,0,0,1,0,0,0,0,0,0,0,0,0,0,0,0,0,0,291.03,499.57,2,0,0.08,0.08,237,14.29,0.08,0.06,15.92,LANDED,CF1-J,0:/Integrated Flight Computer/aircraft/cf1_j_cfg.ks (inferred preloaded)
16.32,TAKEOFF,TO_GROUND_ROLL,44.55,80,35.45,3.63,-0.23,-0.06,0.22,90.39,0.099,1,0,0,0,0,0,0,0,0,0,0,0,0,0,0,90.37,0,1,0,-0.3,0,0,0.02,90,0,0,0,0,0,0,0,0,-0.03,0,0,3,0,0,0,69,0,0,0,90.37,1,-0.03,0.02,-0.0003,0.513,0,-0.0003,0,0,0,0,0,0,1,1,0,0,VALID,0,0,0,0,0,1,0,0,0,0,0,0,0,0,0,0,0,0,0,0,294,498.72,2,0,0.08,0.08,241,14.29,0.08,0.06,16.2,LANDED,CF1-J,0:/Integrated Flight Computer/aircraft/cf1_j_cfg.ks (inferred preloaded)
16.6,TAKEOFF,TO_GROUND_ROLL,46,80,34,3.63,-0.24,-0.06,0.22,90.39,0.099,1,0,0,0,0,0,0,0,0,0,0,0,0,0,0,90.37,0,1,0,-0.3,0,0,0.02,90,0,0,0,0,0,0,0,0,-0.032,0,0,3,0,0,0,69,0,0,0,90.37,1,-0.032,0.023,-0.0003,0.529,0,-0.0003,0,0,0,0,0,0,1,1,0,0,VALID,0,0,0,0,0,1,0,0,0,0,0,0,0,0,0,0,0,0,0,0,296.9,497.85,2,0,0.08,0.08,245,14.29,0.08,0.06,16.48,LANDED,CF1-J,0:/Integrated Flight Computer/aircraft/cf1_j_cfg.ks (inferred preloaded)
16.88,TAKEOFF,TO_GROUND_ROLL,47.47,80,32.53,3.63,-0.24,-0.05,0.23,90.39,0.096,1,0,0,0,0,0,0,0,0,0,0,0,0,0,0,90.36,0,1,0,-0.29,0,0,0.03,90,0,0,0,0,0,0,0,0,-0.034,0,0,3,0,0,0,69,0,0,0,90.36,1,-0.034,0.028,-0.0004,0.544,0,-0.0004,0,0,0,0,0,0,1,1,0,0,VALID,0,0,0,0,0,1,0,0,0,0,0,0,0,0,0,0,0,0,0,0,299.72,496.96,2,0,0.08,0.08,249,14.29,0.08,0.06,16.76,LANDED,CF1-J,0:/Integrated Flight Computer/aircraft/cf1_j_cfg.ks (inferred preloaded)
17.16,TAKEOFF,TO_GROUND_ROLL,48.95,80,31.05,3.64,-0.25,-0.05,0.23,90.39,0.093,1,0,0,0,0,0,0,0,0,0,0,0,0,0,0,90.36,0,1,0,-0.29,0,0,0.03,90,0,0,0,0,0,0,0,0,-0.036,0,0,3,0,0,0,69,0,0,0,90.36,1,-0.036,0.032,-0.0005,0.56,0,-0.0005,0,0,0,0,0,0,1,1,0,0,VALID,0,0,0,0,0,1,0,0,0,0,0,0,0,0,0,0,0,0,0,0,302.45,496.06,2,0,0.08,0.08,253,14.29,0.08,0.06,17.04,LANDED,CF1-J,0:/Integrated Flight Computer/aircraft/cf1_j_cfg.ks (inferred preloaded)
17.44,TAKEOFF,TO_GROUND_ROLL,50.44,80,29.56,3.64,-0.26,-0.05,0.23,90.4,0.092,1,0,0,0,0,0,0,0,0,0,0,0,0,0,0,90.36,0,1,0,-0.29,0,0,0.03,90,0,0,0,0,0,0,0,0,-0.038,0,0,3,0,0,0,69,0,0,0,90.36,1,-0.038,0.039,-0.0006,0.576,0,-0.0006,0,0,0,0,0,0,1,1,0,0,VALID,0,0,0,0,0,1,0,0,0,0,0,0,0,0,0,0,0,0,0,0,305.11,495.13,2,0,0.08,0.08,257,14.29,0.08,0.06,17.32,LANDED,CF1-J,0:/Integrated Flight Computer/aircraft/cf1_j_cfg.ks (inferred preloaded)
17.72,TAKEOFF,TO_GROUND_ROLL,51.94,80,28.06,3.64,-0.26,-0.03,0.24,90.4,0.092,1,0,0,0,0,0,0,0,0,0,0,0,0,0,0,90.36,0,1,0,-0.29,0,0,0.03,90,0,0,0,0,0,0,0,0,-0.04,0,0,3,0,0,0,69,0,0,0,90.36,1,-0.04,0.046,-0.0007,0.592,0,-0.0007,0,0,0,0,0,0,1,1,0,0,VALID,0,0,0,0,0,1,0,0,0,0,0,0,0,0,0,0,0,0,0,0,307.7,494.19,2,0,0.08,0.08,261,14.29,0.08,0.06,17.6,LANDED,CF1-J,0:/Integrated Flight Computer/aircraft/cf1_j_cfg.ks (inferred preloaded)
18,TAKEOFF,TO_GROUND_ROLL,53.45,80,26.55,3.64,-0.27,0,0.26,90.41,0.091,1,0,0,0,0,0,0,0,0,0,0,0,0,0,0,90.35,0,1,0,-0.28,0,0,0.03,90,0,0,0,0,0,0,0,0,-0.042,0,0,3,0,0,0,69,0,0,0,90.35,1,-0.042,0.055,-0.0009,0.608,0,-0.0009,0,0,0,0,0,0,1,1,0,0,VALID,0,0,0,0,0,1,0,0,0,0,0,0,0,0,0,0,0,0,0,0,310.21,493.23,2,0,0.08,0.08,265,14.29,0.08,0.06,17.88,LANDED,CF1-J,0:/Integrated Flight Computer/aircraft/cf1_j_cfg.ks (inferred preloaded)
18.28,TAKEOFF,TO_GROUND_ROLL,54.97,80,25.03,3.65,-0.27,0.05,0.31,90.41,0.09,1,0,0,0,0,0,0,0,0,0,0,0,0,0,0,90.35,0,1,0,-0.28,0,0,0.03,90,0,0,0,0,0,0,0,0,-0.044,0,0,3,0,0,0,69,0,0,0,90.35,1,-0.044,0.063,-0.0011,0.625,0,-0.0011,0,0,0,0,0,0,1,1,0,0,VALID,0,0,0,0,0,1,0,0,0,0,0,0,0,0,0,0,0,0,0,0,312.64,492.26,2,0,0.08,0.08,269,14.29,0.08,0.06,18.16,LANDED,CF1-J,0:/Integrated Flight Computer/aircraft/cf1_j_cfg.ks (inferred preloaded)
18.56,TAKEOFF,TO_GROUND_ROLL,56.5,80,23.5,3.67,-0.17,0.11,0.27,90.42,0.088,1,0,0,0,0,0,0,0,0,0,0,0,0,0,0,90.35,0,1,0,-0.18,0,0,0.03,90,0,0,0,0,0,0,0,0,-0.047,0,0,3,0,0,0,69,0,0,0,90.35,1,-0.047,0.072,-0.0013,0.641,0,-0.0013,0,0,0,0,0,0,1,1,0,0,VALID,0,0,0,0,0,1,0,0,0,0,0,0,0,0,0,0,0,0,0,0,315,491.27,2,0,0.08,0.08,273,14.29,0.08,0.06,18.44,LANDED,CF1-J,0:/Integrated Flight Computer/aircraft/cf1_j_cfg.ks (inferred preloaded)
18.84,TAKEOFF,TO_GROUND_ROLL,58.03,80,21.97,3.69,-0.3,0.22,0.51,90.43,0.089,1,0,0,0,0,0,0,0,0,0,0,0,0,0,0,90.35,0,1,0,-0.3,0,0,0.04,90,0,0,0,0,0,0,0,0,-0.049,0,0,3,0,0,0,69,0,0,0,90.35,1,-0.049,0.08,-0.0015,0.658,0,-0.0015,0,0,0,0,0,0,1,1,0,0,VALID,0,0,0,0,0,1,0,0,0,0,0,0,0,0,0,0,0,0,0,0,317.3,490.27,2,0,0.08,0.08,277,14.29,0.08,0.06,18.72,LANDED,CF1-J,0:/Integrated Flight Computer/aircraft/cf1_j_cfg.ks (inferred preloaded)
19.12,TAKEOFF,TO_GROUND_ROLL,59.58,80,20.42,3.72,-0.29,0.34,0.59,90.43,0.09,1,0,0,0,0,0,0,0,0,0,0,0,0,0,0,90.34,0,1,0,-0.28,0,0,0.04,90,0,0,0,0,0,0,0,0,-0.052,0,0,3,0,0,0,69,0,0,0,90.34,1,-0.052,0.09,-0.0018,0.674,0,-0.0018,0,0,0,0,0,0,1,1,0,0,VALID,0,0,0,0,0,1,0,0,0,0,0,0,0,0,0,0,0,0,0,0,319.52,489.25,2,0,0.08,0.08,281,14.29,0.08,0.06,19,LANDED,CF1-J,0:/Integrated Flight Computer/aircraft/cf1_j_cfg.ks (inferred preloaded)
19.4,TAKEOFF,TO_GROUND_ROLL,61.13,80,18.87,3.73,-0.28,0.44,0.69,90.44,0.089,1,0,0,0,0,0,0,0,0,0,0,0,0,0,0,90.34,0,1,0,-0.27,0,0,0.04,90,0,0,0,0,0,0,0,0,-0.055,0,0,3,0,0,0,69,0,0,0,90.34,1,-0.055,0.098,-0.002,0.691,0,-0.002,0,0,0,0,0,0,1,1,0,0,VALID,0,0,0,0,0,1,0,0,0,0,0,0,0,0,0,0,0,0,0,0,321.67,488.23,2,0,0.08,0.08,285,14.29,0.08,0.06,19.28,LANDED,CF1-J,0:/Integrated Flight Computer/aircraft/cf1_j_cfg.ks (inferred preloaded)
19.68,TAKEOFF,TO_GROUND_ROLL,62.69,80,17.31,3.75,-0.3,0.51,0.77,90.44,0.088,1,0,0,0,0,0,0,0,0,0,0,0,0,0,0,90.34,0,1,0,-0.28,0,0,0.04,90,0,0,0,0,0,0,0,0,-0.057,0,0,3,0,0,0,69,0,0,0,90.34,1,-0.057,0.106,-0.0023,0.707,0,-0.0023,0,0,0,0,0,0,1,1,0,0,VALID,0,0,0,0,0,1,0,0,0,0,0,0,0,0,0,0,0,0,0,0,323.76,487.19,2,0,0.08,0.08,289,14.29,0.08,0.06,19.56,LANDED,CF1-J,0:/Integrated Flight Computer/aircraft/cf1_j_cfg.ks (inferred preloaded)
19.96,TAKEOFF,TO_GROUND_ROLL,64.25,80,15.75,3.75,-0.31,0.55,0.8,90.45,0.088,1,0,0,0,0,0,0,0,0,0,0,0,0,0,0,90.34,0,1,0,-0.27,0,0,0.04,90,0,0,0,0,0,0,0,0,-0.06,0,0,3,0,0,0,69,0,0,0,90.34,1,-0.06,0.113,-0.0025,0.724,0,-0.0025,0,0,0,0,0,0,1,1,0,0,VALID,0,0,0,0,0,1,0,0,0,0,0,0,0,0,0,0,0,0,0,0,325.78,486.13,2,0,0.08,0.08,293,14.29,0.08,0.06,19.84,LANDED,CF1-J,0:/Integrated Flight Computer/aircraft/cf1_j_cfg.ks (inferred preloaded)
20.24,TAKEOFF,TO_GROUND_ROLL,65.81,80,14.19,3.76,-0.31,0.58,0.83,90.45,0.088,1,0,0,0,0,0,0,0,0,0,0,0,0,0,0,90.33,0,1,0,-0.27,0,0,0.05,90,0,0,0,0,0,0,0,0,-0.063,0,0,3,0,0,0,69,0,0,0,90.33,1,-0.063,0.121,-0.0028,0.741,0,-0.0028,0,0,0,0,0,0,1,1,0,0,VALID,0,0,0,0,0,1,0,0,0,0,0,0,0,0,0,0,0,0,0,0,327.74,485.07,2,0,0.08,0.08,297,14.29,0.08,0.06,20.12,LANDED,CF1-J,0:/Integrated Flight Computer/aircraft/cf1_j_cfg.ks (inferred preloaded)
20.52,TAKEOFF,TO_GROUND_ROLL,67.39,80,12.61,3.76,0.25,0.57,0.36,90.46,0.088,1,0,0,0,0,0,0,0,0,0,0,0,0,0,0,90.33,0,1,0,0.21,0,0,0.05,90,0,0,0,0,0,0,0,0,-0.066,0,0,3,0,0,0,69,0,0,0,90.33,1,-0.066,0.125,-0.003,0.758,0,-0.003,0,0,0,0,0,0,1,1,0,0,VALID,0,0,0,0,0,1,0,0,0,0,0,0,0,0,0,0,0,0,0,0,329.63,484,2,0,0.08,0.08,301,14.29,0.08,0.06,20.4,LANDED,CF1-J,0:/Integrated Flight Computer/aircraft/cf1_j_cfg.ks (inferred preloaded)
20.8,TAKEOFF,TO_GROUND_ROLL,68.96,80,11.04,3.77,-0.49,0.7,1.12,90.46,0.091,1,0,0,0,0,0,0,0,0,0,0,0,0,0,0,90.33,0,1,0,-0.41,0,0,0.05,90,0,0,0,0,0,0,0,0,-0.069,0,0,3,0,0,0,69,0,0,0,90.33,1,-0.069,0.129,-0.0031,0.775,0,-0.0031,0,0,0,0,0,0,1,1,0,0,VALID,0,0,0,0,0,1,0,0,0,0,0,0,0,0,0,0,0,0,0,0,331.46,482.91,2,0,0.08,0.08,305,14.29,0.08,0.06,20.68,LANDED,CF1-J,0:/Integrated Flight Computer/aircraft/cf1_j_cfg.ks (inferred preloaded)
21.1,TAKEOFF,TO_ROTATE,70.66,80,9.34,3.81,-0.36,0.81,1.06,90.46,0.09,1,0,0,0,0,0,0,0,0,0,0,0,0,0,0,90.33,1.017,1,0,-0.27,0,0,0.05,90,0,0,0,0,0,0,0,0,-0.073,0,0,3,0,0,0,69,0,0,0,90.33,1,-0.073,0.134,-0.0034,0.792,0,-0.0034,0,0.12,1.017,0.211,0.08,0,1,1,0,0,VALID,0,0,0,0,0,1,0,0,0,0,0,0,0,0,0,0,0,0,0,0,333.36,481.74,2,0,0.08,0.08,309,13.33,0.08,0.06,20.96,LANDED,CF1-J,0:/Integrated Flight Computer/aircraft/cf1_j_cfg.ks (inferred preloaded)
21.38,TAKEOFF,TO_ROTATE,72.24,80,7.76,3.82,-0.29,0.91,1.13,90.46,0.089,1,0,0,0,0,0,0,0,0,0,0,0,0,0,0,90.32,1.857,1,0,-0.23,0,0,0.05,90,0,0,0,0,0,0,0,0,-0.076,0,0,3,0,0,0,69,0,0,0,90.32,1,-0.076,0.138,-0.0036,0.808,0,-0.0036,0,0.1556,1.857,0.945,0.08,0,1,1,0,0,VALID,0,0,0,0,0,1,0,0,0,0,0,0,0,0,0,0,0,0,0,0,335.07,480.64,2,0,0.08,0.08,313,14.29,0.08,0.06,21.24,LANDED,CF1-J,0:/Integrated Flight Computer/aircraft/cf1_j_cfg.ks (inferred preloaded)
21.68,TAKEOFF,TO_ROTATE,73.93,80,6.07,3.85,-0.33,1.07,1.32,90.46,0.089,1,0,0,0,0,0,0,0,0,0,0,0,0,0,0,90.32,2.757,1,0,-0.26,0,0,0.05,90,0,0,0,0,0,0,0,0,-0.08,0,0,3,0,0,0,69,0,0,0,90.32,1,-0.08,0.144,-0.0038,0.827,0,-0.0038,0,0.2153,2.757,1.691,0.08,0,1,1,0,0,VALID,0,0,0,0,0,1,0,0,0,0,0,0,0,0,0,0,0,0,0,0,336.84,479.46,2,0,0.08,0.08,317,13.33,0.08,0.06,21.54,LANDED,CF1-J,0:/Integrated Flight Computer/aircraft/cf1_j_cfg.ks (inferred preloaded)
21.96,TAKEOFF,TO_ROTATE,75.51,80,4.49,3.89,-0.31,1.29,1.51,90.46,0.088,1,0,0,0,0,0,0,0,0,0,0,0,0,0,0,90.32,3.597,1,0,-0.23,0,0,0.06,90,0,0,0,0,0,0,0,0,-0.083,0,0,3,0,0,0,69,0,0,0,90.32,1,-0.083,0.149,-0.0041,0.844,0,-0.0041,0,0.2647,3.597,2.309,0.08,0,1,1,0,0,VALID,0,0,0,0,0,1,0,0,0,0,0,0,0,0,0,0,0,0,0,0,338.43,478.36,2,0,0.08,0.08,321,14.29,0.08,0.06,21.82,LANDED,CF1-J,0:/Integrated Flight Computer/aircraft/cf1_j_cfg.ks (inferred preloaded)
22.24,TAKEOFF,TO_ROTATE,77.08,80,2.92,3.97,-0.28,1.62,1.82,90.47,0.081,1,0,0,0,0,0,0,0,0,0,0,0,0,0,0,90.31,4.437,1,0,-0.21,0,0,0.06,90,0,0,0,0,0,0,0,0,-0.087,0,0,3,0,0,0,69,0,0,0,90.31,1,-0.087,0.154,-0.0043,0.86,0,-0.0043,0,0.305,4.437,2.813,0.08,0,1,1,0,0,VALID,0,0,0,0,0,1,0,0,0,0,0,0,0,0,0,0,0,0,0,0,339.98,477.25,2,0,0.08,0.08,325,14.29,0.08,0.06,22.1,LANDED,CF1-J,0:/Integrated Flight Computer/aircraft/cf1_j_cfg.ks (inferred preloaded)
22.52,TAKEOFF,TO_ROTATE,78.65,80,1.35,4.1,-0.29,2.12,2.29,90.47,0.077,1,0,0,0,0,0,0,0,0,0,0,0,0,0,0,90.31,5.277,1,0,-0.18,0,0,0.06,90,0,0,0,0,0,0,0,0,-0.09,0,0,3,0,0,0,69,0,0,0,90.31,1,-0.09,0.16,-0.0046,0.877,0,-0.0046,0,0.3328,5.277,3.16,0.08,0,1,1,0,0,VALID,0,0,0,0,0,1,0,0,0,0,0,0,0,0,0,0,0,0,0,0,341.47,476.14,2,0,0.08,0.08,329,14.29,0.08,0.06,22.38,LANDED,CF1-J,0:/Integrated Flight Computer/aircraft/cf1_j_cfg.ks (inferred preloaded)
22.8,TAKEOFF,TO_ROTATE,80.19,80,-0.19,4.26,-0.14,3.01,3.11,90.47,0.079,1,0,0,0,0,0,0,0,0,0,0,0,0,0,0,90.31,6.117,1,0,-0.11,0,0,0.06,90,0,0,0,0,0,0,0,0,-0.094,0,0,3,0,0,0,69,0,0,0,90.31,1,-0.094,0.163,-0.0048,0.894,0,-0.0048,0,0.3286,6.117,3.108,0.08,0,1,1,0,0,VALID,0,0,0,0,0,1,0,0,0,0,0,0,0,0,0,0,0,0,0,0,342.93,475.05,2,0,0.08,0.08,333,14.29,0.08,0.06,22.66,LANDED,CF1-J,0:/Integrated Flight Computer/aircraft/cf1_j_cfg.ks (inferred preloaded)
23.08,TAKEOFF,TO_ROTATE,81.69,80,-1.69,4.48,-0.25,4.11,4.29,90.47,0.079,1,0,0,0,0,0,0,0,0,0,0,0,0,0,0,90.3,6.957,1,0,-0.18,0,0,0.07,90,0,0,0,0,0,0,0,0,-0.098,0,0,3,0,0,0,69,0,0,0,90.3,1,-0.098,0.167,-0.0051,0.91,0,-0.0051,0,0.3075,6.957,2.844,0.08,0,1,1,0,0,VALID,0,0,0,0,0,1,0,0,0,0,0,0,0,0,0,0,0,0,0,0,344.35,473.98,2,0,0.08,0.08,337,14.29,0.08,0.06,22.94,LANDED,CF1-J,0:/Integrated Flight Computer/aircraft/cf1_j_cfg.ks (inferred preloaded)
23.36,TAKEOFF,TO_ROTATE,83.13,80,-3.13,4.74,-0.05,5.36,5.41,90.47,0.064,1,0,0,0,0,0,0,0,0,0,0,0,0,0,0,90.3,7.797,1,0,-0.05,0,0,0.07,90,0,0,0,0,0,0,0,0,-0.102,0,0,3,0,0,0,69,0,0,0,90.3,1,-0.102,0.165,-0.0051,0.925,0,-0.0051,0,0.275,7.797,2.438,0.08,0,1,1,0,0,VALID,0,0,0,0,0,1,0,0,0,0,0,0,0,0,0,0,0,0,0,0,345.76,472.95,2,0,0.08,0.08,341,14.29,0.08,0.06,23.22,LANDED,CF1-J,0:/Integrated Flight Computer/aircraft/cf1_j_cfg.ks (inferred preloaded)
23.62,TAKEOFF,TO_ROTATE,84.4,80,-4.4,5.04,0.54,6.35,5.99,90.46,0.029,1,0,0,0,0,0,0,0,0,0,0,0,0,0,0,90.4,8.637,0,1,0.36,0,0,8.4,90.4,-0.2383,-0.0068,0.9712,8.64,90.4,0,0,0,0,0,0,3,0,0,0,69,0,0,0,90.4,1,0,0.061,0,0,3,0,0,0,8.637,2.29,0,0,1,1,0,0,VALID,0,0,0,0,0,1,0,0,0,0,0,0,0,0,0,0,0,0,0,0,347.06,472.04,2,0,0.08,0.08,345,15.38,0.08,0.06,23.48,FLYING,CF1-J,0:/Integrated Flight Computer/aircraft/cf1_j_cfg.ks (inferred preloaded)
23.9,TAKEOFF,TO_ROTATE,85.71,80,-5.71,5.46,1.29,6.73,5.91,90.46,0.016,1,0,0,0,0,0,0,0,0,0,0,0,0,0,0,90.4,9.477,0,1,0.86,0,0,9.24,90.4,-0.2241,-0.0068,0.9745,9.48,90.4,0,0,0,0,0,0,3,0,0,0,69,0,0,0,90.4,1,0,0.064,0,0,3,0,0,0,9.477,2.749,0,0,1,1,0,0,VALID,0,0,0,0,0,1,0,0,0,0,0,0,0,0,0,0,0,0,0,0,348.44,471.08,2,0,0.08,0.08,349,14.29,0.08,0.06,23.76,FLYING,CF1-J,0:/Integrated Flight Computer/aircraft/cf1_j_cfg.ks (inferred preloaded)
24.18,TAKEOFF,TO_CLIMB,87,80,-7,6.09,2.09,7.01,5.71,90.46,0.004,1,0,0,0,0,0,0,0,0,0,0,0,0,0,0,90.4,10,0,1,1.38,0,0,10,90.4,-0.2152,-0.0067,0.9765,10,90.4,0,0,0,0,0,0,3,0,0,0,69,0,0,0,90.4,1,0,0.062,0,0,3,0,0,0,10,2.989,0,0,1,1,0,0,VALID,0,0,0,0,0,1,0,0,0,0,0,0,0,0,0,0,0,0,0,0,349.77,470.13,2,0,0.08,0.08,353,14.29,0.08,0.06,24.04,FLYING,CF1-J,0:/Integrated Flight Computer/aircraft/cf1_j_cfg.ks (inferred preloaded)
24.46,TAKEOFF,TO_CLIMB,88.28,80,-8.28,6.93,2.88,7.21,5.42,90.46,-0.003,0.9172,0,0,0,0,0,0,0,0,0,0,0,0,0,0,90.4,7.459,0,1,1.87,0,0,7.33,90.4,-0.2583,-0.0068,0.966,7.46,90.4,0,0,0,0,0,0,3,0,0,0,69,0,0,0,90.4,1,0,0.061,0,0,3,0,0,0,10,2.989,0,0,1,1,0,0,VALID,0,0,0,0,0,1,0,0,0,0,0,0,0,0,0,0,0,0,0,0,350.82,469.16,2,0,0.08,0.08,357,14.29,0.08,0.06,24.32,FLYING,CF1-J,0:/Integrated Flight Computer/aircraft/cf1_j_cfg.ks (inferred preloaded)
24.74,TAKEOFF,TO_CLIMB,89.54,80,-9.54,8,3.72,7.44,5.18,90.46,-0.018,0.9046,0,0,0,0,0,0,0,0,0,0,0,0,0,0,90.4,7.907,0,1,2.38,0,0,7.78,90.4,-0.2508,-0.0068,0.968,7.91,90.4,0,0,0,0,0,0,3,0,0,0,69,0,0,0,90.4,1,0,0.058,0,0,3,0,0,0,10,2.989,0,0,1,1,0,0,VALID,0,0,0,0,0,1,0,0,0,0,0,0,0,0,0,0,0,0,0,0,351.4,468.2,2,0,0.08,0.08,361,14.29,0.08,0.06,24.6,FLYING,CF1-J,0:/Integrated Flight Computer/aircraft/cf1_j_cfg.ks (inferred preloaded)
25.02,TAKEOFF,TO_CLIMB,90.79,80,-10.79,9.23,4.51,7.19,4.5,90.45,-0.032,0.8921,0,0,0,0,0,0,0,0,0,0,0,0,0,0,90.4,8,0,1,2.84,0,0,8,90.4,-0.2493,-0.0068,0.9684,8,90.4,0,0,0,0,0,0,3,0,0,0,69,0,0,0,90.4,1,0,0.055,0,0,3,0,0,0,10,2.989,0,0,1,1,0,0,VALID,0,0,0,0,0,1,0,0,0,0,0,0,0,0,0,0,0,0,0,0,351.85,467.22,2,0,0.08,0.08,365,14.29,0.08,0.06,24.88,FLYING,CF1-J,0:/Integrated Flight Computer/aircraft/cf1_j_cfg.ks (inferred preloaded)
25.3,TAKEOFF,TO_CLIMB,92.06,80,-12.06,10.66,5.07,7.08,4.05,90.45,-0.041,0.8794,0,0,0,0,0,0,0,0,0,0,0,0,0,0,90.4,8,0,1,3.15,0,0,8,90.4,-0.2493,-0.0068,0.9684,8,90.4,0,0,0,0,0,0,3,0,0,0,69,0,0,0,90.4,1,0,0.053,0,0,3,0,0,0,10,2.989,0,0,1,1,0,0,VALID,0,0,0,0,0,1,0,0,0,0,0,0,0,0,0,0,0,0,0,0,352.15,466.22,2,0,0.08,0.08,369,14.29,0.08,0.06,25.16,FLYING,CF1-J,0:/Integrated Flight Computer/aircraft/cf1_j_cfg.ks (inferred preloaded)
25.58,TAKEOFF,TO_CLIMB,93.33,80,-13.33,12.32,5.66,7.41,4.06,90.45,-0.049,0.8667,0,0,0,0,0,0,0,0,0,0,0,0,0,0,90.4,8,0,1,3.47,0,0,8,90.4,-0.2494,-0.0068,0.9684,8,90.4,0,0,0,0,0,0,3,0,0,0,69,0,0,0,90.4,1,0,0.05,0,0,3,0,0,0,10,2.989,0,0,1,1,0,0,VALID,0,0,0,0,0,1,0,0,0,0,0,0,0,0,0,0,0,0,0,0,352.33,465.21,2,0,0.08,0.08,373,14.29,0.08,0.06,25.44,FLYING,CF1-J,0:/Integrated Flight Computer/aircraft/cf1_j_cfg.ks (inferred preloaded)
25.86,TAKEOFF,TO_CLIMB,94.57,80,-14.57,14.15,6.42,7.55,3.83,90.45,-0.062,0.8543,0,0,0,0,0,0,0,0,0,0,0,0,0,0,90.4,8,0,1,3.88,0,0,8,90.4,-0.2494,-0.0068,0.9684,8,90.4,0,0,0,0,0,0,3,0,0,0,69,0,0,0,90.4,1,0,0.047,0,0,3,0,0,0,10,2.989,0,0,1,1,0,0,VALID,0,0,0,0,0,1,0,0,0,0,0,0,0,0,0,0,0,0,0,0,352.39,464.2,2,0,0.08,0.08,377,14.29,0.08,0.06,25.72,FLYING,CF1-J,0:/Integrated Flight Computer/aircraft/cf1_j_cfg.ks (inferred preloaded)
26.14,TAKEOFF,TO_CLIMB,95.81,80,-15.81,16.14,7.02,7.49,3.44,90.44,-0.069,0.8419,0,0,0,0,0,0,0,0,0,0,0,0,0,0,90.4,8,0,1,4.19,0,0,8,90.4,-0.2495,-0.0068,0.9684,8,90.4,0,0,0,0,0,0,3,0,0,0,69,0,0,0,90.4,1,0,0.044,0,0,3,0,0,0,10,2.989,0,0,1,1,0,0,VALID,0,0,0,0,0,1,0,0,0,0,0,0,0,0,0,0,0,0,0,0,352.34,463.19,2,0,0.08,0.08,381,14.29,0.08,0.06,26,FLYING,CF1-J,0:/Integrated Flight Computer/aircraft/cf1_j_cfg.ks (inferred preloaded)
26.42,TAKEOFF,TO_CLIMB,97.03,80,-17.03,18.34,7.73,7.43,3.08,90.44,-0.07,0.8297,0,0,0,0,0,0,0,0,0,0,0,0,0,0,90.4,8,0,1,4.55,0,0,8,90.4,-0.2495,-0.0068,0.9683,8,90.4,0,0,0,0,0,0,3,0,0,0,69,0,0,0,90.4,1,0,0.042,0,0,3,0,0,0,10,2.989,0,0,1,1,0,0,VALID,0,0,0,0,0,1,0,0,0,0,0,0,0,0,0,0,0,0,0,0,352.17,462.18,2,0,0.08,0.08,385,14.29,0.08,0.06,26.28,FLYING,CF1-J,0:/Integrated Flight Computer/aircraft/cf1_j_cfg.ks (inferred preloaded)
26.7,TAKEOFF,TO_CLIMB,98.27,80,-18.27,20.64,8.14,7.19,2.63,90.44,-0.07,0.8173,0,0,0,0,0,0,0,0,0,0,0,0,0,0,90.4,8,0,1,4.74,0,0,8,90.4,-0.2496,-0.0068,0.9683,8,90.4,0,0,0,0,0,0,3,0,0,0,69,0,0,0,90.4,1,0,0.04,0,0,3,0,0,0,10,2.989,0,0,1,1,0,0,VALID,0,0,0,0,0,1,0,0,0,0,0,0,0,0,0,0,0,0,0,0,351.89,461.15,2,0,0.08,0.08,389,14.29,0.08,0.06,26.56,FLYING,CF1-J,0:/Integrated Flight Computer/aircraft/cf1_j_cfg.ks (inferred preloaded)
26.98,TAKEOFF,TO_CLIMB,99.51,80,-19.51,23.09,8.58,7.18,2.43,90.44,-0.071,0.8049,0,0,0,0,0,0,0,0,0,0,0,0,0,0,90.4,8,0,1,4.93,0,0,8,90.4,-0.2496,-0.0068,0.9683,8,90.4,0,0,0,0,0,0,3,0,0,0,69,0,0,0,90.4,1,0,0.038,0,0,3,0,0,0,10,2.989,0,0,1,1,0,0,VALID,0,0,0,0,0,1,0,0,0,0,0,0,0,0,0,0,0,0,0,0,351.49,460.11,2,0,0.08,0.08,393,14.29,0.08,0.06,26.84,FLYING,CF1-J,0:/Integrated Flight Computer/aircraft/cf1_j_cfg.ks (inferred preloaded)
27.26,TAKEOFF,TO_CLIMB,100.74,80,-20.74,25.65,9,7.18,2.25,90.44,-0.071,0.7926,0,0,0,0,0,0,0,0,0,0,0,0,0,0,90.4,8,0,1,5.1,0,0,8,90.4,-0.2497,-0.0068,0.9683,8,90.4,0,0,0,0,0,0,3,0,0,0,69,0,0,0,90.4,1,0,0.035,0,0,3,0,0,0,10,2.989,0,0,1,1,0,0,VALID,0,0,0,0,0,1,0,0,0,0,0,0,0,0,0,0,0,0,0,0,350.99,459.07,2,0,0.08,0.08,397,14.29,0.08,0.06,27.12,FLYING,CF1-J,0:/Integrated Flight Computer/aircraft/cf1_j_cfg.ks (inferred preloaded)
27.54,TAKEOFF,TO_CLIMB,101.97,80,-21.97,28.34,9.42,7.18,2.08,90.43,-0.07,0.7803,0,0,0,0,0,0,0,0,0,0,0,0,0,0,90.4,8,0,1,5.28,0,0,8,90.4,-0.2497,-0.0068,0.9683,8,90.4,0,0,0,0,0,0,3,0,0,0,69,0,0,0,90.4,1,0,0.033,0,0,3,0,0,0,10,2.989,0,0,1,1,0,0,VALID,0,0,0,0,0,1,0,0,0,0,0,0,0,0,0,0,0,0,0,0,350.39,458.03,2,0,0.08,0.08,401,14.29,0.08,0.06,27.4,FLYING,CF1-J,0:/Integrated Flight Computer/aircraft/cf1_j_cfg.ks (inferred preloaded)
27.82,TAKEOFF,TO_CLIMB,103.18,80,-23.18,31.14,9.83,7.18,1.92,90.43,-0.07,0.78,0,0,0,0,0,0,0,0,0,0,0,0,0,0,90.4,8,0,1,5.44,0,0,8,90.4,-0.2497,-0.0068,0.9683,8,90.4,0,0,0,0,0,0,3,0,0,0,69,0,0,0,90.4,1,0,0.031,0,0,3,0,0,0,10,2.989,0,0,1,1,0,0,VALID,0,0,0,0,0,1,0,0,0,0,0,0,0,0,0,0,0,0,0,0,349.71,456.99,2,0,0.08,0.08,405,14.29,0.08,0.06,27.68,FLYING,CF1-J,0:/Integrated Flight Computer/aircraft/cf1_j_cfg.ks (inferred preloaded)
28.1,TAKEOFF,TO_CLIMB,104.39,80,-24.39,34.06,10.25,7.17,1.75,90.43,-0.07,0.78,0,0,0,0,0,0,0,0,0,0,0,0,0,0,90.4,8,0,1,5.61,0,0,8,90.4,-0.2498,-0.0068,0.9683,8,90.4,0,0,0,0,0,0,3,0,0,0,69,0,0,0,90.4,1,0,0.029,0,0,3,0,0,0,10,2.989,0,0,1,1,0,0,VALID,0,0,0,0,0,1,0,0,0,0,0,0,0,0,0,0,0,0,0,0,349.03,455.95,2,0,0.08,0.08,409,14.29,0.08,0.06,27.96,FLYING,CF1-J,0:/Integrated Flight Computer/aircraft/cf1_j_cfg.ks (inferred preloaded)
28.38,TAKEOFF,TO_CLIMB,105.59,80,-25.59,37.09,10.65,7.17,1.59,90.43,-0.07,0.78,0,0,0,0,0,0,0,0,0,0,0,0,0,0,90.4,8,0,1,5.76,0,0,8,90.4,-0.2498,-0.0068,0.9683,8,90.4,0,0,0,0,0,0,3,0,0,0,69,0,0,0,90.4,1,0,0.027,0,0,3,0,0,0,10,2.989,0,0,1,1,0,0,VALID,0,0,0,0,0,1,0,0,0,0,0,0,0,0,0,0,0,0,0,0,348.35,454.91,2,0,0.08,0.08,413,14.29,0.08,0.06,28.24,FLYING,CF1-J,0:/Integrated Flight Computer/aircraft/cf1_j_cfg.ks (inferred preloaded)
28.66,TAKEOFF,TO_CLIMB,106.78,80,-26.78,40.23,11.04,7.17,1.45,90.43,-0.07,0.78,0,0,0,0,0,0,0,0,0,0,0,0,0,0,90.4,8,0,1,5.91,0,0,8,90.4,-0.2499,-0.0068,0.9682,8,90.4,0,0,0,0,0,0,3,0,0,0,69,0,0,0,90.4,1,0,0.025,0,0,3,0,0,0,10,2.989,0,0,1,1,0,0,VALID,0,0,0,0,0,1,0,0,0,0,0,0,0,0,0,0,0,0,0,0,347.66,453.88,2,0,0.08,0.08,417,14.29,0.08,0.06,28.52,FLYING,CF1-J,0:/Integrated Flight Computer/aircraft/cf1_j_cfg.ks (inferred preloaded)
28.94,TAKEOFF,TO_CLIMB,107.95,80,-27.95,43.48,11.43,7.17,1.31,90.42,-0.069,0.78,0,0,0,0,0,0,0,0,0,0,0,0,0,0,90.4,8,0,1,6.04,0,0,8,90.4,-0.2499,-0.0068,0.9682,8,90.4,0,0,0,0,0,0,3,0,0,0,69,0,0,0,90.4,1,0,0.023,0,0,3,0,0,0,10,2.989,0,0,1,1,0,0,VALID,0,0,0,0,0,1,0,0,0,0,0,0,0,0,0,0,0,0,0,0,346.98,452.85,2,0,0.08,0.08,421,14.29,0.08,0.06,28.8,FLYING,CF1-J,0:/Integrated Flight Computer/aircraft/cf1_j_cfg.ks (inferred preloaded)
29.22,TAKEOFF,TO_CLIMB,109.12,80,-29.12,46.84,11.81,7.17,1.18,90.42,-0.068,0.78,0,0,0,0,0,0,0,0,0,0,0,0,0,0,90.4,8,0,1,6.18,0,0,8,90.4,-0.25,-0.0068,0.9682,8,90.4,0,0,0,0,0,0,3,0,0,0,69,0,0,0,90.4,1,0,0.021,0,0,3,0,0,0,10,2.989,0,0,1,1,0,0,VALID,0,0,0,0,0,1,0,0,0,0,0,0,0,0,0,0,0,0,0,0,346.3,451.82,2,0,0.08,0.08,425,14.29,0.08,0.06,29.08,FLYING,CF1-J,0:/Integrated Flight Computer/aircraft/cf1_j_cfg.ks (inferred preloaded)
29.5,TAKEOFF,TO_CLIMB,110.28,80,-30.28,50.3,12.19,7.17,1.05,90.42,-0.068,0.78,0,0,0,0,0,0,0,0,0,0,0,0,0,0,90.4,8,0,1,6.31,0,0,8,90.4,-0.25,-0.0068,0.9682,8,90.4,0,0,0,0,0,0,3,0,0,0,69,0,0,0,90.4,1,0,0.02,0,0,3,0,0,0,10,2.989,0,0,1,1,0,0,VALID,0,0,0,0,0,1,0,0,0,0,0,0,0,0,0,0,0,0,0,0,345.61,450.79,2,0,0.08,0.08,429,14.29,0.08,0.06,29.36,FLYING,CF1-J,0:/Integrated Flight Computer/aircraft/cf1_j_cfg.ks (inferred preloaded)
29.78,TAKEOFF,TO_CLIMB,111.44,80,-31.44,53.87,12.56,7.16,0.92,90.42,-0.068,0.78,0,0,0,0,0,0,0,0,0,0,0,0,0,0,90.4,8,0,1,6.43,0,0,8,90.4,-0.2501,-0.0068,0.9682,8,90.4,0,0,0,0,0,0,3,0,0,0,69,0,0,0,90.4,1,0,0.018,0,0,3,0,0,0,10,2.989,0,0,1,1,0,0,VALID,0,0,0,0,0,1,0,0,0,0,0,0,0,0,0,0,0,0,0,0,344.93,449.77,2,0,0.08,0.08,433,14.29,0.08,0.06,29.64,FLYING,CF1-J,0:/Integrated Flight Computer/aircraft/cf1_j_cfg.ks (inferred preloaded)
30.06,TAKEOFF,TO_CLIMB,112.58,80,-32.58,57.54,12.92,7.15,0.8,90.42,-0.065,0.78,0,0,0,0,0,0,0,0,0,0,0,0,0,0,90.4,8,0,1,6.54,0,0,8,90.4,-0.2501,-0.0068,0.9682,8,90.4,0,0,0,0,0,0,3,0,0,0,69,0,0,0,90.4,1,0,0.017,0,0,3,0,0,0,10,2.989,0,0,1,1,0,0,VALID,0,0,0,0,0,1,0,0,0,0,0,0,0,0,0,0,0,0,0,0,344.25,448.75,2,0,0.08,0.08,437,14.29,0.08,0.06,29.92,FLYING,CF1-J,0:/Integrated Flight Computer/aircraft/cf1_j_cfg.ks (inferred preloaded)
30.34,TAKEOFF,TO_CLIMB,113.71,80,-33.71,61.3,13.27,7.15,0.68,90.42,-0.062,0.78,0,0,0,0,0,0,0,0,0,0,0,0,0,0,90.4,8,0,1,6.65,0,0,8,90.4,-0.2502,-0.0068,0.9682,8,90.4,0,0,0,0,0,0,3,0,0,0,69,0,0,0,90.4,1,0,0.015,0,0,3,0,0,0,10,2.989,0,0,1,1,0,0,VALID,0,0,0,0,0,1,0,0,0,0,0,0,0,0,0,0,0,0,0,0,343.56,447.73,2,0,0.08,0.08,441,14.29,0.08,0.06,30.2,FLYING,CF1-J,0:/Integrated Flight Computer/aircraft/cf1_j_cfg.ks (inferred preloaded)
30.62,TAKEOFF,TO_CLIMB,114.84,80,-34.84,65.17,13.61,7.14,0.57,90.41,-0.061,0.78,0,0,0,0,0,0,0,0,0,0,0,0,0,0,90.4,8,0,1,6.76,0,0,8,90.4,-0.2503,-0.0068,0.9682,8,90.4,0,0,0,0,0,0,3,0,0,0,69,0,0,0,90.4,1,0,0.014,0,0,3,0,0,0,10,2.989,0,0,1,1,0,0,VALID,0,0,0,0,0,1,0,0,0,0,0,0,0,0,0,0,0,0,0,0,342.88,446.71,2,0,0.08,0.08,445,14.29,0.08,0.06,30.48,FLYING,CF1-J,0:/Integrated Flight Computer/aircraft/cf1_j_cfg.ks (inferred preloaded)
30.9,TAKEOFF,TO_CLIMB,115.95,80,-35.95,69.08,13.95,7.13,0.47,90.41,-0.057,0.78,0,0,0,0,0,0,0,0,0,0,0,0,0,0,90.4,8,0,1,6.86,0,0,8,90.4,-0.2503,-0.0068,0.9681,8,90.4,0,0,0,0,0,0,3,0,0,0,69,0,0,0,90.4,1,0,0.012,0,0,3,0,0,0,10,2.989,0,0,1,1,0,0,VALID,0,0,0,0,0,1,0,0,0,0,0,0,0,0,0,0,0,0,0,0,342.2,445.71,2,0,0.08,0.08,449,14.29,0.08,0.06,30.76,FLYING,CF1-J,0:/Integrated Flight Computer/aircraft/cf1_j_cfg.ks (inferred preloaded)
31.18,TAKEOFF,TO_CLIMB,117.06,80,-37.06,73.13,14.27,7.12,0.36,90.41,-0.055,0.78,0,0,0,0,0,0,0,0,0,0,0,0,0,0,90.4,8,0,1,6.95,0,0,8,90.4,-0.2504,-0.0068,0.9681,8,90.4,0,0,0,0,0,0,3,0,0,0,69,0,0,0,90.4,1,0,0.011,0,0,3,0,0,0,10,2.989,0,0,1,1,0,0,VALID,0,0,0,0,0,1,0,0,0,0,0,0,0,0,0,0,0,0,0,0,341.52,444.7,2,0,0.08,0.08,453,14.29,0.08,0.06,31.04,FLYING,CF1-J,0:/Integrated Flight Computer/aircraft/cf1_j_cfg.ks (inferred preloaded)
31.46,TAKEOFF,TO_CLIMB,118.16,80,-38.16,77.26,14.59,7.11,0.26,90.41,-0.054,0.78,0,0,0,0,0,0,0,0,0,0,0,0,0,0,90.4,8,0,1,7.04,0,0,8,90.4,-0.2504,-0.0068,0.9681,8,90.4,0,0,0,0,0,0,3,0,0,0,69,0,0,0,90.4,1,0,0.01,0,0,3,0,0,0,10,2.989,0,0,1,1,0,0,VALID,0,0,0,0,0,1,0,0,0,0,0,0,0,0,0,0,0,0,0,0,340.84,443.7,2,0,0.08,0.08,457,14.29,0.08,0.06,31.32,FLYING,CF1-J,0:/Integrated Flight Computer/aircraft/cf1_j_cfg.ks (inferred preloaded)
31.74,TAKEOFF,TO_CLIMB,119.25,80,-39.25,81.49,14.9,7.1,0.17,90.41,-0.051,0.78,0,0,0,0,0,0,0,0,0,0,0,0,0,0,90.4,8,0,1,7.12,0,0,8,90.4,-0.2505,-0.0068,0.9681,8,90.4,0,0,0,0,0,0,3,0,0,0,69,0,0,0,90.4,1,0,0.009,0,0,3,0,0,0,10,2.989,0,0,1,1,0,0,VALID,0,0,0,0,0,1,0,0,0,0,0,0,0,0,0,0,0,0,0,0,340.16,442.71,2,0,0.08,0.08,461,14.29,0.08,0.06,31.6,FLYING,CF1-J,0:/Integrated Flight Computer/aircraft/cf1_j_cfg.ks (inferred preloaded)
32.02,TAKEOFF,TO_CLIMB,120.32,80,-40.32,85.79,15.2,7.09,0.08,90.41,-0.048,0.78,0,0,0,0,0,0,0,0,0,0,0,0,0,0,90.4,8,0,1,7.2,0,0,8,90.4,-0.2505,-0.0068,0.9681,8,90.4,0,0,0,0,0,0,3,0,0,0,69,0,0,0,90.4,1,0,0.008,0,0,3,0,0,0,10,2.989,0,0,1,1,0,0,VALID,0,0,0,0,0,1,0,0,0,0,0,0,0,0,0,0,0,0,0,0,339.49,441.72,2,0,0.08,0.08,465,14.29,0.08,0.06,31.88,FLYING,CF1-J,0:/Integrated Flight Computer/aircraft/cf1_j_cfg.ks (inferred preloaded)
32.3,TAKEOFF,TO_CLIMB,121.39,80,-41.39,90.18,15.5,7.07,-0.01,90.41,-0.046,0.78,0,0,0,0,0,0,0,0,0,0,0,0,0,0,90.4,8,0,1,7.28,0,0,8,90.4,-0.2506,-0.0068,0.9681,8,90.4,0,0,0,0,0,0,3,0,0,0,69,0,0,0,90.4,1,0,0.007,0,0,3,0,0,0,10,2.989,0,0,1,1,0,0,VALID,0,0,0,0,0,1,0,0,0,0,0,0,0,0,0,0,0,0,0,0,338.82,440.73,2,0,0.08,0.08,469,14.29,0.08,0.06,32.16,FLYING,CF1-J,0:/Integrated Flight Computer/aircraft/cf1_j_cfg.ks (inferred preloaded)
32.58,TAKEOFF,TO_CLIMB,122.45,80,-42.45,94.65,15.78,7.06,-0.09,90.41,-0.043,0.78,0,0,0,0,0,0,0,0,0,0,0,0,0,0,90.4,8,0,1,7.35,0,0,8,90.4,-0.2506,-0.0068,0.9681,8,90.4,0,0,0,0,0,0,3,0,0,0,69,0,0,0,90.4,1,0,0.006,0,0,3,0,0,0,10,2.989,0,0,1,1,0,0,VALID,0,0,0,0,0,1,0,0,0,0,0,0,0,0,0,0,0,0,0,0,338.15,439.76,2,0,0.08,0.08,473,14.29,0.08,0.06,32.44,FLYING,CF1-J,0:/Integrated Flight Computer/aircraft/cf1_j_cfg.ks (inferred preloaded)
32.86,TAKEOFF,TO_CLIMB,123.5,80,-43.5,99.2,16.06,7.04,-0.18,90.41,-0.041,0.78,0,0,0,0,0,0,0,0,0,0,0,0,0,0,90.4,8,0,1,7.41,0,0,8,90.4,-0.2507,-0.0068,0.968,8,90.4,0,0,0,0,0,0,3,0,0,0,69,0,0,0,90.4,1,0,0.005,0,0,3,0,0,0,10,2.989,0,0,1,1,0,0,VALID,0,0,0,0,0,1,0,0,0,0,0,0,0,0,0,0,0,0,0,0,337.48,438.78,2,0,0.08,0.08,477,14.29,0.08,0.06,32.72,FLYING,CF1-J,0:/Integrated Flight Computer/aircraft/cf1_j_cfg.ks (inferred preloaded)
33.14,TAKEOFF,TO_CLIMB,124.55,80,-44.55,103.82,16.34,7.03,-0.25,90.4,-0.039,0.78,0,0,0,0,0,0,0,0,0,0,0,0,0,0,90.4,8,0,1,7.47,0,0,8,90.4,-0.2508,-0.0068,0.968,8,90.4,0,0,0,0,0,0,3,0,0,0,69,0,0,0,90.4,1,0,0.004,0,0,3,0,0,0,10,2.989,0,0,1,1,0,0,VALID,0,0,0,0,0,1,0,0,0,0,0,0,0,0,0,0,0,0,0,0,336.82,437.82,2,0,0.08,0.08,481,14.29,0.08,0.06,33,FLYING,CF1-J,0:/Integrated Flight Computer/aircraft/cf1_j_cfg.ks (inferred preloaded)
33.42,TAKEOFF,TO_CLIMB,125.58,80,-45.58,108.52,16.6,7.01,-0.33,90.4,-0.035,0.78,0,0,0,0,0,0,0,0,0,0,0,0,0,0,90.4,8,0,1,7.53,0,0,8,90.4,-0.2508,-0.0068,0.968,8,90.4,0,0,0,0,0,0,3,0,0,0,69,0,0,0,90.4,1,0,0.004,0,0,3,0,0,0,10,2.989,0,0,1,1,0,0,VALID,0,0,0,0,0,1,0,0,0,0,0,0,0,0,0,0,0,0,0,0,336.16,436.86,2,0,0.08,0.08,485,14.29,0.08,0.06,33.28,FLYING,CF1-J,0:/Integrated Flight Computer/aircraft/cf1_j_cfg.ks (inferred preloaded)
33.7,TAKEOFF,TO_CLIMB,126.6,80,-46.6,113.28,16.86,6.99,-0.4,90.4,-0.032,0.78,0,0,0,0,0,0,0,0,0,0,0,0,0,0,90.4,8,0,1,7.58,0,0,8,90.4,-0.2509,-0.0068,0.968,8,90.4,0,0,0,0,0,0,3,0,0,0,69,0,0,0,90.4,1,0,0.003,0,0,3,0,0,0,10,2.989,0,0,1,1,0,0,VALID,0,0,0,0,0,1,0,0,0,0,0,0,0,0,0,0,0,0,0,0,335.5,435.9,2,0,0.08,0.08,489,14.29,0.08,0.06,33.56,FLYING,CF1-J,0:/Integrated Flight Computer/aircraft/cf1_j_cfg.ks (inferred preloaded)
33.98,TAKEOFF,TO_CLIMB,127.62,80,-47.62,118.12,17.11,6.97,-0.47,90.4,-0.03,0.78,0,0,0,0,0,0,0,0,0,0,0,0,0,0,90.4,8,0,1,7.63,0,0,8,90.4,-0.2509,-0.0068,0.968,8,90.4,0,0,0,0,0,0,3,0,0,0,69,0,0,0,90.4,1,0,0.002,0,0,3,0,0,0,10,2.989,0,0,1,1,0,0,VALID,0,0,0,0,0,1,0,0,0,0,0,0,0,0,0,0,0,0,0,0,334.85,434.95,2,0,0.08,0.08,493,14.29,0.08,0.06,33.84,FLYING,CF1-J,0:/Integrated Flight Computer/aircraft/cf1_j_cfg.ks (inferred preloaded)
34.26,TAKEOFF,TO_CLIMB,128.63,80,-48.63,123.02,17.34,6.94,-0.55,90.4,-0.028,0.78,0,0,0,0,0,0,0,0,0,0,0,0,0,0,90.4,8,0,1,7.68,0,0,8,90.4,-0.251,-0.0068,0.968,8,90.4,0,0,0,0,0,0,3,0,0,0,69,0,0,0,90.4,1,0,0.002,0,0,3,0,0,0,10,2.989,0,0,1,1,0,0,VALID,0,0,0,0,0,1,0,0,0,0,0,0,0,0,0,0,0,0,0,0,334.2,434.01,2,0,0.08,0.08,497,14.29,0.08,0.06,34.12,FLYING,CF1-J,0:/Integrated Flight Computer/aircraft/cf1_j_cfg.ks (inferred preloaded)
34.54,TAKEOFF,TO_CLIMB,129.62,80,-49.62,127.99,17.57,6.91,-0.62,90.4,-0.025,0.78,0,0,0,0,0,0,0,0,0,0,0,0,0,0,90.4,8,0,1,7.72,0,0,8,90.4,-0.251,-0.0068,0.968,8,90.4,0,0,0,0,0,0,3,0,0,0,69,0,0,0,90.4,1,0,0.002,0,0,3,0,0,0,10,2.989,0,0,1,1,0,0,VALID,0,0,0,0,0,1,0,0,0,0,0,0,0,0,0,0,0,0,0,0,333.55,433.07,2,0,0.08,0.08,501,14.29,0.08,0.06,34.4,FLYING,CF1-J,0:/Integrated Flight Computer/aircraft/cf1_j_cfg.ks (inferred preloaded)
34.82,TAKEOFF,TO_CLIMB,130.62,80,-50.62,133.01,17.79,6.88,-0.68,90.4,-0.024,0.78,0,0,0,0,0,0,0,0,0,0,0,0,0,0,90.4,8,0,1,7.76,0,0,8,90.4,-0.2511,-0.0068,0.9679,8,90.4,0,0,0,0,0,0,3,0,0,0,69,0,0,0,90.4,1,0,0.001,0,0,3,0,0,0,10,2.989,0,0,1,1,0,0,VALID,0,0,0,0,0,1,0,0,0,0,0,0,0,0,0,0,0,0,0,0,332.9,432.14,2,0,0.08,0.08,505,14.29,0.08,0.06,34.68,FLYING,CF1-J,0:/Integrated Flight Computer/aircraft/cf1_j_cfg.ks (inferred preloaded)
35.1,TAKEOFF,TO_CLIMB,131.6,80,-51.6,138.1,18,6.85,-0.74,90.4,-0.022,0.78,0,0,0,0,0,0,0,0,0,0,0,0,0,0,90.4,8,0,1,7.79,0,0,8,90.4,-0.2512,-0.0068,0.9679,8,90.4,0,0,0,0,0,0,3,0,0,0,69,0,0,0,90.4,1,0,0.001,0,0,3,0,0,0,10,2.989,0,0,1,1,0,0,VALID,0,0,0,0,0,1,0,0,0,0,0,0,0,0,0,0,0,0,0,0,332.26,431.22,2,0,0.08,0.08,509,14.29,0.08,0.06,34.96,FLYING,CF1-J,0:/Integrated Flight Computer/aircraft/cf1_j_cfg.ks (inferred preloaded)
35.38,TAKEOFF,TO_CLIMB,132.58,80,-52.58,143.23,18.2,6.82,-0.8,90.4,-0.022,0.78,0,0,0,0,0,0,0,0,0,0,0,0,0,0,90.4,8,0,1,7.82,0,0,8,90.4,-0.2512,-0.0068,0.9679,8,90.4,0,0,0,0,0,0,3,0,0,0,69,0,0,0,90.4,1,0,0,0,0,3,0,0,0,10,2.989,0,0,1,1,0,0,VALID,0,0,0,0,0,1,0,0,0,0,0,0,0,0,0,0,0,0,0,0,331.62,430.3,2,0,0.08,0.08,513,14.29,0.08,0.06,35.24,FLYING,CF1-J,0:/Integrated Flight Computer/aircraft/cf1_j_cfg.ks (inferred preloaded)
35.66,TAKEOFF,TO_CLIMB,133.54,80,-53.54,148.43,18.4,6.79,-0.86,90.4,-0.02,0.78,0,0,0,0,0,0,0,0,0,0,0,0,0,0,90.4,8,0,1,7.85,0,0,8,90.4,-0.2513,-0.0068,0.9679,8,90.4,0,0,0,0,0,0,3,0,0,0,69,0,0,0,90.4,1,0,0,0,0,3,0,0,0,10,2.989,0,0,1,1,0,0,VALID,0,0,0,0,0,1,0,0,0,0,0,0,0,0,0,0,0,0,0,0,330.99,429.39,2,0,0.08,0.08,517,14.29,0.08,0.06,35.52,FLYING,CF1-J,0:/Integrated Flight Computer/aircraft/cf1_j_cfg.ks (inferred preloaded)
35.94,TAKEOFF,TO_CLIMB,134.5,80,-54.5,153.69,18.59,6.76,-0.91,90.4,-0.018,0.78,0,0,0,0,0,0,0,0,0,0,0,0,0,0,90.4,8,0,1,7.87,0,0,8,90.4,-0.2514,-0.0068,0.9679,8,90.4,0,0,0,0,0,0,3,0,0,0,69,0,0,0,90.4,1,0,0,0,0,3,0,0,0,10,2.989,0,0,1,1,0,0,VALID,0,0,0,0,0,1,0,0,0,0,0,0,0,0,0,0,0,0,0,0,330.36,428.48,2,0,0.08,0.08,521,14.29,0.08,0.06,35.8,FLYING,CF1-J,0:/Integrated Flight Computer/aircraft/cf1_j_cfg.ks (inferred preloaded)
36.22,TAKEOFF,TO_CLIMB,135.46,80,-55.46,158.97,18.78,6.73,-0.97,90.4,-0.017,0.78,0,0,0,0,0,0,0,0,0,0,0,0,0,0,90.4,8,0,1,7.89,0,0,8,90.4,-0.2514,-0.0068,0.9679,8,90.4,0,0,0,0,0,0,3,0,0,0,69,0,0,0,90.4,1,0,0,0,0,3,0,0,0,10,2.989,0,0,1,1,0,0,VALID,0,0,0,0,0,1,0,0,0,0,0,0,0,0,0,0,0,0,0,0,329.73,427.59,2,0,0.08,0.08,525,14.29,0.08,0.06,36.08,FLYING,CF1-J,0:/Integrated Flight Computer/aircraft/cf1_j_cfg.ks (inferred preloaded)
36.5,TAKEOFF,TO_CLIMB,136.4,80,-56.4,164.34,18.96,6.71,-1.02,90.4,-0.016,0.78,0,0,0,0,0,0,0,0,0,0,0,0,0,0,90.4,8,0,1,7.91,0,0,8,90.4,-0.2515,-0.0068,0.9678,8,90.4,0,0,0,0,0,0,3,0,0,0,69,0,0,0,90.4,1,0,-0.001,0,0,3,0,0,0,10,2.989,0,0,1,1,0,0,VALID,0,0,0,0,0,1,0,0,0,0,0,0,0,0,0,0,0,0,0,0,329.11,426.7,2,0,0.08,0.08,529,14.29,0.08,0.06,36.36,FLYING,CF1-J,0:/Integrated Flight Computer/aircraft/cf1_j_cfg.ks (inferred preloaded)
36.78,TAKEOFF,TO_CLIMB,137.34,80,-57.34,169.76,19.14,6.68,-1.06,90.4,-0.013,0.78,0,0,0,0,0,0,0,0,0,0,0,0,0,0,90.4,8,0,1,7.93,0,0,8,90.4,-0.2515,-0.0068,0.9678,8,90.4,0,0,0,0,0,0,3,0,0,0,69,0,0,0,90.4,1,0,-0.001,0,0,3,0,0,0,10,2.989,0,0,1,1,0,0,VALID,0,0,0,0,0,1,0,0,0,0,0,0,0,0,0,0,0,0,0,0,328.49,425.81,2,0,0.08,0.08,533,14.29,0.08,0.06,36.64,FLYING,CF1-J,0:/Integrated Flight Computer/aircraft/cf1_j_cfg.ks (inferred preloaded)
37.06,TAKEOFF,TO_CLIMB,138.27,80,-58.27,175.17,19.31,6.65,-1.11,90.4,-0.011,0.78,0,0,0,0,0,0,0,0,0,0,0,0,0,0,90.4,8,0,1,7.95,0,0,8,90.4,-0.2516,-0.0068,0.9678,8,90.4,0,0,0,0,0,0,3,0,0,0,69,0,0,0,90.4,1,0,-0.001,0,0,3,0,0,0,10,2.989,0,0,1,1,0,0,VALID,0,0,0,0,0,1,0,0,0,0,0,0,0,0,0,0,0,0,0,0,327.87,424.94,2,0,0.08,0.08,537,14.29,0.08,0.06,36.92,FLYING,CF1-J,0:/Integrated Flight Computer/aircraft/cf1_j_cfg.ks (inferred preloaded)
37.34,TAKEOFF,TO_CLIMB,139.19,80,-59.19,180.67,19.49,6.62,-1.15,90.4,-0.011,0.78,0,0,0,0,0,0,0,0,0,0,0,0,0,0,90.4,8,0,1,7.97,0,0,8,90.4,-0.2517,-0.0068,0.9678,8,90.4,0,0,0,0,0,0,3,0,0,0,69,0,0,0,90.4,1,0,-0.001,0,0,3,0,0,0,10,2.989,0,0,1,1,0,0,VALID,0,0,0,0,0,1,0,0,0,0,0,0,0,0,0,0,0,0,0,0,327.26,424.07,2,0,0.08,0.08,541,14.29,0.08,0.06,37.2,FLYING,CF1-J,0:/Integrated Flight Computer/aircraft/cf1_j_cfg.ks (inferred preloaded)
37.62,TAKEOFF,TO_CLIMB,140.11,80,-60.11,186.22,19.65,6.6,-1.2,90.4,-0.009,0.78,0,0,0,0,0,0,0,0,0,0,0,0,0,0,90.4,8,0,1,7.99,0,0,8,90.4,-0.2517,-0.0068,0.9678,8,90.4,0,0,0,0,0,0,3,0,0,0,69,0,0,0,90.4,1,0,-0.001,0,0,3,0,0,0,10,2.989,0,0,1,1,0,0,VALID,0,0,0,0,0,1,0,0,0,0,0,0,0,0,0,0,0,0,0,0,326.65,423.2,2,0,0.08,0.08,545,14.29,0.08,0.06,37.48,FLYING,CF1-J,0:/Integrated Flight Computer/aircraft/cf1_j_cfg.ks (inferred preloaded)
37.9,TAKEOFF,TO_CLIMB,141.02,80,-61.02,191.76,19.82,6.57,-1.24,90.4,-0.008,0.78,0,0,0,0,0,0,0,0,0,0,0,0,0,0,90.4,8,0,1,8,0,0,8,90.4,-0.2518,-0.0068,0.9678,8,90.4,0,0,0,0,0,0,3,0,0,0,69,0,0,0,90.4,1,0,-0.001,0,0,3,0,0,0,10,2.989,0,0,1,1,0,0,VALID,0,0,0,0,0,1,0,0,0,0,0,0,0,0,0,0,0,0,0,0,326.05,422.35,2,0,0.08,0.08,549,14.29,0.08,0.06,37.76,FLYING,CF1-J,0:/Integrated Flight Computer/aircraft/cf1_j_cfg.ks (inferred preloaded)
38.18,TAKEOFF,TO_CLIMB,141.92,80,-61.92,197.39,19.98,6.54,-1.28,90.4,-0.008,0.78,0,0,0,0,0,0,0,0,0,0,0,0,0,0,90.4,8,0,1,8.01,0,0,8,90.4,-0.2519,-0.0068,0.9677,8,90.4,0,0,0,0,0,0,3,0,0,0,69,0,0,0,90.4,1,0,-0.001,0,0,3,0,0,0,10,2.989,0,0,1,1,0,0,VALID,0,0,0,0,0,1,0,0,0,0,0,0,0,0,0,0,0,0,0,0,325.45,421.5,2,0,0.08,0.08,553,14.29,0.08,0.06,38.04,FLYING,CF1-J,0:/Integrated Flight Computer/aircraft/cf1_j_cfg.ks (inferred preloaded)
38.46,TAKEOFF,TO_CLIMB,142.81,80,-62.81,203.06,20.14,6.52,-1.32,90.4,-0.007,0.78,0,0,0,0,0,0,0,0,0,0,0,0,0,0,90.4,8,0,1,8.03,0,0,8,90.4,-0.2519,-0.0068,0.9677,8,90.4,0,0,0,0,0,0,3,0,0,0,69,0,0,0,90.4,1,0,-0.001,0,0,3,0,0,0,10,2.989,0,0,1,1,0,0,VALID,0,0,0,0,0,1,0,0,0,0,0,0,0,0,0,0,0,0,0,0,324.86,420.65,2,0,0.08,0.08,557,14.29,0.08,0.06,38.32,FLYING,CF1-J,0:/Integrated Flight Computer/aircraft/cf1_j_cfg.ks (inferred preloaded)
