t_s,phase,subphase,ias_ms,vapp_ms,spd_err_ms,agl_m,vs_ms,pitch_deg,aoa_deg,hdg_deg,bank_deg,thr_cmd,thr_cur,thr_intg,at_gain,at_tau_s,at_a_up,at_a_dn,at_kp_thr,at_ki_spd,at_thr_slew,as_cmd_deg,as_cap_deg,as_raw_deg,as_spd_err_ms,as_active,aa_hdg_cmd_deg,aa_fpa_cmd_deg,aa_fbw,aa_dir,actual_fpa_deg,ftf_hdg_err_deg,ftf_fix_idx,kos_steer_pit_deg,kos_steer_hdg_deg,aa_dir_vx,aa_dir_vy,aa_dir_vz,aa_dir_pitch_deg,aa_dir_hdg_deg,ils_loc_m,ils_gs_m,ils_dist_km,loc_corr_deg,gs_corr_deg,gs_latched,active_gs_ang_deg,ils_intercept_alt_m,d_gs_ms,fpa_preclamped_deg,gs_nom_alt_m,flare_fpa_cmd,flare_tgt_vs,flare_frac,steer_hdg_deg,steer_blend,ro_loc_corr_deg,ro_hdg_err_deg,ro_yaw_tgt,ro_yaw_scale,ro_yaw_gate,yaw_cmd,roll_cmd,pitch_cmd,ro_pitch_tgt_deg,ro_pitch_err_deg,ro_pitch_ff,ro_roll_assist,flaps_cur,flaps_tgt,asc_j_ab,asc_j_rk,asc_validity,asc_q_pa,asc_q_raw_pa,asc_mach,asc_apo_m,asc_drag_n,asc_w_prop,asc_edot_aero,asc_edot_orb,asc_pitch_bias,asc_blend,asc_spooling,asc_ab_thr_ratio,asc_ab_t_now,asc_ab_t_avail,asc_ab_ign_on,asc_ab_flameouts,asc_rk_t_now,asc_rk_t_avail,asc_rk_ign_on,asc_rk_flameouts,ship_thrust,ship_avail_thrust,ship_ign_on,ship_flameouts,ifc_raw_dt_s,ifc_dt_s,ifc_loop_n,ifc_hz_est,ifc_raw_dt_max_s,ifc_raw_dt_min_s,phase_el_s,status,craft_name,cfg_file
0.26,APPROACH,FLY_TO_FIX,140.71,70.14,-70.57,1469.02,-18.16,-7.81,-1.13,269.25,3.087,0,0,0,1,0.6,0.9,0.75,0.35,0.0168,0.4,4.5,33.795,33.795,70.541,1,280.66,4.807,1,0,-7.21,11.41,0,0,90,0,0,0,0,0,0,0,50.429,0,0,0,3,0,0,0,2717.14,0,0,0,269.16,0,0,0,0,0,0,0,0,0,0,0,0,0,0,0,0,0,VALID,0,0,0,0,0,1,0,0,0,0,0,0,0,0,0,0,0,0,0,0,35.62,337.83,2,0,0.18,0.18,1,3.03,0.18,0.02,0.26,FLYING,CF1-J,0:/Integrated Flight Computer/aircraft/cf1_j_cfg.ks (inferred preloaded)
0.56,APPROACH,FLY_TO_FIX,141.12,70.42,-70.71,1463.54,-19.22,-6.94,0.24,269.28,3.706,0,0,0,1,0.6,1.547,0.75,0.35,0.0168,0.4,13,33.671,33.671,70.68,1,280.68,5,0,0,-7.74,11.4,0,5,280.68,0,0,0,0,0,0,0,50.382,0,0,0,3,0,0,0,2714.71,0,0,0,269.16,0,0,0,0,0,0,0,0,0,0,0,0,0,0,0,0,0,VALID,0,0,0,0,0,1,0,0,0,0,0,0,0,0,0,0,0,0,0,0,33.05,337.89,2,0,0.08,0.08,4,10,0.18,0.08,0.56,FLYING,CF1-J,0:/Integrated Flight Computer/aircraft/cf1_j_cfg.ks (inferred preloaded)
0.84,APPROACH,FLY_TO_FIX,141.38,70.64,-70.74,1458.53,-18.32,-5.09,1.78,269.61,6.275,0,0,0,1,0.6,2.412,0.75,0.35,0.0168,0.4,20,33.589,33.589,70.729,1,280.71,4.998,0,0,-7.47,11.09,0,5,280.7,0,0,0,0,0,0,0,50.339,0,0,0,3,0,0,0,2712.45,0,0,0,269.16,0,0,0,0,0,0,0,0,0,0,0,0,0,0,0,0,0,VALID,0,0,0,0,0,1,0,0,0,0,0,0,0,0,0,0,0,0,0,0,30.82,338.01,2,0,0.1,0.1,7,10.71,0.1,0.08,0.84,FLYING,CF1-J,0:/Integrated Flight Computer/aircraft/cf1_j_cfg.ks (inferred preloaded)
1.1,APPROACH,FLY_TO_FIX,141.48,70.85,-70.64,1454.02,-17.08,-4.56,1.85,270.04,10.11,0,0,0,1,0.6,3.086,0.75,0.35,0.0168,0.4,26.5,33.557,33.557,70.63,1,280.73,4.63,0,0,-6.95,10.69,0,4.73,280.72,0,0,0,0,0,0,0,50.299,0,0,0,3,0,0,0,2710.34,0,0,0,269.16,0,0,0,0,0,0,0,0,0,0,0,0,0,0,0,0,0,VALID,0,0,0,0,0,1,0,0,0,0,0,0,0,0,0,0,0,0,0,0,28.89,338.17,2,0,0.08,0.08,10,11.54,0.1,0.08,1.1,FLYING,CF1-J,0:/Integrated Flight Computer/aircraft/cf1_j_cfg.ks (inferred preloaded)
1.38,APPROACH,FLY_TO_FIX,141.58,71.07,-70.51,1449.54,-15.64,-3.98,1.95,270.59,14.167,0,0,0,1,0.6,3.611,0.75,0.35,0.0168,0.4,33.5,33.528,33.528,70.501,1,280.75,4.233,0,0,-6.39,10.16,0,4.39,280.74,0,0,0,0,0,0,0,50.256,0,0,0,3,0,0,0,2708.07,0,0,0,269.16,0,0,0,0,0,0,0,0,0,0,0,0,0,0,0,0,0,VALID,0,0,0,0,0,1,0,0,0,0,0,0,0,0,0,0,0,0,0,0,26.94,338.34,2,0,0.1,0.1,13,10.71,0.1,0.08,1.38,FLYING,CF1-J,0:/Integrated Flight Computer/aircraft/cf1_j_cfg.ks (inferred preloaded)
1.64,APPROACH,FLY_TO_FIX,141.63,71.28,-70.35,1445.69,-14.54,-3.69,1.88,271,16.55,0,0,0,1,0.6,4.021,0.75,0.35,0.0168,0.4,33.511,33.511,33.511,70.35,1,280.77,3.916,0,0,-5.93,9.77,0,4.01,280.77,0,0,0,0,0,0,0,50.215,0,0,0,3,0,0,0,2705.96,0,0,0,269.16,0,0,0,0,0,0,0,0,0,0,0,0,0,0,0,0,0,VALID,0,0,0,0,0,1,0,0,0,0,0,0,0,0,0,0,0,0,0,0,25.25,338.49,2,0,0.08,0.08,16,11.54,0.1,0.08,1.64,FLYING,CF1-J,0:/Integrated Flight Computer/aircraft/cf1_j_cfg.ks (inferred preloaded)
1.92,APPROACH,FLY_TO_FIX,141.5,71.5,-69.99,1441.85,-13.33,-3.38,1.69,271.33,17.229,0,0,0,1,0.6,4.341,0.75,0.35,0.0168,0.4,33.545,33.545,33.545,70.014,1,280.79,3.563,0,0,-5.44,9.47,0,3.68,280.79,0,0,0,0,0,0,0,50.172,0,0,0,3,0,0,0,2703.68,0,0,0,269.16,0,0,0,0,0,0,0,0,0,0,0,0,0,0,0,0,0,VALID,0,0,0,0,0,1,0,0,0,0,0,0,0,0,0,0,0,0,0,0,23.56,338.72,2,0,0.1,0.1,19,10.71,0.1,0.08,1.92,FLYING,CF1-J,0:/Integrated Flight Computer/aircraft/cf1_j_cfg.ks (inferred preloaded)
2.18,APPROACH,FLY_TO_FIX,141.08,71.71,-69.37,1438.58,-12.3,-3.05,1.63,271.64,17.436,0,0,-5.553,1,0.6,4.5,0.75,0.35,0.0168,0.4,33.664,33.664,33.664,69.407,1,280.81,3.274,0,0,-5.04,9.17,0,3.37,280.81,0,0,0,0,0,0,0,50.132,0,0,0,3,0,0,0,2701.58,0,0,0,269.16,0,0,0,0,0,0,0,0,0,0,0,0,0,0,0,0,0,VALID,0,0,0,0,0,1,0,0,0,0,0,0,0,0,0,0,0,0,0,0,22.09,339.05,2,0,0.08,0.08,22,11.54,0.1,0.08,2.18,FLYING,CF1-J,0:/Integrated Flight Computer/aircraft/cf1_j_cfg.ks (inferred preloaded)
2.46,APPROACH,FLY_TO_FIX,140.57,71.94,-68.63,1435.32,-11.38,-2.79,1.56,271.98,17.512,0,0,-17.906,1,0.6,4.5,0.75,0.35,0.0168,0.4,33.819,33.819,33.819,68.668,1,280.83,3.005,0,0,-4.68,8.85,0,3.1,280.83,0,0,0,0,0,0,0,50.088,0,0,0,3,0,0,0,2699.31,0,0,0,269.16,0,0,0,0,0,0,0,0,0,0,0,0,0,0,0,0,0,VALID,0,0,0,0,0,1,0,0,0,0,0,0,0,0,0,0,0,0,0,0,20.62,339.42,2,0,0.1,0.1,25,10.71,0.1,0.08,2.46,FLYING,CF1-J,0:/Integrated Flight Computer/aircraft/cf1_j_cfg.ks (inferred preloaded)
2.72,APPROACH,FLY_TO_FIX,140.07,72.14,-67.92,1432.53,-10.48,-2.52,1.48,272.33,17.538,0,0,-20,1,0.6,4.5,0.75,0.35,0.0168,0.4,33.968,33.968,33.968,67.962,1,280.85,2.749,0,0,-4.33,8.52,0,2.82,280.85,0,0,0,0,0,0,0,50.049,0,0,0,3,0,0,0,2697.22,0,0,0,269.16,0,0,0,0,0,0,0,0,0,0,0,0,0,0,0,0,0,VALID,0,0,0,0,0,1,0,0,0,0,0,0,0,0,0,0,0,0,0,0,19.34,339.77,2,0,0.08,0.08,28,11.54,0.1,0.08,2.72,FLYING,CF1-J,0:/Integrated Flight Computer/aircraft/cf1_j_cfg.ks (inferred preloaded)
3,APPROACH,FLY_TO_FIX,139.51,72.37,-67.14,1429.76,-9.64,-2.22,1.48,272.73,17.507,0.0199,0,-20,1,0.6,4.5,0.771,0.35,0.0168,0.4,34.134,34.134,34.134,67.184,1,280.87,2.511,0,0,-4,8.14,0,2.61,280.86,0,0,0,0,0,0,0,50.006,0,0,0,3,0,0,0,2694.97,0,0,0,269.16,0,0,0,0,0,0,0,0,0,0,0,0,0,0,0,0,0,VALID,0,0,0,0,0,1,0,0,0,0,0,0,0,0,0,0,0,0,0,0,18.1,340.15,2,0,0.1,0.1,31,10.71,0.1,0.08,3,FLYING,CF1-J,0:/Integrated Flight Computer/aircraft/cf1_j_cfg.ks (inferred preloaded)
3.26,APPROACH,FLY_TO_FIX,138.98,72.58,-66.4,1427.38,-8.97,-2.05,1.41,273.07,17.376,0.0126,0,-20,1,0.6,4.5,0.92,0.35,0.0168,0.4,34.294,34.294,34.294,66.443,1,280.89,2.314,0,0,-3.73,7.82,0,2.37,280.88,0,0,0,0,0,0,0,49.966,0,0,0,3,0,0,0,2692.9,0,0,0,269.16,0,0,0,0,0,0,0,0,0,0,0,0,0,0,0,0,0,VALID,0,0,0,0,0,1,0,0,0,0,0,0,0,0,0,0,0,0,0,0,17.38,340.5,2,0,0.08,0.08,34,11.54,0.1,0.08,3.26,FLYING,CF1-J,0:/Integrated Flight Computer/aircraft/cf1_j_cfg.ks (inferred preloaded)
3.54,APPROACH,FLY_TO_FIX,138.39,72.8,-65.59,1425.01,-8.25,-1.86,1.31,273.43,17.132,0,0,-19.9,1,0.6,4.5,1.065,0.35,0.0168,0.4,34.471,34.471,34.471,65.631,1,280.9,2.103,0,0,-3.44,7.48,0,2.17,280.9,0,0,0,0,0,0,0,49.923,0,0,0,3,0,0,0,2690.67,0,0,0,269.16,0,0,0,0,0,0,0,0,0,0,0,0,0,0,0,0,0,VALID,0,0,0,0,0,1,0,0,0,0,0,0,0,0,0,0,0,0,0,0,16.39,340.87,2,0,0.1,0.1,37,10.71,0.1,0.08,3.54,FLYING,CF1-J,0:/Integrated Flight Computer/aircraft/cf1_j_cfg.ks (inferred preloaded)
3.8,APPROACH,FLY_TO_FIX,137.83,73.01,-64.82,1422.98,-7.65,-1.63,1.33,273.77,16.829,0,0,-19.603,1,0.6,4.5,1.203,0.35,0.0168,0.4,34.638,34.638,34.638,64.865,1,280.92,1.939,0,0,-3.21,7.15,0,2,280.91,0,0,0,0,0,0,0,49.884,0,0,0,3,0,0,0,2688.61,0,0,0,269.16,0,0,0,0,0,0,0,0,0,0,0,0,0,0,0,0,0,VALID,0,0,0,0,0,1,0,0,0,0,0,0,0,0,0,0,0,0,0,0,15.37,341.22,2,0,0.08,0.08,40,11.54,0.1,0.08,3.8,FLYING,CF1-J,0:/Integrated Flight Computer/aircraft/cf1_j_cfg.ks (inferred preloaded)
4.08,APPROACH,FLY_TO_FIX,137.21,73.23,-63.98,1420.95,-7.11,-1.49,1.28,274.11,16.438,0,0,-19.31,1,0.6,4.5,1.333,0.35,0.0168,0.4,34.824,34.824,34.824,64.022,1,280.93,1.783,0,0,-3,6.83,0,1.83,280.93,0,0,0,0,0,0,0,49.842,0,0,0,3,0,0,0,2686.4,0,0,0,269.16,0,0,0,0,0,0,0,0,0,0,0,0,0,0,0,0,0,VALID,0,0,0,0,0,1,0,0,0,0,0,0,0,0,0,0,0,0,0,0,14.35,341.6,2,0,0.1,0.1,43,10.71,0.1,0.08,4.08,FLYING,CF1-J,0:/Integrated Flight Computer/aircraft/cf1_j_cfg.ks (inferred preloaded)
4.34,APPROACH,FLY_TO_FIX,136.62,73.44,-63.18,1419.2,-6.59,-1.36,1.2,274.41,16.028,0,0,-19.022,1,0.6,4.5,1.457,0.35,0.0168,0.4,35.001,35.001,35.001,63.223,1,280.95,1.629,0,0,-2.78,6.54,0,1.67,280.94,0,0,0,0,0,0,0,49.803,0,0,0,3,0,0,0,2684.36,0,0,0,269.16,0,0,0,0,0,0,0,0,0,0,0,0,0,0,0,0,0,VALID,0,0,0,0,0,1,0,0,0,0,0,0,0,0,0,0,0,0,0,0,13.45,341.96,2,0,0.08,0.08,46,11.54,0.1,0.08,4.34,FLYING,CF1-J,0:/Integrated Flight Computer/aircraft/cf1_j_cfg.ks (inferred preloaded)
4.62,APPROACH,FLY_TO_FIX,135.97,73.66,-62.3,1417.45,-6.1,-1.15,1.23,274.75,15.548,0,0,-18.738,1,0.6,4.5,1.573,0.35,0.0168,0.4,35.196,35.196,35.196,62.351,1,280.96,1.497,0,0,-2.6,6.21,0,1.56,280.96,0,0,0,0,0,0,0,49.761,0,0,0,3,0,0,0,2682.17,0,0,0,269.16,0,0,0,0,0,0,0,0,0,0,0,0,0,0,0,0,0,VALID,0,0,0,0,0,1,0,0,0,0,0,0,0,0,0,0,0,0,0,0,12.56,342.34,2,0,0.1,0.1,49,10.71,0.1,0.08,4.62,FLYING,CF1-J,0:/Integrated Flight Computer/aircraft/cf1_j_cfg.ks (inferred preloaded)
4.88,APPROACH,FLY_TO_FIX,135.35,73.87,-61.48,1415.94,-5.74,-1.06,1.2,275.03,15.075,0,0,-18.459,1,0.6,4.5,1.684,0.35,0.0168,0.4,35.382,35.382,35.382,61.523,1,280.97,1.39,0,0,-2.45,5.95,0,1.42,280.97,0,0,0,0,0,0,0,49.723,0,0,0,3,0,0,0,2680.14,0,0,0,269.16,0,0,0,0,0,0,0,0,0,0,0,0,0,0,0,0,0,VALID,0,0,0,0,0,1,0,0,0,0,0,0,0,0,0,0,0,0,0,0,11.78,342.7,2,0,0.08,0.08,52,11.54,0.1,0.08,4.88,FLYING,CF1-J,0:/Integrated Flight Computer/aircraft/cf1_j_cfg.ks (inferred preloaded)
5.16,APPROACH,FLY_TO_FIX,134.66,74.1,-60.57,1414.41,-5.31,-0.95,1.14,275.32,14.543,0,0,-18.183,1,0.6,4.5,1.789,0.35,0.0168,0.4,35.586,35.586,35.586,60.616,1,280.99,1.264,0,0,-2.27,5.66,0,1.3,280.98,0,0,0,0,0,0,0,49.681,0,0,0,3,0,0,0,2677.98,0,0,0,269.16,0,0,0,0,0,0,0,0,0,0,0,0,0,0,0,0,0,VALID,0,0,0,0,0,1,0,0,0,0,0,0,0,0,0,0,0,0,0,0,10.99,343.1,2,0,0.1,0.1,55,10.71,0.1,0.08,5.16,FLYING,CF1-J,0:/Integrated Flight Computer/aircraft/cf1_j_cfg.ks (inferred preloaded)
5.42,APPROACH,FLY_TO_FIX,134.02,74.3,-59.72,1413.1,-4.98,-0.8,1.17,275.6,14.034,0,0,-17.912,1,0.6,4.5,1.889,0.35,0.0168,0.4,35.779,35.779,35.779,59.765,1,281,1.174,0,0,-2.15,5.4,0,1.21,280.99,0,0,0,0,0,0,0,49.643,0,0,0,3,0,0,0,2675.98,0,0,0,269.16,0,0,0,0,0,0,0,0,0,0,0,0,0,0,0,0,0,VALID,0,0,0,0,0,1,0,0,0,0,0,0,0,0,0,0,0,0,0,0,10.31,343.47,2,0,0.08,0.08,58,11.54,0.1,0.08,5.42,FLYING,CF1-J,0:/Integrated Flight Computer/aircraft/cf1_j_cfg.ks (inferred preloaded)
5.7,APPROACH,FLY_TO_FIX,133.31,74.53,-58.78,1411.78,-4.64,-0.68,1.16,275.87,13.48,0,0,-17.644,1,0.6,4.5,1.984,0.35,0.0168,0.4,35.992,35.992,35.992,58.831,1,281.01,1.079,0,0,-2.01,5.13,0,1.11,281,0,0,0,0,0,0,0,49.602,0,0,0,3,0,0,0,2673.83,0,0,0,269.16,0,0,0,0,0,0,0,0,0,0,0,0,0,0,0,0,0,VALID,0,0,0,0,0,1,0,0,0,0,0,0,0,0,0,0,0,0,0,0,9.62,343.88,2,0,0.1,0.1,61,10.71,0.1,0.08,5.7,FLYING,CF1-J,0:/Integrated Flight Computer/aircraft/cf1_j_cfg.ks (inferred preloaded)
5.96,APPROACH,FLY_TO_FIX,132.63,74.74,-57.9,1410.63,-4.36,-0.57,1.16,276.12,12.963,0,0,-17.381,1,0.6,4.5,2.074,0.35,0.0168,0.4,36.194,36.194,36.194,57.951,1,281.02,0.998,0,0,-1.9,4.89,0,1.02,281.01,0,0,0,0,0,0,0,49.564,0,0,0,3,0,0,0,2671.85,0,0,0,269.16,0,0,0,0,0,0,0,0,0,0,0,0,0,0,0,0,0,VALID,0,0,0,0,0,1,0,0,0,0,0,0,0,0,0,0,0,0,0,0,9.03,344.26,2,0,0.08,0.08,64,11.54,0.1,0.08,5.96,FLYING,CF1-J,0:/Integrated Flight Computer/aircraft/cf1_j_cfg.ks (inferred preloaded)
6.24,APPROACH,FLY_TO_FIX,131.9,74.96,-56.94,1409.47,-4.07,-0.46,1.17,276.38,12.405,0,0,-17.122,1,0.6,4.5,2.161,0.35,0.0168,0.4,36.415,36.415,36.415,56.989,1,281.03,0.917,0,0,-1.78,4.65,0,0.95,281.02,0,0,0,0,0,0,0,49.524,0,0,0,3,0,0,0,2669.73,0,0,0,269.16,0,0,0,0,0,0,0,0,0,0,0,0,0,0,0,0,0,VALID,0,0,0,0,0,1,0,0,0,0,0,0,0,0,0,0,0,0,0,0,8.42,344.67,2,0,0.1,0.1,67,10.71,0.1,0.08,6.24,FLYING,CF1-J,0:/Integrated Flight Computer/aircraft/cf1_j_cfg.ks (inferred preloaded)
6.5,APPROACH,FLY_TO_FIX,131.2,75.17,-56.03,1408.46,-3.83,-0.36,1.18,276.61,11.89,0,0,-16.866,1,0.6,4.5,2.243,0.35,0.0168,0.4,36.624,36.624,36.624,56.084,1,281.04,0.848,0,0,-1.69,4.43,0,0.87,281.03,0,0,0,0,0,0,0,49.487,0,0,0,3,0,0,0,2667.77,0,0,0,269.16,0,0,0,0,0,0,0,0,0,0,0,0,0,0,0,0,0,VALID,0,0,0,0,0,1,0,0,0,0,0,0,0,0,0,0,0,0,0,0,7.9,345.07,2,0,0.08,0.08,70,11.54,0.1,0.08,6.5,FLYING,CF1-J,0:/Integrated Flight Computer/aircraft/cf1_j_cfg.ks (inferred preloaded)
6.78,APPROACH,FLY_TO_FIX,130.43,75.39,-55.04,1407.44,-3.59,-0.26,1.19,276.84,11.344,0,0,-16.614,1,0.6,4.5,2.323,0.35,0.0168,0.4,36.854,36.854,36.854,55.095,1,281.05,0.78,0,0,-1.59,4.21,0,0.81,281.04,0,0,0,0,0,0,0,49.447,0,0,0,3,0,0,0,2665.68,0,0,0,269.16,0,0,0,0,0,0,0,0,0,0,0,0,0,0,0,0,0,VALID,0,0,0,0,0,1,0,0,0,0,0,0,0,0,0,0,0,0,0,0,7.37,345.5,2,0,0.1,0.1,73,10.71,0.1,0.08,6.78,FLYING,CF1-J,0:/Integrated Flight Computer/aircraft/cf1_j_cfg.ks (inferred preloaded)
7.04,APPROACH,FLY_TO_FIX,129.71,75.6,-54.11,1406.55,-3.38,-0.17,1.21,277.05,10.848,0,0,-16.366,1,0.6,4.5,2.399,0.35,0.0168,0.4,37.07,37.07,37.07,54.165,1,281.05,0.722,0,0,-1.51,4,0,0.74,281.05,0,0,0,0,0,0,0,49.41,0,0,0,3,0,0,0,2663.74,0,0,0,269.16,0,0,0,0,0,0,0,0,0,0,0,0,0,0,0,0,0,VALID,0,0,0,0,0,1,0,0,0,0,0,0,0,0,0,0,0,0,0,0,6.92,345.9,2,0,0.08,0.08,76,11.54,0.1,0.08,7.04,FLYING,CF1-J,0:/Integrated Flight Computer/aircraft/cf1_j_cfg.ks (inferred preloaded)
7.32,APPROACH,FLY_TO_FIX,128.92,75.82,-53.09,1405.65,-3.17,-0.07,1.23,277.26,10.326,0,0,-16.122,1,0.6,4.5,2.473,0.35,0.0168,0.4,37.307,37.307,37.307,53.151,1,281.06,0.664,0,0,-1.42,3.8,0,0.69,281.06,0,0,0,0,0,0,0,49.37,0,0,0,3,0,0,0,2661.67,0,0,0,269.16,0,0,0,0,0,0,0,0,0,0,0,0,0,0,0,0,0,VALID,0,0,0,0,0,1,0,0,0,0,0,0,0,0,0,0,0,0,0,0,6.46,346.35,2,0,0.1,0.1,79,10.71,0.1,0.08,7.32,FLYING,CF1-J,0:/Integrated Flight Computer/aircraft/cf1_j_cfg.ks (inferred preloaded)
7.58,APPROACH,FLY_TO_FIX,128.17,76.03,-52.14,1404.86,-3,0.02,1.25,277.45,9.852,0,0,-15.882,1,0.6,4.5,2.543,0.35,0.0168,0.4,37.531,37.531,37.531,52.199,1,281.07,0.614,0,0,-1.35,3.62,0,0.63,281.07,0,0,0,0,0,0,0,49.334,0,0,0,3,0,0,0,2659.76,0,0,0,269.16,0,0,0,0,0,0,0,0,0,0,0,0,0,0,0,0,0,VALID,0,0,0,0,0,1,0,0,0,0,0,0,0,0,0,0,0,0,0,0,6.06,346.77,2,0,0.08,0.08,82,11.54,0.1,0.08,7.58,FLYING,CF1-J,0:/Integrated Flight Computer/aircraft/cf1_j_cfg.ks (inferred preloaded)
7.86,APPROACH,FLY_TO_FIX,127.36,76.26,-51.11,1404.06,-2.82,0.11,1.28,277.65,9.354,0,0,-15.644,1,0.6,4.5,2.611,0.35,0.0168,0.4,37.774,37.774,37.774,51.164,1,281.08,0.564,0,0,-1.28,3.43,0,0.58,281.07,0,0,0,0,0,0,0,49.295,0,0,0,3,0,0,0,2657.71,0,0,0,269.16,0,0,0,0,0,0,0,0,0,0,0,0,0,0,0,0,0,VALID,0,0,0,0,0,1,0,0,0,0,0,0,0,0,0,0,0,0,0,0,5.65,347.22,2,0,0.1,0.1,85,10.71,0.1,0.08,7.86,FLYING,CF1-J,0:/Integrated Flight Computer/aircraft/cf1_j_cfg.ks (inferred preloaded)
8.12,APPROACH,FLY_TO_FIX,126.6,76.46,-50.13,1403.36,-2.67,0.2,1.31,277.82,8.906,0,0,-15.411,1,0.6,4.5,2.676,0.35,0.0168,0.4,38.003,38.003,38.003,50.192,1,281.08,0.522,0,0,-1.22,3.26,0,0.54,281.08,0,0,0,0,0,0,0,49.259,0,0,0,3,0,0,0,2655.83,0,0,0,269.16,0,0,0,0,0,0,0,0,0,0,0,0,0,0,0,0,0,VALID,0,0,0,0,0,1,0,0,0,0,0,0,0,0,0,0,0,0,0,0,5.3,347.65,2,0,0.08,0.08,88,11.54,0.1,0.08,8.12,FLYING,CF1-J,0:/Integrated Flight Computer/aircraft/cf1_j_cfg.ks (inferred preloaded)
8.4,APPROACH,FLY_TO_FIX,125.76,76.69,-49.08,1402.65,-2.52,0.29,1.35,278,8.441,0,0,-15.181,1,0.6,4.5,2.738,0.35,0.0168,0.4,38.253,38.253,38.253,49.136,1,281.09,0.479,0,0,-1.15,3.09,0,0.5,281.09,0,0,0,0,0,0,0,49.22,0,0,0,3,0,0,0,2653.81,0,0,0,269.16,0,0,0,0,0,0,0,0,0,0,0,0,0,0,0,0,0,VALID,0,0,0,0,0,1,0,0,0,0,0,0,0,0,0,0,0,0,0,0,4.95,348.12,2,0,0.1,0.1,91,10.71,0.1,0.08,8.4,FLYING,CF1-J,0:/Integrated Flight Computer/aircraft/cf1_j_cfg.ks (inferred preloaded)
8.66,APPROACH,FLY_TO_FIX,124.98,76.9,-48.09,1402.03,-2.38,0.38,1.38,278.16,8.024,0,0,-14.954,1,0.6,4.5,2.798,0.35,0.0168,0.4,38.487,38.487,38.487,48.146,1,281.1,0.442,0,0,-1.1,2.94,0,0.45,281.09,0,0,0,0,0,0,0,49.185,0,0,0,3,0,0,0,2651.95,0,0,0,269.16,0,0,0,0,0,0,0,0,0,0,0,0,0,0,0,0,0,VALID,0,0,0,0,0,1,0,0,0,0,0,0,0,0,0,0,0,0,0,0,4.64,348.56,2,0,0.08,0.08,94,11.54,0.1,0.08,8.66,FLYING,CF1-J,0:/Integrated Flight Computer/aircraft/cf1_j_cfg.ks (inferred preloaded)
8.94,APPROACH,FLY_TO_FIX,124.13,77.12,-47.01,1401.4,-2.25,0.47,1.42,278.32,7.592,0,0,-14.731,1,0.6,4.5,2.855,0.35,0.0168,0.4,38.743,38.743,38.743,47.071,1,281.1,0.406,0,0,-1.05,2.78,0,0.42,281.1,0,0,0,0,0,0,0,49.147,0,0,0,3,0,0,0,2649.95,0,0,0,269.16,0,0,0,0,0,0,0,0,0,0,0,0,0,0,0,0,0,VALID,0,0,0,0,0,1,0,0,0,0,0,0,0,0,0,0,0,0,0,0,4.34,349.05,2,0,0.1,0.1,97,10.71,0.1,0.08,8.94,FLYING,CF1-J,0:/Integrated Flight Computer/aircraft/cf1_j_cfg.ks (inferred preloaded)
9.2,APPROACH,FLY_TO_FIX,123.33,77.33,-46,1400.84,-2.14,0.55,1.46,278.46,7.208,0,0,-14.511,1,0.6,4.5,2.909,0.35,0.0168,0.4,38.982,38.982,38.982,46.066,1,281.11,0.374,0,0,-1,2.65,0,0.38,281.1,0,0,0,0,0,0,0,49.112,0,0,0,3,0,0,0,2648.12,0,0,0,269.16,0,0,0,0,0,0,0,0,0,0,0,0,0,0,0,0,0,VALID,0,0,0,0,0,1,0,0,0,0,0,0,0,0,0,0,0,0,0,0,4.07,349.5,2,0,0.08,0.08,100,11.54,0.1,0.08,9.2,FLYING,CF1-J,0:/Integrated Flight Computer/aircraft/cf1_j_cfg.ks (inferred preloaded)
9.48,APPROACH,FLY_TO_FIX,122.47,77.55,-44.91,1400.27,-2.03,0.64,1.51,278.61,6.81,0,0,-14.295,1,0.6,4.5,2.961,0.35,0.0168,0.4,39.241,39.241,39.241,44.977,1,281.11,0.343,0,0,-0.95,2.51,0,0.35,281.11,0,0,0,0,0,0,0,49.074,0,0,0,3,0,0,0,2646.15,0,0,0,269.16,0,0,0,0,0,0,0,0,0,0,0,0,0,0,0,0,0,VALID,0,0,0,0,0,1,0,0,0,0,0,0,0,0,0,0,0,0,0,0,3.8,349.99,2,0,0.1,0.1,103,10.71,0.1,0.08,9.48,FLYING,CF1-J,0:/Integrated Flight Computer/aircraft/cf1_j_cfg.ks (inferred preloaded)
9.74,APPROACH,FLY_TO_FIX,121.66,77.76,-43.9,1399.77,-1.93,0.72,1.56,278.73,6.457,0,0,-14.081,1,0.6,4.5,3.01,0.35,0.0168,0.4,39.484,39.484,39.484,43.961,1,281.12,0.315,0,0,-0.91,2.38,0,0.32,281.12,0,0,0,0,0,0,0,49.039,0,0,0,3,0,0,0,2644.34,0,0,0,269.16,0,0,0,0,0,0,0,0,0,0,0,0,0,0,0,0,0,VALID,0,0,0,0,0,1,0,0,0,0,0,0,0,0,0,0,0,0,0,0,3.56,350.46,2,0,0.08,0.08,106,11.54,0.1,0.08,9.74,FLYING,CF1-J,0:/Integrated Flight Computer/aircraft/cf1_j_cfg.ks (inferred preloaded)
10.02,APPROACH,FLY_TO_FIX,120.78,77.98,-42.8,1399.26,-1.83,0.81,1.61,278.87,6.094,0,0,-13.871,1,0.6,4.5,3.056,0.35,0.0168,0.4,39.747,39.747,39.747,42.859,1,281.12,0.288,0,0,-0.87,2.26,0,0.3,281.12,0,0,0,0,0,0,0,49.003,0,0,0,3,0,0,0,2642.4,0,0,0,269.16,0,0,0,0,0,0,0,0,0,0,0,0,0,0,0,0,0,VALID,0,0,0,0,0,1,0,0,0,0,0,0,0,0,0,0,0,0,0,0,3.33,350.96,2,0,0.1,0.1,109,10.71,0.1,0.08,10.02,FLYING,CF1-J,0:/Integrated Flight Computer/aircraft/cf1_j_cfg.ks (inferred preloaded)
10.28,APPROACH,FLY_TO_FIX,119.96,78.19,-41.77,1398.81,-1.74,0.89,1.66,278.98,5.773,0,0,-13.664,1,0.6,4.5,3.1,0.35,0.0168,0.4,39.993,39.993,39.993,41.832,1,281.13,0.264,0,0,-0.84,2.14,0,0.27,281.12,0,0,0,0,0,0,0,48.968,0,0,0,3,0,0,0,2640.62,0,0,0,269.16,0,0,0,0,0,0,0,0,0,0,0,0,0,0,0,0,0,VALID,0,0,0,0,0,1,0,0,0,0,0,0,0,0,0,0,0,0,0,0,3.12,351.43,2,0,0.08,0.08,112,11.54,0.1,0.08,10.28,FLYING,CF1-J,0:/Integrated Flight Computer/aircraft/cf1_j_cfg.ks (inferred preloaded)
10.56,APPROACH,FLY_TO_FIX,119.07,78.42,-40.66,1398.35,-1.66,0.98,1.72,279.1,5.443,0,0,-13.46,1,0.6,4.5,3.141,0.35,0.0168,0.4,40.259,40.259,40.259,40.722,1,281.13,0.242,0,0,-0.8,2.03,0,0.25,281.13,0,0,0,0,0,0,0,48.932,0,0,0,3,0,0,0,2638.71,0,0,0,269.16,0,0,0,0,0,0,0,0,0,0,0,0,0,0,0,0,0,VALID,0,0,0,0,0,1,0,0,0,0,0,0,0,0,0,0,0,0,0,0,2.91,351.95,2,0,0.1,0.1,115,10.71,0.1,0.08,10.56,FLYING,CF1-J,0:/Integrated Flight Computer/aircraft/cf1_j_cfg.ks (inferred preloaded)
10.82,APPROACH,FLY_TO_FIX,118.25,78.62,-39.62,1397.94,-1.58,1.06,1.77,279.2,5.152,0,0,-13.259,1,0.6,4.5,3.18,0.35,0.0168,0.4,40.507,40.507,40.507,39.687,1,281.13,0.22,0,0,-0.77,1.93,0,0.23,281.13,0,0,0,0,0,0,0,48.898,0,0,0,3,0,0,0,2636.95,0,0,0,269.16,0,0,0,0,0,0,0,0,0,0,0,0,0,0,0,0,0,VALID,0,0,0,0,0,1,0,0,0,0,0,0,0,0,0,0,0,0,0,0,2.73,352.43,2,0,0.08,0.08,118,11.54,0.1,0.08,10.82,FLYING,CF1-J,0:/Integrated Flight Computer/aircraft/cf1_j_cfg.ks (inferred preloaded)
11.1,APPROACH,FLY_TO_FIX,117.36,78.85,-38.51,1397.52,-1.51,1.15,1.83,279.31,4.853,0,0,-13.061,1,0.6,4.5,3.215,0.35,0.0168,0.4,40.774,40.774,40.774,38.572,1,281.14,0.2,0,0,-0.74,1.83,0,0.21,281.14,0,0,0,0,0,0,0,48.862,0,0,0,3,0,0,0,2635.06,0,0,0,269.16,0,0,0,0,0,0,0,0,0,0,0,0,0,0,0,0,0,VALID,0,0,0,0,0,1,0,0,0,0,0,0,0,0,0,0,0,0,0,0,2.55,352.95,2,0,0.1,0.1,121,10.71,0.1,0.08,11.1,FLYING,CF1-J,0:/Integrated Flight Computer/aircraft/cf1_j_cfg.ks (inferred preloaded)
11.36,APPROACH,FLY_TO_FIX,116.53,79.06,-37.47,1397.15,-1.44,1.24,1.89,279.41,4.59,0,0,-12.867,1,0.6,4.5,3.248,0.35,0.0168,0.4,41.023,41.023,41.023,37.534,1,281.14,0.183,0,0,-0.72,1.74,0,0.19,281.14,0,0,0,0,0,0,0,48.829,0,0,0,3,0,0,0,2633.33,0,0,0,269.16,0,0,0,0,0,0,0,0,0,0,0,0,0,0,0,0,0,VALID,0,0,0,0,0,1,0,0,0,0,0,0,0,0,0,0,0,0,0,0,2.39,353.43,2,0,0.08,0.08,124,11.54,0.1,0.08,11.36,FLYING,CF1-J,0:/Integrated Flight Computer/aircraft/cf1_j_cfg.ks (inferred preloaded)
11.64,APPROACH,FLY_TO_FIX,115.63,79.28,-36.35,1396.77,-1.38,1.33,1.96,279.5,4.322,0,0,-12.674,1,0.6,4.5,3.277,0.35,0.0168,0.4,41.291,41.291,41.291,36.416,1,281.14,0.164,0,0,-0.69,1.64,0,0.17,281.14,0,0,0,0,0,0,0,48.794,0,0,0,3,0,0,0,2631.48,0,0,0,269.16,0,0,0,0,0,0,0,0,0,0,0,0,0,0,0,0,0,VALID,0,0,0,0,0,1,0,0,0,0,0,0,0,0,0,0,0,0,0,0,2.23,353.96,2,0,0.1,0.1,127,10.71,0.1,0.08,11.64,FLYING,CF1-J,0:/Integrated Flight Computer/aircraft/cf1_j_cfg.ks (inferred preloaded)
11.9,APPROACH,FLY_TO_FIX,114.8,79.49,-35.31,1396.43,-1.32,1.42,2.02,279.59,4.085,0,0,-12.485,1,0.6,4.5,3.304,0.35,0.0168,0.4,41.54,41.54,41.54,35.378,1,281.15,0.149,0,0,-0.67,1.56,0,0.15,281.15,0,0,0,0,0,0,0,48.761,0,0,0,3,0,0,0,2629.77,0,0,0,269.16,0,0,0,0,0,0,0,0,0,0,0,0,0,0,0,0,0,VALID,0,0,0,0,0,1,0,0,0,0,0,0,0,0,0,0,0,0,0,0,2.1,354.45,2,0,0.08,0.08,130,11.54,0.1,0.08,11.9,FLYING,CF1-J,0:/Integrated Flight Computer/aircraft/cf1_j_cfg.ks (inferred preloaded)
12.18,APPROACH,FLY_TO_FIX,113.91,79.71,-34.2,1396.09,-1.27,1.51,2.09,279.67,3.844,0,0,-12.299,1,0.6,4.5,3.327,0.35,0.0168,0.4,41.808,41.808,41.808,34.261,1,281.15,0.134,0,0,-0.64,1.48,0,0.14,281.15,0,0,0,0,0,0,0,48.727,0,0,0,3,0,0,0,2627.94,0,0,0,269.16,0,0,0,0,0,0,0,0,0,0,0,0,0,0,0,0,0,VALID,0,0,0,0,0,1,0,0,0,0,0,0,0,0,0,0,0,0,0,0,1.96,354.98,2,0,0.1,0.1,133,10.71,0.1,0.08,12.18,FLYING,CF1-J,0:/Integrated Flight Computer/aircraft/cf1_j_cfg.ks (inferred preloaded)
12.44,APPROACH,FLY_TO_FIX,113.08,79.92,-33.16,1395.78,-1.22,1.59,2.16,279.75,3.632,0,0,-12.115,1,0.6,4.5,3.348,0.35,0.0168,0.4,42.056,42.056,42.056,33.226,1,281.15,0.12,0,0,-0.62,1.4,0,0.13,281.15,0,0,0,0,0,0,0,48.694,0,0,0,3,0,0,0,2626.26,0,0,0,269.16,0,0,0,0,0,0,0,0,0,0,0,0,0,0,0,0,0,VALID,0,0,0,0,0,1,0,0,0,0,0,0,0,0,0,0,0,0,0,0,1.84,355.47,2,0,0.08,0.08,136,11.54,0.1,0.08,12.44,FLYING,CF1-J,0:/Integrated Flight Computer/aircraft/cf1_j_cfg.ks (inferred preloaded)
12.72,APPROACH,FLY_TO_FIX,112.19,80.14,-32.05,1395.46,-1.17,1.68,2.24,279.83,3.416,0,0,-11.935,1,0.6,4.5,3.365,0.35,0.0168,0.4,42.323,42.323,42.323,32.113,1,281.16,0.108,0,0,-0.6,1.33,0,0.11,281.15,0,0,0,0,0,0,0,48.66,0,0,0,3,0,0,0,2624.46,0,0,0,269.16,0,0,0,0,0,0,0,0,0,0,0,0,0,0,0,0,0,VALID,0,0,0,0,0,1,0,0,0,0,0,0,0,0,0,0,0,0,0,0,1.71,356,2,0,0.1,0.1,139,10.71,0.1,0.08,12.72,FLYING,CF1-J,0:/Integrated Flight Computer/aircraft/cf1_j_cfg.ks (inferred preloaded)
12.98,APPROACH,FLY_TO_FIX,111.37,80.35,-31.02,1395.17,-1.13,1.77,2.31,279.89,3.226,0,0,-11.756,1,0.6,4.5,3.38,0.35,0.0168,0.4,42.569,42.569,42.569,31.084,1,281.16,0.097,0,0,-0.59,1.26,0,0.1,281.16,0,0,0,0,0,0,0,48.628,0,0,0,3,0,0,0,2622.8,0,0,0,269.16,0,0,0,0,0,0,0,0,0,0,0,0,0,0,0,0,0,VALID,0,0,0,0,0,1,0,0,0,0,0,0,0,0,0,0,0,0,0,0,1.61,356.5,2,0,0.08,0.08,142,11.54,0.1,0.08,12.98,FLYING,CF1-J,0:/Integrated Flight Computer/aircraft/cf1_j_cfg.ks (inferred preloaded)
13.26,APPROACH,FLY_TO_FIX,110.49,80.58,-29.92,1394.88,-1.09,1.87,2.39,279.96,3.033,0,0,-11.581,1,0.6,4.5,3.391,0.35,0.0168,0.4,42.834,42.834,42.834,29.978,1,281.16,0.086,0,0,-0.57,1.2,0,0.09,281.16,0,0,0,0,0,0,0,48.595,0,0,0,3,0,0,0,2621.03,0,0,0,269.16,0,0,0,0,0,0,0,0,0,0,0,0,0,0,0,0,0,VALID,0,0,0,0,0,1,0,0,0,0,0,0,0,0,0,0,0,0,0,0,1.5,357.03,2,0,0.1,0.1,145,10.71,0.1,0.08,13.26,FLYING,CF1-J,0:/Integrated Flight Computer/aircraft/cf1_j_cfg.ks (inferred preloaded)
13.52,APPROACH,FLY_TO_FIX,109.68,80.78,-28.89,1394.61,-1.05,1.96,2.46,280.03,2.864,0,0,-11.408,1,0.6,4.5,3.4,0.35,0.0168,0.4,43.078,43.078,43.078,28.957,1,281.16,0.076,0,0,-0.55,1.14,0,0.08,281.16,0,0,0,0,0,0,0,48.564,0,0,0,3,0,0,0,2619.4,0,0,0,269.16,0,0,0,0,0,0,0,0,0,0,0,0,0,0,0,0,0,VALID,0,0,0,0,0,1,0,0,0,0,0,0,0,0,0,0,0,0,0,0,1.41,357.52,2,0,0.08,0.08,148,11.54,0.1,0.08,13.52,FLYING,CF1-J,0:/Integrated Flight Computer/aircraft/cf1_j_cfg.ks (inferred preloaded)
13.8,APPROACH,FLY_TO_FIX,108.81,81.01,-27.8,1394.34,-1.02,2.05,2.54,280.09,2.692,0,0,-11.238,1,0.6,4.5,3.405,0.35,0.0168,0.4,43.339,43.339,43.339,27.86,1,281.16,0.066,0,0,-0.54,1.08,0,0.07,281.16,0,0,0,0,0,0,0,48.53,0,0,0,3,0,0,0,2617.65,0,0,0,269.16,0,0,0,0,0,0,0,0,0,0,0,0,0,0,0,0,0,VALID,0,0,0,0,0,1,0,0,0,0,0,0,0,0,0,0,0,0,0,0,1.32,358.05,2,0,0.1,0.1,151,10.71,0.1,0.08,13.8,FLYING,CF1-J,0:/Integrated Flight Computer/aircraft/cf1_j_cfg.ks (inferred preloaded)
14.06,APPROACH,FLY_TO_FIX,108,81.22,-26.79,1394.09,-0.98,2.14,2.62,280.14,2.541,0,0,-11.07,1,0.6,4.5,3.408,0.35,0.0168,0.4,43.581,43.581,43.581,26.847,1,281.17,0.058,0,0,-0.52,1.02,0,0.06,281.17,0,0,0,0,0,0,0,48.5,0,0,0,3,0,0,0,2616.04,0,0,0,269.16,0,0,0,0,0,0,0,0,0,0,0,0,0,0,0,0,0,VALID,0,0,0,0,0,1,0,0,0,0,0,0,0,0,0,0,0,0,0,0,1.23,358.54,2,0,0.08,0.08,154,11.54,0.1,0.08,14.06,FLYING,CF1-J,0:/Integrated Flight Computer/aircraft/cf1_j_cfg.ks (inferred preloaded)
14.34,APPROACH,FLY_TO_FIX,107.14,81.44,-25.7,1393.84,-0.95,2.24,2.71,280.2,2.389,0,0,-10.905,1,0.6,4.5,3.409,0.35,0.0168,0.4,43.84,43.84,43.84,25.76,1,281.17,0.05,0,0,-0.51,0.97,0,0.05,281.17,0,0,0,0,0,0,0,48.467,0,0,0,3,0,0,0,2614.32,0,0,0,269.16,0,0,0,0,0,0,0,0,0,0,0,0,0,0,0,0,0,VALID,0,0,0,0,0,1,0,0,0,0,0,0,0,0,0,0,0,0,0,0,1.15,359.07,2,0,0.1,0.1,157,10.71,0.1,0.08,14.34,FLYING,CF1-J,0:/Integrated Flight Computer/aircraft/cf1_j_cfg.ks (inferred preloaded)
14.6,APPROACH,FLY_TO_FIX,106.34,81.65,-24.69,1393.61,-0.93,2.33,2.79,280.25,2.254,0,0,-10.742,1,0.6,4.5,3.407,0.35,0.0168,0.4,44.079,44.079,44.079,24.756,1,281.17,0.042,0,0,-0.5,0.92,0,0.05,281.17,0,0,0,0,0,0,0,48.437,0,0,0,3,0,0,0,2612.74,0,0,0,269.16,0,0,0,0,0,0,0,0,0,0,0,0,0,0,0,0,0,VALID,0,0,0,0,0,1,0,0,0,0,0,0,0,0,0,0,0,0,0,0,1.08,359.56,2,0,0.08,0.08,160,11.54,0.1,0.08,14.6,FLYING,CF1-J,0:/Integrated Flight Computer/aircraft/cf1_j_cfg.ks (inferred preloaded)
14.88,APPROACH,FLY_TO_FIX,105.49,81.87,-23.62,1393.37,-0.9,2.43,2.88,280.3,2.118,0,0,-10.582,1,0.6,4.5,3.404,0.35,0.0168,0.4,44.335,44.335,44.335,23.678,1,281.17,0.035,0,0,-0.49,0.87,0,0.04,281.17,0,0,0,0,0,0,0,48.404,0,0,0,3,0,0,0,2611.05,0,0,0,269.16,0,0,0,0,0,0,0,0,0,0,0,0,0,0,0,0,0,VALID,0,0,0,0,0,1,0,0,0,0,0,0,0,0,0,0,0,0,0,0,1.01,360.08,2,0,0.1,0.1,163,10.71,0.1,0.08,14.88,FLYING,CF1-J,0:/Integrated Flight Computer/aircraft/cf1_j_cfg.ks (inferred preloaded)
15.14,APPROACH,FLY_TO_FIX,104.7,82.08,-22.62,1393.15,-0.88,2.52,2.96,280.34,1.999,0,0,-10.424,1,0.6,4.5,3.398,0.35,0.0168,0.4,44.571,44.571,44.571,22.682,1,281.17,0.029,0,0,-0.48,0.83,0,0.03,281.17,0,0,0,0,0,0,0,48.375,0,0,0,3,0,0,0,2609.49,0,0,0,269.16,0,0,0,0,0,0,0,0,0,0,0,0,0,0,0,0,0,VALID,0,0,0,0,0,1,0,0,0,0,0,0,0,0,0,0,0,0,0,0,0.95,360.57,2,0,0.08,0.08,166,11.54,0.1,0.08,15.14,FLYING,CF1-J,0:/Integrated Flight Computer/aircraft/cf1_j_cfg.ks (inferred preloaded)
15.42,APPROACH,FLY_TO_FIX,103.86,82.3,-21.55,1392.93,-0.85,2.63,3.06,280.39,1.878,0,0,-10.268,1,0.6,4.5,3.392,0.35,0.0168,0.4,44.825,44.825,44.825,21.614,1,281.17,0.023,0,0,-0.47,0.79,0,0.03,281.17,0,0,0,0,0,0,0,48.343,0,0,0,3,0,0,0,2607.82,0,0,0,269.16,0,0,0,0,0,0,0,0,0,0,0,0,0,0,0,0,0,VALID,0,0,0,0,0,1,0,0,0,0,0,0,0,0,0,0,0,0,0,0,0.88,361.09,2,0,0.1,0.1,169,10.71,0.1,0.08,15.42,FLYING,CF1-J,0:/Integrated Flight Computer/aircraft/cf1_j_cfg.ks (inferred preloaded)
15.68,APPROACH,FLY_TO_FIX,103.08,82.51,-20.57,1392.72,-0.83,2.72,3.15,280.43,1.773,0,0,-10.115,1,0.6,4.5,3.384,0.35,0.0168,0.4,45.058,45.058,45.058,20.626,1,281.18,0.018,0,0,-0.46,0.75,0,0.02,281.18,0,0,0,0,0,0,0,48.313,0,0,0,3,0,0,0,2606.29,0,0,0,269.16,0,0,0,0,0,0,0,0,0,0,0,0,0,0,0,0,0,VALID,0,0,0,0,0,1,0,0,0,0,0,0,0,0,0,0,0,0,0,0,0.83,361.57,2,0,0.08,0.08,172,11.54,0.1,0.08,15.68,FLYING,CF1-J,0:/Integrated Flight Computer/aircraft/cf1_j_cfg.ks (inferred preloaded)
15.96,APPROACH,FLY_TO_FIX,102.24,82.74,-19.51,1392.51,-0.81,2.83,3.24,280.47,1.665,0,0,-9.964,1,0.6,4.5,3.375,0.35,0.0168,0.4,45.309,45.309,45.309,19.567,1,281.18,0.013,0,0,-0.46,0.71,0,0.02,281.18,0,0,0,0,0,0,0,48.282,0,0,0,3,0,0,0,2604.65,0,0,0,269.16,0,0,0,0,0,0,0,0,0,0,0,0,0,0,0,0,0,VALID,0,0,0,0,0,1,0,0,0,0,0,0,0,0,0,0,0,0,0,0,0.77,362.09,2,0,0.1,0.1,175,10.71,0.1,0.08,15.96,FLYING,CF1-J,0:/Integrated Flight Computer/aircraft/cf1_j_cfg.ks (inferred preloaded)
16.22,APPROACH,FLY_TO_FIX,101.47,82.94,-18.53,1392.32,-0.79,2.93,3.34,280.5,1.572,0,0,-9.815,1,0.6,4.5,3.364,0.35,0.0168,0.4,45.54,45.54,45.54,18.588,1,281.18,0.009,0,0,-0.45,0.68,0,0.01,281.18,0,0,0,0,0,0,0,48.253,0,0,0,3,0,0,0,2603.14,0,0,0,269.16,0,0,0,0,0,0,0,0,0,0,0,0,0,0,0,0,0,VALID,0,0,0,0,0,1,0,0,0,0,0,0,0,0,0,0,0,0,0,0,0.73,362.58,2,0,0.08,0.08,178,11.54,0.1,0.08,16.22,FLYING,CF1-J,0:/Integrated Flight Computer/aircraft/cf1_j_cfg.ks (inferred preloaded)
16.5,APPROACH,FLY_TO_FIX,100.65,83.17,-17.48,1392.12,-0.78,3.03,3.44,280.54,1.477,0,0,-9.669,1,0.6,4.5,3.353,0.35,0.0168,0.4,44.508,45.788,44.508,17.539,1,281.18,0.005,0,0,-0.44,0.64,0,0.01,281.18,0,0,0,0,0,0,0,48.222,0,0,0,3,0,0,0,2601.52,0,0,0,269.16,0,0,0,0,0,0,0,0,0,0,0,0,0,0,0,0,0,VALID,0,0,0,0,0,1,0,0,0,0,0,0,0,0,0,0,0,0,0,0,0.68,363.09,2,0,0.1,0.1,181,10.71,0.1,0.08,16.5,FLYING,CF1-J,0:/Integrated Flight Computer/aircraft/cf1_j_cfg.ks (inferred preloaded)
16.76,APPROACH,FLY_TO_FIX,99.9,83.38,-16.52,1391.93,-0.76,3.13,3.54,280.57,1.395,0,0,-9.525,1,0.6,4.5,3.34,0.35,0.0168,0.4,42.05,46.014,42.05,16.579,1,281.18,0.001,0,0,-0.44,0.61,0,0,281.18,0,0,0,0,0,0,0,48.194,0,0,0,3,0,0,0,2600.03,0,0,0,269.16,0,0,0,0,0,0,0,0,0,0,0,0,0,0,0,0,0,VALID,0,0,0,0,0,1,0,0,0,0,0,0,0,0,0,0,0,0,0,0,0.64,363.56,2,0,0.08,0.08,184,11.54,0.1,0.08,16.76,FLYING,CF1-J,0:/Integrated Flight Computer/aircraft/cf1_j_cfg.ks (inferred preloaded)
17.04,APPROACH,FLY_TO_FIX,99.13,83.6,-15.53,1391.74,-0.75,3.25,3.64,280.6,1.311,0,0,-9.382,1,0.6,4.5,3.319,0.35,0.0168,0.4,39.462,46.246,39.462,15.58,1,281.18,-0.002,0,0,-0.43,0.58,0,0,281.18,0,0,0,0,0,0,0,48.164,0,0,0,3,0,0,0,2598.44,0,0,0,269.16,0,0,0,0,0,0,0,0,0,0,0,0,0,0,0,0,0,VALID,0,0,0,0,0,1,0,0,0,0,0,0,0,0,0,0,0,0,0,0,0.59,364.05,2,0,0.1,0.1,187,10.71,0.1,0.08,17.04,FLYING,CF1-J,0:/Integrated Flight Computer/aircraft/cf1_j_cfg.ks (inferred preloaded)
17.3,APPROACH,FLY_TO_FIX,98.45,83.81,-14.64,1391.56,-0.74,3.35,3.74,280.63,1.238,0,0,-9.242,1,0.6,4.5,3.288,0.35,0.0168,0.4,37.133,46.451,37.133,14.69,1,281.18,-0.004,0,0,-0.43,0.55,0,0,281.18,0,0,0,0,0,0,0,48.136,0,0,0,3,0,0,0,2596.98,0,0,0,269.16,0,0,0,0,0,0,0,0,0,0,0,0,0,0,0,0,0,VALID,0,0,0,0,0,1,0,0,0,0,0,0,0,0,0,0,0,0,0,0,0.56,364.48,2,0,0.08,0.08,190,11.54,0.1,0.08,17.3,FLYING,CF1-J,0:/Integrated Flight Computer/aircraft/cf1_j_cfg.ks (inferred preloaded)
17.59,APPROACH,FLY_TO_FIX,97.86,84.01,-13.86,1391.37,-0.72,3.44,3.83,280.65,1.174,0,0,-9.104,1,0.6,4.5,3.241,0.35,0.0168,0.4,35.065,46.626,35.065,13.909,1,281.18,-0.007,0,0,-0.43,0.53,0,-0.01,281.18,0,0,0,0,0,0,0,48.109,0,0,0,3,0,0,0,2595.6,0,0,0,269.16,0,0,0,0,0,0,0,0,0,0,0,0,0,0,0,0,0,VALID,0,0,0,0,0,1,0,0,0,0,0,0,0,0,0,0,0,0,0,0,0.52,364.85,2,0,0.086,0.086,193,10.45,0.1,0.06,17.59,FLYING,CF1-J,0:/Integrated Flight Computer/aircraft/cf1_j_cfg.ks (inferred preloaded)
17.97,APPROACH,FLY_TO_FIX,97.29,84.28,-13.01,1391.1,-0.73,3.53,3.93,280.69,1.091,0,0,-9.014,1,0.6,4.5,3.181,0.35,0.0168,0.4,32.887,46.787,32.887,13.098,1,281.19,-0.007,0,0,-0.43,0.5,0,-0.01,281.18,0,0,0,0,0,0,0,48.073,0,0,0,3,0,0,0,2593.68,0,0,0,269.16,0,0,0,0,0,0,0,0,0,0,0,0,0,0,0,0,0,VALID,0,0,0,0,0,1,0,0,0,0,0,0,0,0,0,0,0,0,0,0,0.47,365.22,2,0,0.179,0.179,195,5.19,0.179,0.086,17.97,FLYING,CF1-J,0:/Integrated Flight Computer/aircraft/cf1_j_cfg.ks (inferred preloaded)
18.23,APPROACH,FLY_TO_FIX,96.88,84.48,-12.4,1390.92,-0.74,3.59,4,280.71,1.032,0,0,-8.969,1,0.6,4.5,3.145,0.35,0.0168,0.4,31.297,46.903,31.297,12.51,1,281.19,-0.004,0,0,-0.43,0.48,0,0,281.19,0,0,0,0,0,0,0,48.047,0,0,0,3,0,0,0,2592.3,0,0,0,269.16,0,0,0,0,0,0,0,0,0,0,0,0,0,0,0,0,0,VALID,0,0,0,0,0,1,0,0,0,0,0,0,0,0,0,0,0,0,0,0,0.44,365.48,2,0,0.25,0.25,196,3.85,0.25,0.179,18.23,FLYING,CF1-J,0:/Integrated Flight Computer/aircraft/cf1_j_cfg.ks (inferred preloaded)
18.51,APPROACH,FLY_TO_FIX,96.44,84.7,-11.74,1390.72,-0.75,3.66,4.07,280.73,0.971,0,0,-8.924,1,0.6,4.5,3.106,0.35,0.0168,0.4,29.522,47.034,29.522,11.857,1,281.19,0,0,0,-0.44,0.46,0,0,281.19,0,0,0,0,0,0,0,48.018,0,0,0,3,0,0,0,2590.81,0,0,0,269.16,0,0,0,0,0,0,0,0,0,0,0,0,0,0,0,0,0,VALID,0,0,0,0,0,1,0,0,0,0,0,0,0,0,0,0,0,0,0,0,0.41,365.77,2,0,0.27,0.27,197,3.55,0.27,0.25,18.51,FLYING,CF1-J,0:/Integrated Flight Computer/aircraft/cf1_j_cfg.ks (inferred preloaded)
18.82,APPROACH,FLY_TO_FIX,95.98,84.93,-11.05,1390.5,-0.76,3.73,4.15,280.75,0.908,0,0,-8.879,1,0.6,4.5,3.065,0.35,0.0168,0.4,27.619,47.173,27.619,11.161,1,281.19,0.006,0,0,-0.45,0.44,0,0,281.19,0,0,0,0,0,0,0,47.987,0,0,0,3,0,0,0,2589.21,0,0,0,269.16,0,0,0,0,0,0,0,0,0,0,0,0,0,0,0,0,0,VALID,0,0,0,0,0,1,0,0,0,0,0,0,0,0,0,0,0,0,0,0,0.38,366.06,2,0,0.293,0.293,198,3.28,0.293,0.27,18.82,FLYING,CF1-J,0:/Integrated Flight Computer/aircraft/cf1_j_cfg.ks (inferred preloaded)
19.14,APPROACH,FLY_TO_FIX,95.54,85,-10.54,1390.27,-0.78,3.8,4.23,280.77,0.848,0,0,-8.835,1,0.6,4.5,3.022,0.35,0.0168,0.4,26.229,47.305,26.229,10.649,1,281.19,0.011,0,0,-0.46,0.42,0,0.01,281.19,0,0,0,0,0,0,0,47.955,0,0,0,3,0,0,0,2587.49,0,0,0,269.16,0,0,0,0,0,0,0,0,0,0,0,0,0,0,0,0,0,VALID,0,0,0,0,0,1,0,0,0,0,0,0,0,0,0,0,0,0,0,0,0.35,366.35,2,0,0.315,0.315,199,3.12,0.315,0.293,19.14,FLYING,CF1-J,0:/Integrated Flight Computer/aircraft/cf1_j_cfg.ks (inferred preloaded)
19.46,APPROACH,FLY_TO_FIX,95.14,85,-10.14,1390.03,-0.78,3.87,4.31,280.79,0.795,0,0,-8.791,1,0.6,4.5,2.975,0.35,0.0168,0.4,25.123,47.428,25.123,10.24,1,281.19,0.015,0,0,-0.47,0.4,0,0.01,281.19,0,0,0,0,0,0,0,47.921,0,0,0,3,0,0,0,2585.75,0,0,0,269.16,0,0,0,0,0,0,0,0,0,0,0,0,0,0,0,0,0,VALID,0,0,0,0,0,1,0,0,0,0,0,0,0,0,0,0,0,0,0,0,0.33,366.61,2,0,0.32,0.32,200,3.12,0.32,0.315,19.46,FLYING,CF1-J,0:/Integrated Flight Computer/aircraft/cf1_j_cfg.ks (inferred preloaded)
19.78,APPROACH,FLY_TO_FIX,94.78,85,-9.78,1389.79,-0.78,3.94,4.38,280.81,0.745,0,0,-8.747,1,0.6,4.5,2.926,0.35,0.0168,0.4,24.109,47.54,24.109,9.868,1,281.19,0.017,0,0,-0.47,0.38,0,0.02,281.19,0,0,0,0,0,0,0,47.888,0,0,0,3,0,0,0,2584.02,0,0,0,269.16,0,0,0,0,0,0,0,0,0,0,0,0,0,0,0,0,0,VALID,0,0,0,0,0,1,0,0,0,0,0,0,0,0,0,0,0,0,0,0,0.3,366.85,2,0,0.32,0.32,201,3.12,0.32,0.32,19.78,FLYING,CF1-J,0:/Integrated Flight Computer/aircraft/cf1_j_cfg.ks (inferred preloaded)
20.1,APPROACH,FLY_TO_FIX,94.44,85,-9.44,1389.55,-0.77,4.01,4.44,280.83,0.699,0,0,-8.703,1,0.6,4.5,2.874,0.35,0.0168,0.4,23.172,47.642,23.172,9.525,1,281.19,0.016,0,0,-0.47,0.36,0,0.02,281.19,0,0,0,0,0,0,0,47.855,0,0,0,3,0,0,0,2582.29,0,0,0,269.16,0,0,0,0,0,0,0,0,0,0,0,0,0,0,0,0,0,VALID,0,0,0,0,0,1,0,0,0,0,0,0,0,0,0,0,0,0,0,0,0.28,367.07,2,0,0.32,0.32,202,3.12,0.32,0.32,20.1,FLYING,CF1-J,0:/Integrated Flight Computer/aircraft/cf1_j_cfg.ks (inferred preloaded)
20.42,APPROACH,FLY_TO_FIX,94.12,85,-9.12,1389.31,-0.76,4.06,4.5,280.85,0.656,0,0,-8.659,1,0.6,4.5,2.821,0.35,0.0168,0.4,22.281,47.74,22.281,9.201,1,281.19,0.015,0,0,-0.47,0.34,0,0.02,281.19,0,0,0,0,0,0,0,47.823,0,0,0,3,0,0,0,2580.57,0,0,0,269.16,0,0,0,0,0,0,0,0,0,0,0,0,0,0,0,0,0,VALID,0,0,0,0,0,1,0,0,0,0,0,0,0,0,0,0,0,0,0,0,0.26,367.28,2,0,0.32,0.32,203,3.12,0.32,0.32,20.42,FLYING,CF1-J,0:/Integrated Flight Computer/aircraft/cf1_j_cfg.ks (inferred preloaded)
20.74,APPROACH,FLY_TO_FIX,93.81,85,-8.81,1389.08,-0.76,4.12,4.55,280.86,0.616,0,0,-8.616,1,0.6,4.5,2.765,0.35,0.0168,0.4,21.42,47.833,21.42,8.889,1,281.19,0.013,0,0,-0.46,0.33,0,0.02,281.19,0,0,0,0,0,0,0,47.79,0,0,0,3,0,0,0,2578.85,0,0,0,269.16,0,0,0,0,0,0,0,0,0,0,0,0,0,0,0,0,0,VALID,0,0,0,0,0,1,0,0,0,0,0,0,0,0,0,0,0,0,0,0,0.24,367.49,2,0,0.32,0.32,204,3.12,0.32,0.32,20.74,FLYING,CF1-J,0:/Integrated Flight Computer/aircraft/cf1_j_cfg.ks (inferred preloaded)
21.06,APPROACH,FLY_TO_FIX,93.51,85,-8.51,1388.85,-0.75,4.17,4.6,280.88,0.579,0,0,-8.573,1,0.6,4.5,2.709,0.35,0.0168,0.4,20.578,47.925,20.578,8.585,1,281.19,0.012,0,0,-0.46,0.31,0,0.02,281.19,0,0,0,0,0,0,0,47.757,0,0,0,3,0,0,0,2577.14,0,0,0,269.16,0,0,0,0,0,0,0,0,0,0,0,0,0,0,0,0,0,VALID,0,0,0,0,0,1,0,0,0,0,0,0,0,0,0,0,0,0,0,0,0.22,367.69,2,0,0.32,0.32,205,3.12,0.32,0.32,21.06,FLYING,CF1-J,0:/Integrated Flight Computer/aircraft/cf1_j_cfg.ks (inferred preloaded)
21.38,APPROACH,FLY_TO_FIX,93.21,85,-8.21,1388.62,-0.74,4.23,4.65,280.9,0.54,0,0,-8.53,1,0.6,4.5,2.652,0.35,0.0168,0.4,19.752,48.014,19.752,8.288,1,281.19,0.01,0,0,-0.46,0.3,0,0.02,281.19,0,0,0,0,0,0,0,47.725,0,0,0,3,0,0,0,2575.44,0,0,0,269.16,0,0,0,0,0,0,0,0,0,0,0,0,0,0,0,0,0,VALID,0,0,0,0,0,1,0,0,0,0,0,0,0,0,0,0,0,0,0,0,0.2,367.88,2,0,0.32,0.32,206,3.12,0.32,0.32,21.38,FLYING,CF1-J,0:/Integrated Flight Computer/aircraft/cf1_j_cfg.ks (inferred preloaded)
21.7,APPROACH,FLY_TO_FIX,92.92,85,-7.92,1388.39,-0.73,4.28,4.69,280.91,0.503,0,0,-8.487,1,0.6,4.5,2.596,0.35,0.0168,0.4,18.939,48.101,18.939,7.997,1,281.19,0.009,0,0,-0.45,0.29,0,0.01,281.19,0,0,0,0,0,0,0,47.692,0,0,0,3,0,0,0,2573.74,0,0,0,269.16,0,0,0,0,0,0,0,0,0,0,0,0,0,0,0,0,0,VALID,0,0,0,0,0,1,0,0,0,0,0,0,0,0,0,0,0,0,0,0,0.19,368.08,2,0,0.32,0.32,207,3.12,0.32,0.32,21.7,FLYING,CF1-J,0:/Integrated Flight Computer/aircraft/cf1_j_cfg.ks (inferred preloaded)
22.02,APPROACH,FLY_TO_FIX,92.64,85,-7.64,1388.17,-0.72,4.33,4.74,280.92,0.469,0,0,-8.445,1,0.6,4.5,2.539,0.35,0.0168,0.4,18.136,48.187,18.136,7.71,1,281.2,0.007,0,0,-0.45,0.27,0,0.01,281.19,0,0,0,0,0,0,0,47.66,0,0,0,3,0,0,0,2572.05,0,0,0,269.16,0,0,0,0,0,0,0,0,0,0,0,0,0,0,0,0,0,VALID,0,0,0,0,0,1,0,0,0,0,0,0,0,0,0,0,0,0,0,0,0.17,368.27,2,0,0.32,0.32,208,3.12,0.32,0.32,22.02,FLYING,CF1-J,0:/Integrated Flight Computer/aircraft/cf1_j_cfg.ks (inferred preloaded)
22.34,APPROACH,FLY_TO_FIX,92.36,85,-7.36,1387.95,-0.71,4.37,4.79,280.93,0.436,0,0,-8.403,1,0.6,4.5,2.483,0.35,0.0168,0.4,17.341,48.272,17.341,7.427,1,281.2,0.006,0,0,-0.44,0.26,0,0.01,281.2,0,0,0,0,0,0,0,47.628,0,0,0,3,0,0,0,2570.36,0,0,0,269.16,0,0,0,0,0,0,0,0,0,0,0,0,0,0,0,0,0,VALID,0,0,0,0,0,1,0,0,0,0,0,0,0,0,0,0,0,0,0,0,0.16,368.45,2,0,0.32,0.32,209,3.12,0.32,0.32,22.34,FLYING,CF1-J,0:/Integrated Flight Computer/aircraft/cf1_j_cfg.ks (inferred preloaded)
22.66,APPROACH,FLY_TO_FIX,92.08,85,-7.08,1387.73,-0.71,4.42,4.83,280.95,0.406,0,0,-8.361,1,0.6,4.5,2.428,0.35,0.0168,0.4,16.552,48.356,16.552,7.148,1,281.2,0.006,0,0,-0.44,0.25,0,0.01,281.2,0,0,0,0,0,0,0,47.596,0,0,0,3,0,0,0,2568.67,0,0,0,269.16,0,0,0,0,0,0,0,0,0,0,0,0,0,0,0,0,0,VALID,0,0,0,0,0,1,0,0,0,0,0,0,0,0,0,0,0,0,0,0,0.15,368.64,2,0,0.32,0.32,210,3.12,0.32,0.32,22.66,FLYING,CF1-J,0:/Integrated Flight Computer/aircraft/cf1_j_cfg.ks (inferred preloaded)
22.98,APPROACH,FLY_TO_FIX,91.8,85,-6.8,1387.51,-0.7,4.47,4.88,280.96,0.378,0,0,-8.319,1,0.6,4.5,2.374,0.35,0.0168,0.4,15.767,48.439,15.767,6.871,1,281.2,0.005,0,0,-0.44,0.24,0,0.01,281.2,0,0,0,0,0,0,0,47.564,0,0,0,3,0,0,0,2567,0,0,0,269.16,0,0,0,0,0,0,0,0,0,0,0,0,0,0,0,0,0,VALID,0,0,0,0,0,1,0,0,0,0,0,0,0,0,0,0,0,0,0,0,0.13,368.82,2,0,0.32,0.32,211,3.12,0.32,0.32,22.98,FLYING,CF1-J,0:/Integrated Flight Computer/aircraft/cf1_j_cfg.ks (inferred preloaded)
23.3,APPROACH,FLY_TO_FIX,91.53,85,-6.53,1387.29,-0.7,4.52,4.93,280.97,0.352,0,0,-8.277,1,0.6,4.5,2.321,0.35,0.0168,0.4,14.984,48.521,14.984,6.595,1,281.2,0.004,0,0,-0.44,0.23,0,0.01,281.2,0,0,0,0,0,0,0,47.532,0,0,0,3,0,0,0,2565.32,0,0,0,269.16,0,0,0,0,0,0,0,0,0,0,0,0,0,0,0,0,0,VALID,0,0,0,0,0,1,0,0,0,0,0,0,0,0,0,0,0,0,0,0,0.12,369.01,2,0,0.32,0.32,212,3.12,0.32,0.32,23.3,FLYING,CF1-J,0:/Integrated Flight Computer/aircraft/cf1_j_cfg.ks (inferred preloaded)
23.62,APPROACH,FLY_TO_FIX,91.25,85,-6.25,1387.08,-0.69,4.57,4.97,280.98,0.328,0,0,-8.236,1,0.6,4.5,2.269,0.35,0.0168,0.4,14.201,48.604,14.201,6.321,1,281.2,0.004,0,0,-0.44,0.22,0,0.01,281.2,0,0,0,0,0,0,0,47.5,0,0,0,3,0,0,0,2563.65,0,0,0,269.16,0,0,0,0,0,0,0,0,0,0,0,0,0,0,0,0,0,VALID,0,0,0,0,0,1,0,0,0,0,0,0,0,0,0,0,0,0,0,0,0.11,369.19,2,0,0.32,0.32,213,3.12,0.32,0.32,23.62,FLYING,CF1-J,0:/Integrated Flight Computer/aircraft/cf1_j_cfg.ks (inferred preloaded)
23.94,APPROACH,FLY_TO_FIX,90.98,85,-5.98,1386.86,-0.69,4.62,5.02,280.98,0.307,0,0,-8.195,1,0.6,4.5,2.219,0.35,0.0168,0.4,13.418,48.686,13.418,6.047,1,281.2,0.004,0,0,-0.43,0.21,0,0.01,281.2,0,0,0,0,0,0,0,47.468,0,0,0,3,0,0,0,2561.99,0,0,0,269.16,0,0,0,0,0,0,0,0,0,0,0,0,0,0,0,0,0,VALID,0,0,0,0,0,1,0,0,0,0,0,0,0,0,0,0,0,0,0,0,0.11,369.37,2,0,0.32,0.32,214,3.12,0.32,0.32,23.94,FLYING,CF1-J,0:/Integrated Flight Computer/aircraft/cf1_j_cfg.ks (inferred preloaded)
24.26,APPROACH,FLY_TO_FIX,90.71,85,-5.71,1386.65,-0.69,4.67,5.07,280.99,0.287,0,0,-8.154,1,0.6,4.5,2.17,0.35,0.0168,0.4,12.632,48.768,12.632,5.774,1,281.2,0.004,0,0,-0.43,0.21,0,0.01,281.2,0,0,0,0,0,0,0,47.436,0,0,0,3,0,0,0,2560.33,0,0,0,269.16,0,0,0,0,0,0,0,0,0,0,0,0,0,0,0,0,0,VALID,0,0,0,0,0,1,0,0,0,0,0,0,0,0,0,0,0,0,0,0,0.1,369.56,2,0,0.32,0.32,215,3.12,0.32,0.32,24.26,FLYING,CF1-J,0:/Integrated Flight Computer/aircraft/cf1_j_cfg.ks (inferred preloaded)
24.58,APPROACH,FLY_TO_FIX,90.43,85,-5.43,1386.44,-0.68,4.72,5.12,281,0.268,0,0,-8.113,1,0.6,4.5,2.123,0.35,0.0168,0.4,11.843,48.85,11.843,5.5,1,281.2,0.004,0,0,-0.43,0.2,0,0.01,281.2,0,0,0,0,0,0,0,47.405,0,0,0,3,0,0,0,2558.68,0,0,0,269.16,0,0,0,0,0,0,0,0,0,0,0,0,0,0,0,0,0,VALID,0,0,0,0,0,1,0,0,0,0,0,0,0,0,0,0,0,0,0,0,0.09,369.74,2,0,0.32,0.32,216,3.12,0.32,0.32,24.58,FLYING,CF1-J,0:/Integrated Flight Computer/aircraft/cf1_j_cfg.ks (inferred preloaded)
24.9,APPROACH,FLY_TO_FIX,90.16,85,-5.16,1386.23,-0.68,4.76,5.17,281.01,0.251,0,0,-8.072,1,0.6,4.5,2.077,0.35,0.0168,0.4,11.051,48.932,11.051,5.226,1,281.2,0.004,0,0,-0.43,0.19,0,0.01,281.2,0,0,0,0,0,0,0,47.373,0,0,0,3,0,0,0,2557.03,0,0,0,269.16,0,0,0,0,0,0,0,0,0,0,0,0,0,0,0,0,0,VALID,0,0,0,0,0,1,0,0,0,0,0,0,0,0,0,0,0,0,0,0,0.08,369.92,2,0,0.32,0.32,217,3.12,0.32,0.32,24.9,FLYING,CF1-J,0:/Integrated Flight Computer/aircraft/cf1_j_cfg.ks (inferred preloaded)
25.22,APPROACH,FLY_TO_FIX,89.88,85,-4.88,1386.02,-0.68,4.82,5.22,281.01,0.235,0,0,-8.032,1,0.6,4.5,2.033,0.35,0.0168,0.4,10.253,49.015,10.253,4.952,1,281.2,0.004,0,0,-0.43,0.19,0,0.01,281.2,0,0,0,0,0,0,0,47.342,0,0,0,3,0,0,0,2555.38,0,0,0,269.16,0,0,0,0,0,0,0,0,0,0,0,0,0,0,0,0,0,VALID,0,0,0,0,0,1,0,0,0,0,0,0,0,0,0,0,0,0,0,0,0.08,370.11,2,0,0.32,0.32,218,3.12,0.32,0.32,25.22,FLYING,CF1-J,0:/Integrated Flight Computer/aircraft/cf1_j_cfg.ks (inferred preloaded)
25.54,APPROACH,FLY_TO_FIX,89.61,85,-4.61,1385.81,-0.68,4.86,5.27,281.02,0.222,0,0,-7.992,1,0.6,4.5,1.99,0.35,0.0168,0.4,9.451,49.097,9.451,4.676,1,281.2,0.005,0,0,-0.43,0.18,0,0.01,281.2,0,0,0,0,0,0,0,47.311,0,0,0,3,0,0,0,2553.74,0,0,0,269.16,0,0,0,0,0,0,0,0,0,0,0,0,0,0,0,0,0,VALID,0,0,0,0,0,1,0,0,0,0,0,0,0,0,0,0,0,0,0,0,0.07,370.29,2,0,0.32,0.32,219,3.12,0.32,0.32,25.54,FLYING,CF1-J,0:/Integrated Flight Computer/aircraft/cf1_j_cfg.ks (inferred preloaded)
25.86,APPROACH,FLY_TO_FIX,89.33,85,-4.33,1385.6,-0.68,4.92,5.32,281.03,0.208,0,0,-7.952,1,0.6,4.5,1.949,0.35,0.0168,0.4,8.644,49.18,8.644,4.4,1,281.2,0.006,0,0,-0.43,0.17,0,0.01,281.2,0,0,0,0,0,0,0,47.28,0,0,0,3,0,0,0,2552.11,0,0,0,269.16,0,0,0,0,0,0,0,0,0,0,0,0,0,0,0,0,0,VALID,0,0,0,0,0,1,0,0,0,0,0,0,0,0,0,0,0,0,0,0,0.07,370.48,2,0,0.32,0.32,220,3.12,0.32,0.32,25.86,FLYING,CF1-J,0:/Integrated Flight Computer/aircraft/cf1_j_cfg.ks (inferred preloaded)
26.18,APPROACH,FLY_TO_FIX,89.05,85,-4.05,1385.4,-0.67,4.97,5.37,281.03,0.196,0,0,-7.912,1,0.6,4.5,1.909,0.35,0.0168,0.4,7.832,49.263,7.832,4.123,1,281.2,0.006,0,0,-0.43,0.17,0,0.01,281.2,0,0,0,0,0,0,0,47.249,0,0,0,3,0,0,0,2550.48,0,0,0,269.16,0,0,0,0,0,0,0,0,0,0,0,0,0,0,0,0,0,VALID,0,0,0,0,0,1,0,0,0,0,0,0,0,0,0,0,0,0,0,0,0.06,370.66,2,0,0.32,0.32,221,3.12,0.32,0.32,26.18,FLYING,CF1-J,0:/Integrated Flight Computer/aircraft/cf1_j_cfg.ks (inferred preloaded)
26.5,APPROACH,FLY_TO_FIX,88.78,85,-3.78,1385.19,-0.67,5.02,5.42,281.04,0.185,0,0,-7.873,1,0.6,4.5,1.871,0.35,0.0168,0.4,7.015,49.346,7.015,3.846,1,281.2,0.007,0,0,-0.43,0.16,0,0.01,281.2,0,0,0,0,0,0,0,47.218,0,0,0,3,0,0,0,2548.86,0,0,0,269.16,0,0,0,0,0,0,0,0,0,0,0,0,0,0,0,0,0,VALID,0,0,0,0,0,1,0,0,0,0,0,0,0,0,0,0,0,0,0,0,0.06,370.85,2,0,0.32,0.32,222,3.12,0.32,0.32,26.5,FLYING,CF1-J,0:/Integrated Flight Computer/aircraft/cf1_j_cfg.ks (inferred preloaded)
26.82,APPROACH,FLY_TO_FIX,88.5,85,-3.5,1384.98,-0.67,5.07,5.48,281.04,0.175,0,0,-7.833,1,0.6,4.5,1.835,0.35,0.0168,0.4,6.193,49.43,6.193,3.567,1,281.2,0.008,0,0,-0.44,0.16,0,0.01,281.2,0,0,0,0,0,0,0,47.187,0,0,0,3,0,0,0,2547.24,0,0,0,269.16,0,0,0,0,0,0,0,0,0,0,0,0,0,0,0,0,0,VALID,0,0,0,0,0,1,0,0,0,0,0,0,0,0,0,0,0,0,0,0,0.05,371.03,2,0,0.32,0.32,223,3.12,0.32,0.32,26.82,FLYING,CF1-J,0:/Integrated Flight Computer/aircraft/cf1_j_cfg.ks (inferred preloaded)
27.14,APPROACH,FLY_TO_FIX,88.22,85,-3.22,1384.78,-0.67,5.13,5.53,281.05,0.167,0,0,-7.794,1,0.6,4.5,1.8,0.35,0.0168,0.4,5.367,49.513,5.367,3.288,1,281.2,0.009,0,0,-0.44,0.15,0,0.01,281.2,0,0,0,0,0,0,0,47.156,0,0,0,3,0,0,0,2545.63,0,0,0,269.16,0,0,0,0,0,0,0,0,0,0,0,0,0,0,0,0,0,VALID,0,0,0,0,0,1,0,0,0,0,0,0,0,0,0,0,0,0,0,0,0.05,371.22,2,0,0.32,0.32,224,3.12,0.32,0.32,27.14,FLYING,CF1-J,0:/Integrated Flight Computer/aircraft/cf1_j_cfg.ks (inferred preloaded)
27.46,APPROACH,FLY_TO_FIX,87.94,85,-2.94,1384.57,-0.67,5.18,5.59,281.05,0.159,0,0,-7.755,1,0.6,4.5,1.766,0.35,0.0168,0.4,4.534,49.597,4.534,3.008,1,281.2,0.01,0,0,-0.44,0.15,0,0.01,281.2,0,0,0,0,0,0,0,47.125,0,0,0,3,0,0,0,2544.02,0,0,0,269.16,0,0,0,0,0,0,0,0,0,0,0,0,0,0,0,0,0,VALID,0,0,0,0,0,1,0,0,0,0,0,0,0,0,0,0,0,0,0,0,0.04,371.41,2,0,0.32,0.32,225,3.12,0.32,0.32,27.46,FLYING,CF1-J,0:/Integrated Flight Computer/aircraft/cf1_j_cfg.ks (inferred preloaded)
27.78,APPROACH,FLY_TO_FIX,87.66,85,-2.66,1384.36,-0.67,5.23,5.64,281.06,0.151,0,0,-7.716,1,0.6,4.5,1.734,0.35,0.0168,0.4,3.697,49.682,3.697,2.728,1,281.2,0.011,0,0,-0.44,0.14,0,0.01,281.2,0,0,0,0,0,0,0,47.095,0,0,0,3,0,0,0,2542.41,0,0,0,269.16,0,0,0,0,0,0,0,0,0,0,0,0,0,0,0,0,0,VALID,0,0,0,0,0,1,0,0,0,0,0,0,0,0,0,0,0,0,0,0,0.04,371.59,2,0,0.32,0.32,226,3.12,0.32,0.32,27.78,FLYING,CF1-J,0:/Integrated Flight Computer/aircraft/cf1_j_cfg.ks (inferred preloaded)
28.1,APPROACH,FLY_TO_FIX,87.38,85,-2.38,1384.16,-0.67,5.29,5.7,281.06,0.144,0,0,-8.499,1,0.6,4.5,1.703,0.35,0.0168,0.4,2.854,49.766,2.854,2.446,1,281.2,0.012,0,0,-0.44,0.14,0,0.01,281.2,0,0,0,0,0,0,0,47.064,0,0,0,3,0,0,0,2540.81,0,0,0,269.16,0,0,0,0,0,0,0,0,0,0,0,0,0,0,0,0,0,VALID,0,0,0,0,0,1,0,0,0,0,0,0,0,0,0,0,0,0,0,0,0.04,371.78,2,0,0.32,0.32,227,3.12,0.32,0.32,28.1,FLYING,CF1-J,0:/Integrated Flight Computer/aircraft/cf1_j_cfg.ks (inferred preloaded)
28.42,APPROACH,FLY_TO_FIX,87.09,85,-2.09,1383.95,-0.67,5.34,5.76,281.07,0.139,0.0007,0,-9.192,1,0.6,4.5,1.673,0.35,0.0168,0.4,2.006,49.851,2.006,2.164,1,281.2,0.013,0,0,-0.44,0.14,0,0.01,281.2,0,0,0,0,0,0,0,47.034,0,0,0,3,0,0,0,2539.22,0,0,0,269.16,0,0,0,0,0,0,0,0,0,0,0,0,0,0,0,0,0,VALID,0,0,0,0,0,1,0,0,0,0,0,0,0,0,0,0,0,0,0,0,0,371.97,2,0,0.32,0.32,228,3.12,0.32,0.32,28.42,FLYING,CF1-J,0:/Integrated Flight Computer/aircraft/cf1_j_cfg.ks (inferred preloaded)
28.74,APPROACH,FLY_TO_FIX,86.81,85,-1.81,1383.74,-0.67,5.4,5.81,281.07,0.133,0.0111,0,-9.793,1,0.6,4.5,1.645,0.35,0.0168,0.4,1.151,49.936,1.151,1.88,1,281.2,0.014,0,0,-0.44,0.13,0,0.02,281.2,0,0,0,0,0,0,0,47.003,0,0,0,3,0,0,0,2537.63,0,0,0,269.16,0,0,0,0,0,0,0,0,0,0,0,0,0,0,0,0,0,VALID,0,0,0,0,0,1,0,0,0,0,0,0,0,0,0,0,0,0,0,0,0,372.16,2,0,0.32,0.32,229,3.12,0.32,0.32,28.74,FLYING,CF1-J,0:/Integrated Flight Computer/aircraft/cf1_j_cfg.ks (inferred preloaded)
29.06,APPROACH,FLY_TO_FIX,86.52,85,-1.52,1383.54,-0.67,5.46,5.87,281.07,0.129,0.0232,0,-10.304,1,0.6,4.5,1.618,0.35,0.0168,0.4,0.291,50.021,0.291,1.596,1,281.2,0.015,0,0,-0.45,0.13,0,0.02,281.2,0,0,0,0,0,0,0,46.973,0,0,0,3,0,0,0,2536.05,0,0,0,269.16,0,0,0,0,0,0,0,0,0,0,0,0,0,0,0,0,0,VALID,0,0,0,0,0,1,0,0,0,0,0,0,0,0,0,0,0,0,0,0,0.06,372.35,2,0,0.32,0.32,230,3.12,0.32,0.32,29.06,FLYING,CF1-J,0:/Integrated Flight Computer/aircraft/cf1_j_cfg.ks (inferred preloaded)
29.38,APPROACH,FLY_TO_FIX,86.24,85,-1.24,1383.33,-0.67,5.52,5.93,281.08,0.127,0.037,0,-10.724,1,0.6,4.5,1.592,0.35,0.0168,0.4,0,50.107,0,1.311,0,281.2,0.017,0,0,-0.45,0.13,0,0.02,281.2,0,0,0,0,0,0,0,46.943,0,0,0,3,0,0,0,2534.47,0,0,0,269.16,0,0,0,0,0,0,0,0,0,0,0,0,0,0,0,0,0,VALID,0,0,0,0,0,1,0,0,0,0,0,0,0,0,0,0,0,0,0,0,0.21,372.54,2,0,0.32,0.32,231,3.12,0.32,0.32,29.38,FLYING,CF1-J,0:/Integrated Flight Computer/aircraft/cf1_j_cfg.ks (inferred preloaded)
29.7,APPROACH,FLY_TO_FIX,85.95,85,-0.95,1383.12,-0.68,5.58,5.99,281.08,0.123,0.0523,0,-11.051,1,0.6,4.5,1.567,0.35,0.0168,0.4,0,50.193,0,1.024,0,281.2,0.018,0,0,-0.45,0.12,0,0.02,281.2,0,0,0,0,0,0,0,46.913,0,0,0,3,0,0,0,2532.9,0,0,0,269.16,0,0,0,0,0,0,0,0,0,0,0,0,0,0,0,0,0,VALID,0,0,0,0,0,1,0,0,0,0,0,0,0,0,0,0,0,0,0,0,0.44,372.74,2,0,0.32,0.32,232,3.12,0.32,0.32,29.7,FLYING,CF1-J,0:/Integrated Flight Computer/aircraft/cf1_j_cfg.ks (inferred preloaded)
30.02,APPROACH,FLY_TO_FIX,85.67,85,-0.67,1382.92,-0.68,5.63,6.05,281.08,0.117,0.0692,0,-11.287,1,0.6,4.5,1.544,0.35,0.0168,0.4,0,50.279,0,0.738,0,281.2,0.019,0,0,-0.45,0.12,0,0.02,281.2,0,0,0,0,0,0,0,46.883,0,0,0,3,0,0,0,2531.33,0,0,0,269.16,0,0,0,0,0,0,0,0,0,0,0,0,0,0,0,0,0,VALID,0,0,0,0,0,1,0,0,0,0,0,0,0,0,0,0,0,0,0,0,0.78,372.93,2,0,0.32,0.32,233,3.12,0.32,0.32,30.02,FLYING,CF1-J,0:/Integrated Flight Computer/aircraft/cf1_j_cfg.ks (inferred preloaded)
30.34,APPROACH,FLY_TO_FIX,85.38,85,-0.38,1382.71,-0.68,5.69,6.12,281.09,0.112,0.0875,0,-11.432,1,0.6,4.5,1.521,0.35,0.0168,0.4,0,50.365,0,0.451,0,281.2,0.02,0,0,-0.45,0.12,0,0.02,281.2,0,0,0,0,0,0,0,46.853,0,0,0,3,0,0,0,2529.77,0,0,0,269.16,0,0,0,0,0,0,0,0,0,0,0,0,0,0,0,0,0,VALID,0,0,0,0,0,1,0,0,0,0,0,0,0,0,0,0,0,0,0,0,1.23,373.12,2,0,0.32,0.32,234,3.12,0.32,0.32,30.34,FLYING,CF1-J,0:/Integrated Flight Computer/aircraft/cf1_j_cfg.ks (inferred preloaded)
30.66,APPROACH,FLY_TO_FIX,85.09,85,-0.09,1382.5,-0.68,5.75,6.18,281.09,0.111,0.1073,0,-11.484,1,0.6,4.5,1.521,0.35,0.0168,0.4,0,50.451,0,0.164,0,281.2,0.021,0,0,-0.45,0.11,0,0.02,281.2,0,0,0,0,0,0,0,46.824,0,0,0,3,0,0,0,2528.21,0,0,0,269.16,0,0,0,0,0,0,0,0,0,0,0,0,0,0,0,0,0,VALID,0,0,0,0,0,1,0,0,0,0,0,0,0,0,0,0,0,0,0,0,1.79,373.31,2,0,0.32,0.32,235,3.12,0.32,0.32,30.66,FLYING,CF1-J,0:/Integrated Flight Computer/aircraft/cf1_j_cfg.ks (inferred preloaded)
30.98,APPROACH,FLY_TO_FIX,84.81,85,0.19,1382.29,-0.68,5.81,6.24,281.09,0.109,0.1283,0,-11.445,1,0.6,4.5,1.521,0.35,0.0168,0.4,0,50.537,0,-0.122,0,281.21,0.022,0,0,-0.46,0.11,0,0.02,281.2,0,0,0,0,0,0,0,46.794,0,0,0,3,0,0,0,2526.66,0,0,0,269.16,0,0,0,0,0,0,0,0,0,0,0,0,0,0,0,0,0,VALID,0,0,0,0,0,1,0,0,0,0,0,0,0,0,0,0,0,0,0,0,2.49,373.5,2,0,0.32,0.32,236,3.12,0.32,0.32,30.98,FLYING,CF1-J,0:/Integrated Flight Computer/aircraft/cf1_j_cfg.ks (inferred preloaded)
31.3,APPROACH,FLY_TO_FIX,84.52,85,0.48,1382.09,-0.68,5.87,6.3,281.1,0.104,0.1504,0,-11.315,1,0.6,4.5,1.521,0.35,0.0168,0.4,0,50.622,0,-0.408,0,281.21,0.023,0,0,-0.46,0.11,0,0.03,281.2,0,0,0,0,0,0,0,46.765,0,0,0,3,0,0,0,2525.11,0,0,0,269.16,0,0,0,0,0,0,0,0,0,0,0,0,0,0,0,0,0,VALID,0,0,0,0,0,1,0,0,0,0,0,0,0,0,0,0,0,0,0,0,3.32,373.69,2,0,0.32,0.32,237,3.12,0.32,0.32,31.3,FLYING,CF1-J,0:/Integrated Flight Computer/aircraft/cf1_j_cfg.ks (inferred preloaded)
31.62,APPROACH,FLY_TO_FIX,84.24,85,0.76,1381.88,-0.68,5.93,6.36,281.1,0.099,0.1734,0,-11.094,1,0.6,4.5,1.521,0.35,0.0168,0.4,0,50.707,0,-0.691,0,281.21,0.024,0,0,-0.46,0.11,0,0.03,281.21,0,0,0,0,0,0,0,46.735,0,0,0,3,0,0,0,2523.57,0,0,0,269.16,0,0,0,0,0,0,0,0,0,0,0,0,0,0,0,0,0,VALID,0,0,0,0,0,1,0,0,0,0,0,0,0,0,0,0,0,0,0,0,4.29,373.88,2,0,0.32,0.32,238,3.12,0.32,0.32,31.62,FLYING,CF1-J,0:/Integrated Flight Computer/aircraft/cf1_j_cfg.ks (inferred preloaded)
31.94,APPROACH,FLY_TO_FIX,83.96,85,1.04,1381.67,-0.67,5.99,6.42,281.1,0.098,0.1973,0,-10.783,1,0.6,4.5,1.521,0.35,0.0168,0.4,0,50.791,0,-0.971,0,281.21,0.025,0,0,-0.46,0.1,0,0.03,281.21,0,0,0,0,0,0,0,46.706,0,0,0,3,0,0,0,2522.04,0,0,0,269.16,0,0,0,0,0,0,0,0,0,0,0,0,0,0,0,0,0,VALID,0,0,0,0,0,1,0,0,0,0,0,0,0,0,0,0,0,0,0,0,5.41,374.07,2,0,0.32,0.32,239,3.12,0.32,0.32,31.94,FLYING,CF1-J,0:/Integrated Flight Computer/aircraft/cf1_j_cfg.ks (inferred preloaded)
32.26,APPROACH,FLY_TO_FIX,83.68,85,1.32,1381.47,-0.67,6.05,6.48,281.1,0.096,0.2219,0,-10.384,1,0.6,4.5,1.521,0.35,0.0168,0.4,0,50.874,0,-1.248,0,281.21,0.026,0,0,-0.46,0.1,0,0.03,281.21,0,0,0,0,0,0,0,46.677,0,0,0,3,0,0,0,2520.5,0,0,0,269.16,0,0,0,0,0,0,0,0,0,0,0,0,0,0,0,0,0,VALID,0,0,0,0,0,1,0,0,0,0,0,0,0,0,0,0,0,0,0,0,6.67,374.26,2,0,0.32,0.32,240,3.12,0.32,0.32,32.26,FLYING,CF1-J,0:/Integrated Flight Computer/aircraft/cf1_j_cfg.ks (inferred preloaded)
32.58,APPROACH,FLY_TO_FIX,83.41,85,1.59,1381.26,-0.67,6.11,6.54,281.11,0.09,0.2469,0,-9.897,1,0.6,4.5,1.521,0.35,0.0168,0.4,0,50.956,0,-1.52,0,281.21,0.027,0,0,-0.46,0.1,0,0.03,281.21,0,0,0,0,0,0,0,46.647,0,0,0,3,0,0,0,2518.98,0,0,0,269.16,0,0,0,0,0,0,0,0,0,0,0,0,0,0,0,0,0,VALID,0,0,0,0,0,1,0,0,0,0,0,0,0,0,0,0,0,0,0,0,8.09,374.44,2,0,0.32,0.32,241,3.12,0.32,0.32,32.58,FLYING,CF1-J,0:/Integrated Flight Computer/aircraft/cf1_j_cfg.ks (inferred preloaded)
32.9,APPROACH,FLY_TO_FIX,83.15,85,1.85,1381.06,-0.67,6.17,6.6,281.11,0.09,0.2724,0,-9.325,1,0.6,4.5,1.521,0.35,0.0168,0.4,0,51.036,0,-1.788,0,281.21,0.027,0,0,-0.46,0.1,0,0.03,281.21,0,0,0,0,0,0,0,46.618,0,0,0,3,0,0,0,2517.46,0,0,0,269.16,0,0,0,0,0,0,0,0,0,0,0,0,0,0,0,0,0,VALID,0,0,0,0,0,1,0,0,0,0,0,0,0,0,0,0,0,0,0,0,9.66,374.62,2,0,0.32,0.32,242,3.12,0.32,0.32,32.9,FLYING,CF1-J,0:/Integrated Flight Computer/aircraft/cf1_j_cfg.ks (inferred preloaded)
33.22,APPROACH,FLY_TO_FIX,82.89,85,2.11,1380.85,-0.67,6.22,6.65,281.11,0.088,0.2981,0,-8.669,1,0.6,4.5,1.521,0.35,0.0168,0.4,0,51.115,0,-2.049,0,281.21,0.028,0,0,-0.46,0.1,0,0.03,281.21,0,0,0,0,0,0,0,46.589,0,0,0,3,0,0,0,2515.94,0,0,0,269.16,0,0,0,0,0,0,0,0,0,0,0,0,0,0,0,0,0,VALID,0,0,0,0,0,1,0,0,0,0,0,0,0,0,0,0,0,0,0,0,11.38,374.79,2,0,0.32,0.32,243,3.12,0.32,0.32,33.22,FLYING,CF1-J,0:/Integrated Flight Computer/aircraft/cf1_j_cfg.ks (inferred preloaded)
33.54,APPROACH,FLY_TO_FIX,82.63,85,2.37,1380.64,-0.67,6.28,6.71,281.11,0.085,0.3239,0,-7.932,1,0.6,4.5,1.521,0.35,0.0168,0.4,0,51.191,0,-2.303,0,281.21,0.028,0,0,-0.46,0.09,0,0.03,281.21,0,0,0,0,0,0,0,46.561,0,0,0,3,0,0,0,2514.43,0,0,0,269.16,0,0,0,0,0,0,0,0,0,0,0,0,0,0,0,0,0,VALID,0,0,0,0,0,1,0,0,0,0,0,0,0,0,0,0,0,0,0,0,13.25,374.96,2,0,0.32,0.32,244,3.12,0.32,0.32,33.54,FLYING,CF1-J,0:/Integrated Flight Computer/aircraft/cf1_j_cfg.ks (inferred preloaded)
33.86,APPROACH,FLY_TO_FIX,82.39,85,2.61,1380.44,-0.66,6.33,6.76,281.12,0.083,0.3496,0,-7.116,1,0.6,4.5,1.521,0.35,0.0168,0.4,0,51.265,0,-2.55,0,281.21,0.028,0,0,-0.46,0.09,0,0.03,281.21,0,0,0,0,0,0,0,46.532,0,0,0,3,0,0,0,2512.92,0,0,0,269.16,0,0,0,0,0,0,0,0,0,0,0,0,0,0,0,0,0,VALID,0,0,0,0,0,1,0,0,0,0,0,0,0,0,0,0,0,0,0,0,15.27,375.13,2,0,0.32,0.32,245,3.12,0.32,0.32,33.86,FLYING,CF1-J,0:/Integrated Flight Computer/aircraft/cf1_j_cfg.ks (inferred preloaded)
34.18,APPROACH,FLY_TO_FIX,82.15,85,2.85,1380.24,-0.66,6.38,6.81,281.12,0.081,0.3752,0,-6.224,1,0.6,4.5,1.521,0.35,0.0168,0.4,0,51.336,0,-2.788,0,281.21,0.028,0,0,-0.46,0.09,0,0.03,281.21,0,0,0,0,0,0,0,46.503,0,0,0,3,0,0,0,2511.41,0,0,0,269.16,0,0,0,0,0,0,0,0,0,0,0,0,0,0,0,0,0,VALID,0,0,0,0,0,1,0,0,0,0,0,0,0,0,0,0,0,0,0,0,17.44,375.29,2,0,0.32,0.32,246,3.12,0.32,0.32,34.18,FLYING,CF1-J,0:/Integrated Flight Computer/aircraft/cf1_j_cfg.ks (inferred preloaded)
34.5,APPROACH,FLY_TO_FIX,81.93,85,3.07,1380.03,-0.65,6.43,6.85,281.12,0.079,0.4004,0,-5.259,1,0.6,4.5,1.521,0.35,0.0168,0.4,0,51.405,0,-3.016,0,281.21,0.028,0,0,-0.46,0.09,0,0.03,281.21,0,0,0,0,0,0,0,46.474,0,0,0,3,0,0,0,2509.91,0,0,0,269.16,0,0,0,0,0,0,0,0,0,0,0,0,0,0,0,0,0,VALID,0,0,0,0,0,1,0,0,0,0,0,0,0,0,0,0,0,0,0,0,19.76,375.44,2,0,0.32,0.32,247,3.12,0.32,0.32,34.5,FLYING,CF1-J,0:/Integrated Flight Computer/aircraft/cf1_j_cfg.ks (inferred preloaded)
34.82,APPROACH,FLY_TO_FIX,81.71,85,3.29,1379.83,-0.65,6.48,6.9,281.12,0.077,0.4252,0,-4.224,1,0.6,4.5,1.521,0.35,0.0168,0.4,0,51.47,0,-3.234,0,281.21,0.028,0,0,-0.46,0.09,0,0.03,281.21,0,0,0,0,0,0,0,46.446,0,0,0,3,0,0,0,2508.42,0,0,0,269.16,0,0,0,0,0,0,0,0,0,0,0,0,0,0,0,0,0,VALID,0,0,0,0,0,1,0,0,0,0,0,0,0,0,0,0,0,0,0,0,22.21,375.59,2,0,0.32,0.32,248,3.12,0.32,0.32,34.82,FLYING,CF1-J,0:/Integrated Flight Computer/aircraft/cf1_j_cfg.ks (inferred preloaded)
35.14,APPROACH,FLY_TO_FIX,81.51,85,3.49,1379.63,-0.64,6.52,6.94,281.12,0.074,0.4494,0,-3.123,1,0.6,4.5,1.521,0.35,0.0168,0.4,0,51.532,0,-3.441,0,281.21,0.027,0,0,-0.45,0.09,0,0.03,281.21,0,0,0,0,0,0,0,46.417,0,0,0,3,0,0,0,2506.92,0,0,0,269.16,0,0,0,0,0,0,0,0,0,0,0,0,0,0,0,0,0,VALID,0,0,0,0,0,1,0,0,0,0,0,0,0,0,0,0,0,0,0,0,24.8,375.73,2,0,0.32,0.32,249,3.12,0.32,0.32,35.14,FLYING,CF1-J,0:/Integrated Flight Computer/aircraft/cf1_j_cfg.ks (inferred preloaded)
35.46,APPROACH,FLY_TO_FIX,81.32,85,3.68,1379.43,-0.64,6.56,6.98,281.12,0.072,0.4729,0,-1.959,1,0.6,4.5,1.521,0.35,0.0168,0.4,0,51.591,0,-3.636,0,281.21,0.026,0,0,-0.45,0.08,0,0.03,281.21,0,0,0,0,0,0,0,46.389,0,0,0,3,0,0,0,2505.43,0,0,0,269.16,0,0,0,0,0,0,0,0,0,0,0,0,0,0,0,0,0,VALID,0,0,0,0,0,1,0,0,0,0,0,0,0,0,0,0,0,0,0,0,27.51,375.86,2,0,0.32,0.32,250,3.12,0.32,0.32,35.46,FLYING,CF1-J,0:/Integrated Flight Computer/aircraft/cf1_j_cfg.ks (inferred preloaded)
35.78,APPROACH,FLY_TO_FIX,81.14,85,3.86,1379.24,-0.63,6.6,7.01,281.13,0.07,0.4956,0,-0.738,1,0.6,4.5,1.521,0.35,0.0168,0.4,0,51.645,0,-3.817,0,281.21,0.025,0,0,-0.45,0.08,0,0.03,281.21,0,0,0,0,0,0,0,46.361,0,0,0,3,0,0,0,2503.95,0,0,0,269.16,0,0,0,0,0,0,0,0,0,0,0,0,0,0,0,0,0,VALID,0,0,0,0,0,1,0,0,0,0,0,0,0,0,0,0,0,0,0,0,30.34,375.98,2,0,0.32,0.32,251,3.12,0.32,0.32,35.78,FLYING,CF1-J,0:/Integrated Flight Computer/aircraft/cf1_j_cfg.ks (inferred preloaded)
36.1,APPROACH,FLY_TO_FIX,80.98,85,4.02,1379.04,-0.62,6.64,7.04,281.13,0.068,0.5173,0,0.537,1,0.6,4.5,1.521,0.35,0.0168,0.4,0,51.695,0,-3.985,0,281.21,0.024,0,0,-0.44,0.08,0,0.03,281.21,0,0,0,0,0,0,0,46.332,0,0,0,3,0,0,0,2502.46,0,0,0,269.16,0,0,0,0,0,0,0,0,0,0,0,0,0,0,0,0,0,VALID,0,0,0,0,0,1,0,0,0,0,0,0,0,0,0,0,0,0,0,0,33.28,376.09,2,0,0.32,0.32,252,3.12,0.32,0.32,36.1,FLYING,CF1-J,0:/Integrated Flight Computer/aircraft/cf1_j_cfg.ks (inferred preloaded)
36.42,APPROACH,FLY_TO_FIX,80.83,85,4.17,1378.85,-0.61,6.67,7.07,281.13,0.062,0.5379,0,1.861,1,0.6,4.5,1.521,0.35,0.0168,0.4,0,51.741,0,-4.138,0,281.21,0.022,0,0,-0.44,0.08,0,0.03,281.21,0,0,0,0,0,0,0,46.304,0,0,0,3,0,0,0,2500.98,0,0,0,269.16,0,0,0,0,0,0,0,0,0,0,0,0,0,0,0,0,0,VALID,0,0,0,0,0,1,0,0,0,0,0,0,0,0,0,0,0,0,0,0,36.33,376.2,2,0,0.32,0.32,253,3.12,0.32,0.32,36.42,FLYING,CF1-J,0:/Integrated Flight Computer/aircraft/cf1_j_cfg.ks (inferred preloaded)
36.74,APPROACH,FLY_TO_FIX,80.69,85,4.31,1378.66,-0.61,6.69,7.09,281.13,0.061,0.5573,0,3.23,1,0.6,4.5,1.521,0.35,0.0168,0.4,0,51.783,0,-4.276,0,281.21,0.021,0,0,-0.43,0.08,0,0.03,281.21,0,0,0,0,0,0,0,46.276,0,0,0,3,0,0,0,2499.5,0,0,0,269.16,0,0,0,0,0,0,0,0,0,0,0,0,0,0,0,0,0,VALID,0,0,0,0,0,1,0,0,0,0,0,0,0,0,0,0,0,0,0,0,39.47,376.29,2,0,0.32,0.32,254,3.12,0.32,0.32,36.74,FLYING,CF1-J,0:/Integrated Flight Computer/aircraft/cf1_j_cfg.ks (inferred preloaded)
37.06,APPROACH,FLY_TO_FIX,80.57,85,4.43,1378.47,-0.6,6.72,7.1,281.13,0.057,0.5755,0,4.637,1,0.6,4.5,1.521,0.35,0.0168,0.4,0,51.819,0,-4.398,0,281.21,0.019,0,0,-0.43,0.08,0,0.02,281.21,0,0,0,0,0,0,0,46.248,0,0,0,3,0,0,0,2498.03,0,0,0,269.16,0,0,0,0,0,0,0,0,0,0,0,0,0,0,0,0,0,VALID,0,0,0,0,0,1,0,0,0,0,0,0,0,0,0,0,0,0,0,0,42.69,376.38,2,0,0.32,0.32,255,3.12,0.32,0.32,37.06,FLYING,CF1-J,0:/Integrated Flight Computer/aircraft/cf1_j_cfg.ks (inferred preloaded)
