t_s,phase,subphase,ias_ms,vapp_ms,spd_err_ms,agl_m,gear_h_m,vs_ms,pitch_deg,aoa_deg,hdg_deg,bank_deg,thr_cmd,thr_cur,thr_intg,at_gain,at_tau_s,at_a_up,at_a_dn,at_kp_thr,at_ki_spd,at_thr_slew,as_cmd_deg,as_cap_deg,as_raw_deg,as_spd_err_ms,as_active,aa_hdg_cmd_deg,aa_fpa_cmd_deg,aa_fbw,aa_dir,actual_fpa_deg,ftf_hdg_err_deg,ftf_fix_idx,kos_steer_pit_deg,kos_steer_hdg_deg,aa_dir_vx,aa_dir_vy,aa_dir_vz,aa_dir_pitch_deg,aa_dir_hdg_deg,ils_loc_m,ils_gs_m,ils_dist_km,loc_corr_deg,gs_corr_deg,gs_latched,active_gs_ang_deg,ils_intercept_alt_m,d_gs_ms,fpa_preclamped_deg,gs_nom_alt_m,flare_fpa_cmd,flare_tgt_vs,flare_frac,flare_round_blend_h,flare_round_blend_ttg,flare_round_blend,flare_mode,flare_auth_limited,flare_auth_reason,flare_vs_err,flare_fpa_err,flare_pitch_err,flare_theta_cmd_raw,flare_theta_cmd_clamped,flare_theta_clamp_active,flare_aoa_clamp_active,flare_pitch_in_cmd,elev_defl_avg_deg,elev_defl_max_deg,elev_defl_n,flare_ctrl_h_m,flare_req_up_a,flare_thr_floor,flare_tecs_et_err,flare_tecs_eb_err,flare_tecs_h_ref,flare_tecs_v_ref,flare_gamma_ref,flare_gamma_eb_term,flare_gamma_unsat,steer_hdg_deg,steer_blend,ro_loc_corr_deg,ro_hdg_err_deg,ro_yaw_tgt,ro_yaw_scale,ro_yaw_gate,yaw_cmd,roll_cmd,pitch_cmd,ro_pitch_tgt_deg,ro_pitch_err_deg,ro_pitch_ff,ro_roll_assist,flaps_cur,flaps_tgt,asc_j_ab,asc_j_rk,asc_validity,asc_q_pa,asc_q_raw_pa,asc_mach,asc_apo_m,asc_drag_n,asc_w_prop,asc_edot_aero,asc_edot_orb,asc_pitch_bias,asc_blend,asc_spooling,asc_ab_thr_ratio,asc_ab_t_now,asc_ab_t_avail,asc_ab_ign_on,asc_ab_flameouts,asc_rk_t_now,asc_rk_t_avail,asc_rk_ign_on,asc_rk_flameouts,ship_thrust,ship_avail_thrust,ship_ign_on,ship_flameouts,ifc_raw_dt_s,ifc_dt_s,ifc_loop_n,ifc_hz_est,ifc_raw_dt_max_s,ifc_raw_dt_min_s,phase_el_s,status,craft_name,cfg_file
0.42,CRUISE,,85.01,80,-5.01,860.2,860.2,0,3.13,3.13,331.78,-0.008,0.14,0,20,1,0.6,0.9,0.75,0.35,0.0168,0.4,0,45,0,-174.99,0,358.28,0,1,0,0,0,0,0,90,0,0,0,0,0,0,0,0,0,0,0,3,0,0,0,69,0,0,0,0,0,0,,0,NONE,0,0,0,0,0,0,0,0,0,0,0,860.2,0,0,0,0,0,0,0,0,0,331.78,0,0,0,0,0,0,0,0,0,0,0,0,0,0,0,0,0,VALID,0,0,0,0,0,1,0,0,0,0,0,0,0,0,0,0,0,0,0,0,109.16,395.31,2,0,0.35,0.35,1,3.12,0.35,0.02,0.07,FLYING,CF1-J,0:/Integrated Flight Computer/aircraft/cf1_j_cfg.ks (inferred preloaded)
0.74,CRUISE,,84.99,80,-4.99,860.34,860.34,-0.13,3.96,4.05,331.82,0.437,0.28,0,20,1,0.6,1.729,0.75,0.35,0.0168,0.4,0,45,0,-175.001,0,358.28,0,0,0,-0.09,0,0,0,90,0,0,0,0,0,0,0,0,0,0,0,3,0,0,0,69,0,0,0,0,0,0,,0,NONE,0,0,0,0,0,0,0,0,0,0,0,860.34,0,0,0,0,0,0,0,0,0,331.78,0,0,0,0,0,0,0,0,0,0,0,0,0,0,0,0,0,VALID,0,0,0,0,0,1,0,0,0,0,0,0,0,0,0,0,0,0,0,0,105.86,395.33,2,0,0.105,0.105,4,8.57,0.35,0.105,0.39,FLYING,CF1-J,0:/Integrated Flight Computer/aircraft/cf1_j_cfg.ks (inferred preloaded)
1.05,CRUISE,,84.87,80,-4.87,860.84,860.84,0.52,6.77,6.54,332.05,2.056,0.406,0,19.701,1,0.6,2.696,0.75,0.35,0.0168,0.4,0,45,0,-175.112,0,358.28,0,0,0,0.26,0,0,0,90,0,0,0,0,0,0,0,0,0,0,0,3,0,0,0,69,0,0,0,0,0,0,,0,NONE,0,0,0,0,0,0,0,0,0,0,0,860.84,0,0,0,0,0,0,0,0,0,331.78,0,0,0,0,0,0,0,0,0,0,0,0,0,0,0,0,0,VALID,0,0,0,0,0,1,0,0,0,0,0,0,0,0,0,0,0,0,0,0,106.1,395.41,2,0,0.105,0.105,7,9.52,0.105,0.105,0.7,FLYING,CF1-J,0:/Integrated Flight Computer/aircraft/cf1_j_cfg.ks (inferred preloaded)
1.37,CRUISE,,84.57,80,-4.57,861.49,861.49,2,8.45,7.32,332.5,4.582,0.532,0,19.407,1,0.6,3.45,0.75,0.35,0.0168,0.4,0,45,0,-175.391,0,358.28,0,0,0,1.25,0,0,-0.01,90,0,0,0,0,0,0,0,0,0,0,0,3,0,0,0,69,0,0,0,0,0,0,,0,NONE,0,0,0,0,0,0,0,0,0,0,0,861.49,0,0,0,0,0,0,0,0,0,331.78,0,0,0,0,0,0,0,0,0,0,0,0,0,0,0,0,0,VALID,0,0,0,0,0,1,0,0,0,0,0,0,0,0,0,0,0,0,0,0,107.38,395.58,2,0,0.105,0.105,10,9.52,0.105,0.105,1.02,FLYING,CF1-J,0:/Integrated Flight Computer/aircraft/cf1_j_cfg.ks (inferred preloaded)
1.68,CRUISE,,84.17,80,-4.17,862.4,862.4,3.15,8.82,6.98,333.1,7.671,0.658,0,19.118,1,0.6,4.037,0.75,0.35,0.0168,0.4,0,45,0,-175.786,0,358.29,0,0,0,2.07,0,0,-0.01,90,0,0,0,0,0,0,0,0,0,0,0,3,0,0,0,69,0,0,0,0,0,0,,0,NONE,0,0,0,0,0,0,0,0,0,0,0,862.4,0,0,0,0,0,0,0,0,0,331.78,0,0,0,0,0,0,0,0,0,0,0,0,0,0,0,0,0,VALID,0,0,0,0,0,1,0,0,0,0,0,0,0,0,0,0,0,0,0,0,109.58,395.79,2,0,0.105,0.105,13,9.52,0.105,0.105,1.33,FLYING,CF1-J,0:/Integrated Flight Computer/aircraft/cf1_j_cfg.ks (inferred preloaded)
2,CRUISE,,83.76,80,-3.76,863.8,863.8,4.22,10.16,7.75,334.02,10.584,0.784,0,18.832,1,0.6,4.495,0.75,0.35,0.0168,0.4,0,45,0,-176.192,0,358.29,0,0,0,2.78,0,0,-0.01,90,0,0,0,0,0,0,0,0,0,0,0,3,0,0,0,69,0,0,0,0,0,0,,0,NONE,0,0,0,0,0,0,0,0,0,0,0,863.8,0,0,0,0,0,0,0,0,0,331.78,0,0,0,0,0,0,0,0,0,0,0,0,0,0,0,0,0,VALID,0,0,0,0,0,1,0,0,0,0,0,0,0,0,0,0,0,0,0,0,112.67,396,2,0,0.105,0.105,16,9.52,0.105,0.105,1.65,FLYING,CF1-J,0:/Integrated Flight Computer/aircraft/cf1_j_cfg.ks (inferred preloaded)
2.31,CRUISE,,83.32,80,-3.32,865.55,865.55,5.58,11.41,8.2,334.99,12.325,0.91,0,18.551,1,0.6,4.5,0.75,0.35,0.0168,0.4,0,45,0,-176.624,0,358.29,0,0,0,3.73,0,0,-0.01,90,0,0,0,0,0,0,0,0,0,0,0,3,0,0,0,69,0,0,0,0,0,0,,0,NONE,0,0,0,0,0,0,0,0,0,0,0,865.55,0,0,0,0,0,0,0,0,0,331.78,0,0,0,0,0,0,0,0,0,0,0,0,0,0,0,0,0,VALID,0,0,0,0,0,1,0,0,0,0,0,0,0,0,0,0,0,0,0,0,116.65,396.2,2,0,0.105,0.105,19,9.52,0.105,0.105,1.96,FLYING,CF1-J,0:/Integrated Flight Computer/aircraft/cf1_j_cfg.ks (inferred preloaded)
2.63,CRUISE,,82.84,80,-2.84,867.65,867.65,6.84,12.19,8.18,335.75,12.829,1,0,18.274,1,0.6,4.5,0.75,0.35,0.0168,0.4,0,45,0,-177.104,0,358.29,0,0,0,4.63,0,0,-0.01,90,0,0,0,0,0,0,0,0,0,0,0,3,0,0,0,69,0,0,0,0,0,0,,0,NONE,0,0,0,0,0,0,0,0,0,0,0,867.65,0,0,0,0,0,0,0,0,0,331.78,0,0,0,0,0,0,0,0,0,0,0,0,0,0,0,0,0,VALID,0,0,0,0,0,1,0,0,0,0,0,0,0,0,0,0,0,0,0,0,121.49,396.41,2,0,0.105,0.105,22,9.52,0.105,0.105,2.28,FLYING,CF1-J,0:/Integrated Flight Computer/aircraft/cf1_j_cfg.ks (inferred preloaded)
2.94,CRUISE,,82.35,80,-2.35,870.14,870.14,8.05,12.94,8.12,336.37,13.061,1,0,18.002,1,0.6,4.5,0.75,0.35,0.0168,0.4,0,45,0,-177.595,0,358.29,0,0,0,5.49,0,0,-0.01,90,0,0,0,0,0,0,0,0,0,0,0,3,0,0,0,69,0,0,0,0,0,0,,0,NONE,0,0,0,0,0,0,0,0,0,0,0,870.14,0,0,0,0,0,0,0,0,0,331.78,0,0,0,0,0,0,0,0,0,0,0,0,0,0,0,0,0,VALID,0,0,0,0,0,1,0,0,0,0,0,0,0,0,0,0,0,0,0,0,126.7,396.6,2,0,0.105,0.105,25,9.52,0.105,0.105,2.59,FLYING,CF1-J,0:/Integrated Flight Computer/aircraft/cf1_j_cfg.ks (inferred preloaded)
3.29,CRUISE,,81.81,80,-1.81,873.32,873.32,9.29,13.76,8.1,337.05,13.201,1,0,17.733,1,0.6,4.5,0.75,0.35,0.0168,0.4,0,45,0,-178.14,0,358.29,0,0,0,6.39,0,0,-0.01,90,0,0,0,0,0,0,0,0,0,0,0,3,0,0,0,69,0,0,0,0,0,0,,0,NONE,0,0,0,0,0,0,0,0,0,0,0,873.32,0,0,0,0,0,0,0,0,0,331.78,0,0,0,0,0,0,0,0,0,0,0,0,0,0,0,0,0,VALID,0,0,0,0,0,1,0,0,0,0,0,0,0,0,0,0,0,0,0,0,132.38,396.79,2,0,0.105,0.105,28,8.57,0.14,0.105,2.94,FLYING,CF1-J,0:/Integrated Flight Computer/aircraft/cf1_j_cfg.ks (inferred preloaded)
3.61,CRUISE,,81.32,80,-1.32,876.55,876.55,10.36,14.47,8.06,337.67,13.26,1,0,17.468,1,0.6,4.5,0.75,0.35,0.0168,0.4,0,45,0,-178.629,0,358.29,0,0,0,7.18,0,0,-0.01,90,0,0,0,0,0,0,0,0,0,0,0,3,0,0,0,69,0,0,0,0,0,0,,0,NONE,0,0,0,0,0,0,0,0,0,0,0,876.55,0,0,0,0,0,0,0,0,0,331.78,0,0,0,0,0,0,0,0,0,0,0,0,0,0,0,0,0,VALID,0,0,0,0,0,1,0,0,0,0,0,0,0,0,0,0,0,0,0,0,137.39,396.95,2,0,0.105,0.105,31,9.52,0.105,0.105,3.26,FLYING,CF1-J,0:/Integrated Flight Computer/aircraft/cf1_j_cfg.ks (inferred preloaded)
3.96,CRUISE,,80.78,80,-0.78,880.51,880.51,11.48,15.22,8.03,338.36,13.26,1,0,17.208,1,0.6,4.5,0.75,0.35,0.0168,0.4,0,45,0,-179.171,0,358.29,0,0,0,8.01,0,0,-0.02,90,0,0,0,0,0,0,0,0,0,0,0,3,0,0,0,69,0,0,0,0,0,0,,0,NONE,0,0,0,0,0,0,0,0,0,0,0,880.51,0,0,0,0,0,0,0,0,0,331.78,0,0,0,0,0,0,0,0,0,0,0,0,0,0,0,0,0,VALID,0,0,0,0,0,1,0,0,0,0,0,0,0,0,0,0,0,0,0,0,142.84,397.1,2,0,0.105,0.105,34,8.57,0.14,0.105,3.61,FLYING,CF1-J,0:/Integrated Flight Computer/aircraft/cf1_j_cfg.ks (inferred preloaded)
4.27,CRUISE,,80.29,80,-0.29,884.4,884.4,12.44,15.87,8,338.97,13.212,1,0,16.951,1,0.6,4.5,0.75,0.35,0.0168,0.4,0,45,0,-179.655,0,358.29,0,0,0,8.73,0,0,-0.02,90,0,0,0,0,0,0,0,0,0,0,0,3,0,0,0,69,0,0,0,0,0,0,,0,NONE,0,0,0,0,0,0,0,0,0,0,0,884.4,0,0,0,0,0,0,0,0,0,331.78,0,0,0,0,0,0,0,0,0,0,0,0,0,0,0,0,0,VALID,0,0,0,0,0,1,0,0,0,0,0,0,0,0,0,0,0,0,0,0,147.65,397.21,2,0,0.105,0.105,37,9.52,0.105,0.105,3.92,FLYING,CF1-J,0:/Integrated Flight Computer/aircraft/cf1_j_cfg.ks (inferred preloaded)
4.62,CRUISE,,79.76,80,0.24,889.05,889.05,13.44,16.57,7.96,339.65,13.111,1,0,16.698,1,0.6,4.5,0.75,0.35,0.0168,0.4,0,45,0,-180.188,0,358.29,0,0,0,9.49,0,0,-0.02,90,0,0,0,0,0,0,0,0,0,0,0,3,0,0,0,69,0,0,0,0,0,0,,0,NONE,0,0,0,0,0,0,0,0,0,0,0,889.05,0,0,0,0,0,0,0,0,0,331.78,0,0,0,0,0,0,0,0,0,0,0,0,0,0,0,0,0,VALID,0,0,0,0,0,1,0,0,0,0,0,0,0,0,0,0,0,0,0,0,152.88,397.32,2,0,0.105,0.105,40,8.57,0.14,0.105,4.27,FLYING,CF1-J,0:/Integrated Flight Computer/aircraft/cf1_j_cfg.ks (inferred preloaded)
4.94,CRUISE,,79.28,80,0.72,893.53,893.53,14.29,17.18,7.94,340.24,12.983,1,0,16.449,1,0.6,4.5,0.75,0.35,0.0168,0.4,0,45,0,-180.664,0,358.29,0,0,0,10.15,0,0,-0.02,90,0,0,0,0,0,0,0,0,0,0,0,3,0,0,0,69,0,0,0,0,0,0,,0,NONE,0,0,0,0,0,0,0,0,0,0,0,893.53,0,0,0,0,0,0,0,0,0,331.78,0,0,0,0,0,0,0,0,0,0,0,0,0,0,0,0,0,VALID,0,0,0,0,0,1,0,0,0,0,0,0,0,0,0,0,0,0,0,0,157.5,397.4,2,0,0.105,0.105,43,9.52,0.105,0.105,4.59,FLYING,CF1-J,0:/Integrated Flight Computer/aircraft/cf1_j_cfg.ks (inferred preloaded)
5.25,CRUISE,,78.81,80,1.19,898.26,898.26,15.1,17.76,7.91,340.83,12.825,1,0,16.203,1,0.6,4.5,0.75,0.35,0.0168,0.4,0,45,0,-181.136,0,358.29,0,0,0,10.78,0,0,-0.02,90,0,0,0,0,0,0,0,0,0,0,0,3,0,0,0,69,0,0,0,0,0,0,,0,NONE,0,0,0,0,0,0,0,0,0,0,0,898.26,0,0,0,0,0,0,0,0,0,331.78,0,0,0,0,0,0,0,0,0,0,0,0,0,0,0,0,0,VALID,0,0,0,0,0,1,0,0,0,0,0,0,0,0,0,0,0,0,0,0,162.02,397.46,2,0,0.105,0.105,46,9.52,0.105,0.105,4.9,FLYING,CF1-J,0:/Integrated Flight Computer/aircraft/cf1_j_cfg.ks (inferred preloaded)
5.57,CRUISE,,78.35,80,1.65,903.24,903.24,15.87,18.32,7.89,341.41,12.642,1,0,15.961,1,0.6,4.5,0.75,0.35,0.0168,0.4,0,45,0,-181.602,0,358.29,0,0,0,11.38,0,0,-0.02,90,0,0,0,0,0,0,0,0,0,0,0,3,0,0,0,69,0,0,0,0,0,0,,0,NONE,0,0,0,0,0,0,0,0,0,0,0,903.24,0,0,0,0,0,0,0,0,0,331.78,0,0,0,0,0,0,0,0,0,0,0,0,0,0,0,0,0,VALID,0,0,0,0,0,1,0,0,0,0,0,0,0,0,0,0,0,0,0,0,166.45,397.51,2,0,0.105,0.105,49,9.52,0.105,0.105,5.22,FLYING,CF1-J,0:/Integrated Flight Computer/aircraft/cf1_j_cfg.ks (inferred preloaded)
5.92,CRUISE,,77.84,80,2.16,909.04,909.04,16.67,18.92,7.86,342.04,12.412,1,0,15.723,1,0.6,4.5,0.75,0.35,0.0168,0.4,0,45,0,-182.114,0,358.29,0,0,0,12.02,0,0,-0.02,90,0,0,0,0,0,0,0,0,0,0,0,3,0,0,0,69,0,0,0,0,0,0,,0,NONE,0,0,0,0,0,0,0,0,0,0,0,909.04,0,0,0,0,0,0,0,0,0,331.78,0,0,0,0,0,0,0,0,0,0,0,0,0,0,0,0,0,VALID,0,0,0,0,0,1,0,0,0,0,0,0,0,0,0,0,0,0,0,0,171.27,397.54,2,0,0.105,0.105,52,8.57,0.14,0.105,5.57,FLYING,CF1-J,0:/Integrated Flight Computer/aircraft/cf1_j_cfg.ks (inferred preloaded)
6.23,CRUISE,,77.38,80,2.62,914.49,914.49,17.35,19.45,7.85,342.59,12.188,1,0,15.488,1,0.6,4.5,0.75,0.35,0.0168,0.4,0,45,0,-182.568,0,358.29,0,0,0,12.58,0,0,-0.02,90,0,0,0,0,0,0,0,0,0,0,0,3,0,0,0,69,0,0,0,0,0,0,,0,NONE,0,0,0,0,0,0,0,0,0,0,0,914.49,0,0,0,0,0,0,0,0,0,331.78,0,0,0,0,0,0,0,0,0,0,0,0,0,0,0,0,0,VALID,0,0,0,0,0,1,0,0,0,0,0,0,0,0,0,0,0,0,0,0,175.52,397.55,2,0,0.105,0.105,55,9.52,0.105,0.105,5.88,FLYING,CF1-J,0:/Integrated Flight Computer/aircraft/cf1_j_cfg.ks (inferred preloaded)
6.58,CRUISE,,76.89,80,3.11,920.79,920.79,18.07,20.01,7.83,343.19,11.921,1,0,15.257,1,0.6,4.5,0.75,0.35,0.0168,0.4,0,45,0,-183.066,0,358.29,0,0,0,13.17,0,0,-0.02,90,0,0,0,0,0,0,0,0,0,0,0,3,0,0,0,69,0,0,0,0,0,0,,0,NONE,0,0,0,0,0,0,0,0,0,0,0,920.79,0,0,0,0,0,0,0,0,0,331.78,0,0,0,0,0,0,0,0,0,0,0,0,0,0,0,0,0,VALID,0,0,0,0,0,1,0,0,0,0,0,0,0,0,0,0,0,0,0,0,180.14,397.55,2,0,0.105,0.105,58,8.57,0.14,0.105,6.23,FLYING,CF1-J,0:/Integrated Flight Computer/aircraft/cf1_j_cfg.ks (inferred preloaded)
6.9,CRUISE,,76.44,80,3.56,926.66,926.66,18.67,20.5,7.82,343.71,11.668,1,0,15.03,1,0.6,4.5,0.75,0.35,0.0168,0.4,0,45,0,-183.507,0,358.29,0,0,0,13.67,0,0,-0.02,90,0,0,0,0,0,0,0,0,0,0,0,3,0,0,0,69,0,0,0,0,0,0,,0,NONE,0,0,0,0,0,0,0,0,0,0,0,926.66,0,0,0,0,0,0,0,0,0,331.78,0,0,0,0,0,0,0,0,0,0,0,0,0,0,0,0,0,VALID,0,0,0,0,0,1,0,0,0,0,0,0,0,0,0,0,0,0,0,0,184.21,397.53,2,0,0.105,0.105,61,9.52,0.105,0.105,6.55,FLYING,CF1-J,0:/Integrated Flight Computer/aircraft/cf1_j_cfg.ks (inferred preloaded)
7.25,CRUISE,,75.96,80,4.04,933.4,933.4,19.31,21.03,7.81,344.28,11.377,1,0,14.805,1,0.6,4.5,0.75,0.35,0.0168,0.4,0,45,0,-183.99,0,358.29,0,0,0,14.21,0,0,-0.02,90,0,0,0,0,0,0,0,0,0,0,0,3,0,0,0,69,0,0,0,0,0,0,,0,NONE,0,0,0,0,0,0,0,0,0,0,0,933.4,0,0,0,0,0,0,0,0,0,331.78,0,0,0,0,0,0,0,0,0,0,0,0,0,0,0,0,0,VALID,0,0,0,0,0,1,0,0,0,0,0,0,0,0,0,0,0,0,0,0,188.63,397.5,2,0,0.105,0.105,64,8.57,0.14,0.105,6.9,FLYING,CF1-J,0:/Integrated Flight Computer/aircraft/cf1_j_cfg.ks (inferred preloaded)
7.56,CRUISE,,75.54,80,4.46,939.65,939.65,19.85,21.49,7.8,344.77,11.109,1,0,14.584,1,0.6,4.5,0.75,0.35,0.0168,0.4,0,45,0,-184.417,0,358.29,0,0,0,14.68,0,0,-0.03,90,0,0,0,0,0,0,0,0,0,0,0,3,0,0,0,69,0,0,0,0,0,0,,0,NONE,0,0,0,0,0,0,0,0,0,0,0,939.65,0,0,0,0,0,0,0,0,0,331.78,0,0,0,0,0,0,0,0,0,0,0,0,0,0,0,0,0,VALID,0,0,0,0,0,1,0,0,0,0,0,0,0,0,0,0,0,0,0,0,192.52,397.45,2,0,0.105,0.105,67,9.52,0.105,0.105,7.21,FLYING,CF1-J,0:/Integrated Flight Computer/aircraft/cf1_j_cfg.ks (inferred preloaded)
7.91,CRUISE,,75.07,80,4.93,946.78,946.78,20.43,21.99,7.8,345.31,10.806,1,0,14.367,1,0.6,4.5,0.75,0.35,0.0168,0.4,0,45,0,-184.885,0,358.29,0,0,0,15.17,0,0,-0.03,90,0,0,0,0,0,0,0,0,0,0,0,3,0,0,0,69,0,0,0,0,0,0,,0,NONE,0,0,0,0,0,0,0,0,0,0,0,946.78,0,0,0,0,0,0,0,0,0,331.78,0,0,0,0,0,0,0,0,0,0,0,0,0,0,0,0,0,VALID,0,0,0,0,0,1,0,0,0,0,0,0,0,0,0,0,0,0,0,0,196.75,397.38,2,0,0.105,0.105,70,8.57,0.14,0.105,7.56,FLYING,CF1-J,0:/Integrated Flight Computer/aircraft/cf1_j_cfg.ks (inferred preloaded)
8.23,CRUISE,,74.66,80,5.34,953.37,953.37,20.91,22.43,7.8,345.78,10.53,1,0,14.152,1,0.6,4.5,0.75,0.35,0.0168,0.4,0,45,0,-185.298,0,358.29,0,0,0,15.6,0,0,-0.03,90,0,0,0,0,0,0,0,0,0,0,0,3,0,0,0,69,0,0,0,0,0,0,,0,NONE,0,0,0,0,0,0,0,0,0,0,0,953.37,0,0,0,0,0,0,0,0,0,331.78,0,0,0,0,0,0,0,0,0,0,0,0,0,0,0,0,0,VALID,0,0,0,0,0,1,0,0,0,0,0,0,0,0,0,0,0,0,0,0,200.48,397.31,2,0,0.105,0.105,73,9.52,0.105,0.105,7.88,FLYING,CF1-J,0:/Integrated Flight Computer/aircraft/cf1_j_cfg.ks (inferred preloaded)
8.58,CRUISE,,74.21,80,5.79,960.85,960.85,21.42,22.89,7.8,346.28,10.219,1,0,13.941,1,0.6,4.5,0.75,0.35,0.0168,0.4,0,45,0,-185.75,0,358.29,0,0,0,16.06,0,0,-0.03,90,0,0,0,0,0,0,0,0,0,0,0,3,0,0,0,69,0,0,0,0,0,0,,0,NONE,0,0,0,0,0,0,0,0,0,0,0,960.85,0,0,0,0,0,0,0,0,0,331.78,0,0,0,0,0,0,0,0,0,0,0,0,0,0,0,0,0,VALID,0,0,0,0,0,1,0,0,0,0,0,0,0,0,0,0,0,0,0,0,204.52,397.22,2,0,0.105,0.105,76,8.57,0.14,0.105,8.23,FLYING,CF1-J,0:/Integrated Flight Computer/aircraft/cf1_j_cfg.ks (inferred preloaded)
8.93,CRUISE,,73.76,80,6.24,968.51,968.51,21.9,23.34,7.8,346.77,9.907,1,0,13.733,1,0.6,4.5,0.75,0.35,0.0168,0.4,0,45,0,-186.194,0,358.29,0,0,0,16.5,0,0,-0.03,90,0,0,0,0,0,0,0,0,0,0,0,3,0,0,0,69,0,0,0,0,0,0,,0,NONE,0,0,0,0,0,0,0,0,0,0,0,968.51,0,0,0,0,0,0,0,0,0,331.78,0,0,0,0,0,0,0,0,0,0,0,0,0,0,0,0,0,VALID,0,0,0,0,0,1,0,0,0,0,0,0,0,0,0,0,0,0,0,0,208.48,397.11,2,0,0.105,0.105,79,8.57,0.14,0.105,8.58,FLYING,CF1-J,0:/Integrated Flight Computer/aircraft/cf1_j_cfg.ks (inferred preloaded)
9.28,CRUISE,,73.33,80,6.67,976.33,976.33,22.36,23.77,7.81,347.24,9.595,1,0,13.528,1,0.6,4.5,0.75,0.35,0.0168,0.4,0,45,0,-186.628,0,358.29,0,0,0,16.92,0,0,-0.03,90,0,0,0,0,0,0,0,0,0,0,0,3,0,0,0,69,0,0,0,0,0,0,,0,NONE,0,0,0,0,0,0,0,0,0,0,0,976.33,0,0,0,0,0,0,0,0,0,331.78,0,0,0,0,0,0,0,0,0,0,0,0,0,0,0,0,0,VALID,0,0,0,0,0,1,0,0,0,0,0,0,0,0,0,0,0,0,0,0,212.34,396.99,2,0,0.105,0.105,82,8.57,0.14,0.105,8.93,FLYING,CF1-J,0:/Integrated Flight Computer/aircraft/cf1_j_cfg.ks (inferred preloaded)
9.59,CRUISE,,72.95,80,7.05,983.5,983.5,22.75,24.15,7.81,347.65,9.315,1,0,13.326,1,0.6,4.5,0.75,0.35,0.0168,0.4,0,45,0,-187.012,0,358.29,0,0,0,17.28,0,0,-0.03,90,0,0,0,0,0,0,0,0,0,0,0,3,0,0,0,69,0,0,0,0,0,0,,0,NONE,0,0,0,0,0,0,0,0,0,0,0,983.5,0,0,0,0,0,0,0,0,0,331.78,0,0,0,0,0,0,0,0,0,0,0,0,0,0,0,0,0,VALID,0,0,0,0,0,1,0,0,0,0,0,0,0,0,0,0,0,0,0,0,215.73,396.87,2,0,0.105,0.105,85,9.52,0.105,0.105,9.24,FLYING,CF1-J,0:/Integrated Flight Computer/aircraft/cf1_j_cfg.ks (inferred preloaded)
9.94,CRUISE,,72.53,80,7.47,991.6,991.6,23.15,24.57,7.82,348.09,9.006,1,0,13.127,1,0.6,4.5,0.75,0.35,0.0168,0.4,0,45,0,-187.431,0,358.29,0,0,0,17.67,0,0,-0.03,90,0,0,0,0,0,0,0,0,0,0,0,3,0,0,0,69,0,0,0,0,0,0,,0,NONE,0,0,0,0,0,0,0,0,0,0,0,991.6,0,0,0,0,0,0,0,0,0,331.78,0,0,0,0,0,0,0,0,0,0,0,0,0,0,0,0,0,VALID,0,0,0,0,0,1,0,0,0,0,0,0,0,0,0,0,0,0,0,0,219.42,396.72,2,0,0.105,0.105,88,8.57,0.14,0.105,9.59,FLYING,CF1-J,0:/Integrated Flight Computer/aircraft/cf1_j_cfg.ks (inferred preloaded)
10.26,CRUISE,,72.16,80,7.84,999,999,23.5,24.93,7.84,348.48,8.732,1,0,12.931,1,0.6,4.5,0.75,0.35,0.0168,0.4,0,45,0,-187.801,0,358.29,0,0,0,18,0,0,-0.03,90,0,0,0,0,0,0,0,0,0,0,0,3,0,0,0,69,0,0,0,0,0,0,,0,NONE,0,0,0,0,0,0,0,0,0,0,0,999,0,0,0,0,0,0,0,0,0,331.78,0,0,0,0,0,0,0,0,0,0,0,0,0,0,0,0,0,VALID,0,0,0,0,0,1,0,0,0,0,0,0,0,0,0,0,0,0,0,0,222.67,396.58,2,0,0.105,0.105,91,9.52,0.105,0.105,9.91,FLYING,CF1-J,0:/Integrated Flight Computer/aircraft/cf1_j_cfg.ks (inferred preloaded)
10.61,CRUISE,,71.76,80,8.24,1007.36,1007.36,23.86,25.32,7.86,348.89,8.433,1,0,12.738,1,0.6,4.5,0.75,0.35,0.0168,0.4,0,45,0,-188.204,0,358.29,0,0,0,18.36,0,0,-0.03,90,0,0,0,0,0,0,0,0,0,0,0,3,0,0,0,69,0,0,0,0,0,0,,0,NONE,0,0,0,0,0,0,0,0,0,0,0,1007.36,0,0,0,0,0,0,0,0,0,331.78,0,0,0,0,0,0,0,0,0,0,0,0,0,0,0,0,0,VALID,0,0,0,0,0,1,0,0,0,0,0,0,0,0,0,0,0,0,0,0,226.19,396.41,2,0,0.105,0.105,94,8.57,0.14,0.105,10.26,FLYING,CF1-J,0:/Integrated Flight Computer/aircraft/cf1_j_cfg.ks (inferred preloaded)
10.92,CRUISE,,71.4,80,8.6,1014.98,1014.98,24.18,25.67,7.88,349.25,8.168,1,0,12.548,1,0.6,4.5,0.75,0.35,0.0168,0.4,0,45,0,-188.56,0,358.29,0,0,0,18.67,0,0,-0.03,90,0,0,0,0,0,0,0,0,0,0,0,3,0,0,0,69,0,0,0,0,0,0,,0,NONE,0,0,0,0,0,0,0,0,0,0,0,1014.98,0,0,0,0,0,0,0,0,0,331.78,0,0,0,0,0,0,0,0,0,0,0,0,0,0,0,0,0,VALID,0,0,0,0,0,1,0,0,0,0,0,0,0,0,0,0,0,0,0,0,229.29,396.25,2,0,0.105,0.105,97,9.52,0.105,0.105,10.57,FLYING,CF1-J,0:/Integrated Flight Computer/aircraft/cf1_j_cfg.ks (inferred preloaded)
11.27,CRUISE,,71.01,80,8.99,1023.56,1023.56,24.51,26.04,7.9,349.64,7.881,1,0,12.361,1,0.6,4.5,0.75,0.35,0.0168,0.4,0,45,0,-188.948,0,358.29,0,0,0,19.01,0,0,-0.03,90,0,0,0,0,0,0,0,0,0,0,0,3,0,0,0,69,0,0,0,0,0,0,,0,NONE,0,0,0,0,0,0,0,0,0,0,0,1023.56,0,0,0,0,0,0,0,0,0,331.78,0,0,0,0,0,0,0,0,0,0,0,0,0,0,0,0,0,VALID,0,0,0,0,0,1,0,0,0,0,0,0,0,0,0,0,0,0,0,0,232.65,396.06,2,0,0.105,0.105,100,8.57,0.14,0.105,10.92,FLYING,CF1-J,0:/Integrated Flight Computer/aircraft/cf1_j_cfg.ks (inferred preloaded)
11.59,CRUISE,,70.67,80,9.33,1031.38,1031.38,24.79,26.37,7.92,349.98,7.627,1,0,12.176,1,0.6,4.5,0.75,0.35,0.0168,0.4,0,45,0,-189.29,0,358.29,0,0,0,19.3,0,0,-0.03,90,0,0,0,0,0,0,0,0,0,0,0,3,0,0,0,69,0,0,0,0,0,0,,0,NONE,0,0,0,0,0,0,0,0,0,0,0,1031.38,0,0,0,0,0,0,0,0,0,331.78,0,0,0,0,0,0,0,0,0,0,0,0,0,0,0,0,0,VALID,0,0,0,0,0,1,0,0,0,0,0,0,0,0,0,0,0,0,0,0,235.61,395.88,2,0,0.105,0.105,103,9.52,0.105,0.105,11.24,FLYING,CF1-J,0:/Integrated Flight Computer/aircraft/cf1_j_cfg.ks (inferred preloaded)
11.94,CRUISE,,70.3,80,9.7,1040.16,1040.16,25.09,26.72,7.95,350.34,7.352,1,0,11.995,1,0.6,4.5,0.75,0.35,0.0168,0.4,0,45,0,-189.664,0,358.29,0,0,0,19.61,0,0,-0.03,90,0,0,0,0,0,0,0,0,0,0,0,3,0,0,0,69,0,0,0,0,0,0,,0,NONE,0,0,0,0,0,0,0,0,0,0,0,1040.16,0,0,0,0,0,0,0,0,0,331.78,0,0,0,0,0,0,0,0,0,0,0,0,0,0,0,0,0,VALID,0,0,0,0,0,1,0,0,0,0,0,0,0,0,0,0,0,0,0,0,238.82,395.67,2,0,0.105,0.105,106,8.57,0.14,0.105,11.59,FLYING,CF1-J,0:/Integrated Flight Computer/aircraft/cf1_j_cfg.ks (inferred preloaded)
12.29,CRUISE,,69.93,80,10.07,1049.05,1049.05,25.37,27.06,7.97,350.68,7.084,1,0,11.816,1,0.6,4.5,0.75,0.35,0.0168,0.4,0,45,0,-190.029,0,358.29,0,0,0,19.91,0,0,-0.03,90,0,0,0,0,0,0,0,0,0,0,0,3,0,0,0,69,0,0,0,0,0,0,,0,NONE,0,0,0,0,0,0,0,0,0,0,0,1049.05,0,0,0,0,0,0,0,0,0,331.78,0,0,0,0,0,0,0,0,0,0,0,0,0,0,0,0,0,VALID,0,0,0,0,0,1,0,0,0,0,0,0,0,0,0,0,0,0,0,0,241.95,395.46,2,0,0.105,0.105,109,8.57,0.14,0.105,11.94,FLYING,CF1-J,0:/Integrated Flight Computer/aircraft/cf1_j_cfg.ks (inferred preloaded)
12.64,CRUISE,,69.58,80,10.42,1058.03,1058.03,25.64,27.4,8,351.02,6.823,1,0,11.639,1,0.6,4.5,0.75,0.35,0.0168,0.4,0,45,0,-190.388,0,358.29,0,0,0,20.2,0,0,-0.03,90,0,0,0,0,0,0,0,0,0,0,0,3,0,0,0,69,0,0,0,0,0,0,,0,NONE,0,0,0,0,0,0,0,0,0,0,0,1058.03,0,0,0,0,0,0,0,0,0,331.78,0,0,0,0,0,0,0,0,0,0,0,0,0,0,0,0,0,VALID,0,0,0,0,0,1,0,0,0,0,0,0,0,0,0,0,0,0,0,0,245,395.23,2,0,0.105,0.105,112,8.57,0.14,0.105,12.29,FLYING,CF1-J,0:/Integrated Flight Computer/aircraft/cf1_j_cfg.ks (inferred preloaded)
12.95,CRUISE,,69.26,80,10.74,1066.19,1066.19,25.87,27.69,8.03,351.31,6.594,1,0,11.465,1,0.6,4.5,0.75,0.35,0.0168,0.4,0,45,0,-190.704,0,358.29,0,0,0,20.46,0,0,-0.03,90,0,0,0,0,0,0,0,0,0,0,0,3,0,0,0,69,0,0,0,0,0,0,,0,NONE,0,0,0,0,0,0,0,0,0,0,0,1066.19,0,0,0,0,0,0,0,0,0,331.78,0,0,0,0,0,0,0,0,0,0,0,0,0,0,0,0,0,VALID,0,0,0,0,0,1,0,0,0,0,0,0,0,0,0,0,0,0,0,0,247.68,395.02,2,0,0.105,0.105,115,9.52,0.105,0.105,12.6,FLYING,CF1-J,0:/Integrated Flight Computer/aircraft/cf1_j_cfg.ks (inferred preloaded)
13.3,CRUISE,,68.92,80,11.08,1075.34,1075.34,26.12,28.01,8.06,351.62,6.346,1,0,11.294,1,0.6,4.5,0.75,0.35,0.0168,0.4,0,45,0,-191.049,0,358.29,0,0,0,20.73,0,0,-0.03,90,0,0,0,0,0,0,0,0,0,0,0,3,0,0,0,69,0,0,0,0,0,0,,0,NONE,0,0,0,0,0,0,0,0,0,0,0,1075.34,0,0,0,0,0,0,0,0,0,331.78,0,0,0,0,0,0,0,0,0,0,0,0,0,0,0,0,0,VALID,0,0,0,0,0,1,0,0,0,0,0,0,0,0,0,0,0,0,0,0,250.6,394.78,2,0,0.105,0.105,118,8.57,0.14,0.105,12.95,FLYING,CF1-J,0:/Integrated Flight Computer/aircraft/cf1_j_cfg.ks (inferred preloaded)
13.62,CRUISE,,68.61,80,11.39,1083.64,1083.64,26.33,28.29,8.08,351.89,6.129,1,0,11.126,1,0.6,4.5,0.75,0.35,0.0168,0.4,0,45,0,-191.353,0,358.29,0,0,0,20.96,0,0,-0.03,90,0,0,0,0,0,0,0,0,0,0,0,3,0,0,0,69,0,0,0,0,0,0,,0,NONE,0,0,0,0,0,0,0,0,0,0,0,1083.64,0,0,0,0,0,0,0,0,0,331.78,0,0,0,0,0,0,0,0,0,0,0,0,0,0,0,0,0,VALID,0,0,0,0,0,1,0,0,0,0,0,0,0,0,0,0,0,0,0,0,253.15,394.55,2,0,0.105,0.105,121,9.52,0.105,0.105,13.27,FLYING,CF1-J,0:/Integrated Flight Computer/aircraft/cf1_j_cfg.ks (inferred preloaded)
13.97,CRUISE,,68.28,80,11.72,1092.94,1092.94,26.55,28.6,8.12,352.18,5.895,1,0,10.96,1,0.6,4.5,0.75,0.35,0.0168,0.4,0,45,0,-191.684,0,358.29,0,0,0,21.22,0,0,-0.04,90,0,0,0,0,0,0,0,0,0,0,0,3,0,0,0,69,0,0,0,0,0,0,,0,NONE,0,0,0,0,0,0,0,0,0,0,0,1092.94,0,0,0,0,0,0,0,0,0,331.78,0,0,0,0,0,0,0,0,0,0,0,0,0,0,0,0,0,VALID,0,0,0,0,0,1,0,0,0,0,0,0,0,0,0,0,0,0,0,0,255.93,394.29,2,0,0.105,0.105,124,8.57,0.14,0.105,13.62,FLYING,CF1-J,0:/Integrated Flight Computer/aircraft/cf1_j_cfg.ks (inferred preloaded)
14.28,CRUISE,,67.99,80,12.01,1101.37,1101.37,26.74,28.86,8.14,352.43,5.69,1,0,10.796,1,0.6,4.5,0.75,0.35,0.0168,0.4,0,45,0,-191.976,0,358.29,0,0,0,21.44,0,0,-0.04,90,0,0,0,0,0,0,0,0,0,0,0,3,0,0,0,69,0,0,0,0,0,0,,0,NONE,0,0,0,0,0,0,0,0,0,0,0,1101.37,0,0,0,0,0,0,0,0,0,331.78,0,0,0,0,0,0,0,0,0,0,0,0,0,0,0,0,0,VALID,0,0,0,0,0,1,0,0,0,0,0,0,0,0,0,0,0,0,0,0,258.37,394.05,2,0,0.105,0.105,127,9.52,0.105,0.105,13.93,FLYING,CF1-J,0:/Integrated Flight Computer/aircraft/cf1_j_cfg.ks (inferred preloaded)
14.63,CRUISE,,67.67,80,12.33,1110.81,1110.81,26.94,29.15,8.18,352.7,5.468,1,0,10.635,1,0.6,4.5,0.75,0.35,0.0168,0.4,0,45,0,-192.295,0,358.29,0,0,0,21.68,0,0,-0.04,90,0,0,0,0,0,0,0,0,0,0,0,3,0,0,0,69,0,0,0,0,0,0,,0,NONE,0,0,0,0,0,0,0,0,0,0,0,1110.81,0,0,0,0,0,0,0,0,0,331.78,0,0,0,0,0,0,0,0,0,0,0,0,0,0,0,0,0,VALID,0,0,0,0,0,1,0,0,0,0,0,0,0,0,0,0,0,0,0,0,261.01,393.78,2,0,0.105,0.105,130,8.57,0.14,0.105,14.28,FLYING,CF1-J,0:/Integrated Flight Computer/aircraft/cf1_j_cfg.ks (inferred preloaded)
14.95,CRUISE,,67.4,80,12.6,1119.36,1119.36,27.09,29.43,8.26,352.93,5.275,1,0,10.476,1,0.6,4.5,0.75,0.35,0.0168,0.4,0,45,0,-192.57,0,358.29,0,0,0,21.88,0,0,-0.04,90,0,0,0,0,0,0,0,0,0,0,0,3,0,0,0,69,0,0,0,0,0,0,,0,NONE,0,0,0,0,0,0,0,0,0,0,0,1119.36,0,0,0,0,0,0,0,0,0,331.78,0,0,0,0,0,0,0,0,0,0,0,0,0,0,0,0,0,VALID,0,0,0,0,0,1,0,0,0,0,0,0,0,0,0,0,0,0,0,0,263.33,393.53,2,0,0.105,0.105,133,9.52,0.105,0.105,14.6,FLYING,CF1-J,0:/Integrated Flight Computer/aircraft/cf1_j_cfg.ks (inferred preloaded)
15.3,CRUISE,,67.12,80,12.88,1128.93,1128.93,27.25,29.82,8.43,353.19,5.068,1,0,10.32,1,0.6,4.5,0.75,0.35,0.0168,0.4,0,45,0,-192.851,0,358.29,0,0,0,22.08,0,0,-0.04,90,0,0,0,0,0,0,0,0,0,0,0,3,0,0,0,69,0,0,0,0,0,0,,0,NONE,0,0,0,0,0,0,0,0,0,0,0,1128.93,0,0,0,0,0,0,0,0,0,331.78,0,0,0,0,0,0,0,0,0,0,0,0,0,0,0,0,0,VALID,0,0,0,0,0,1,0,0,0,0,0,0,0,0,0,0,0,0,0,0,265.84,393.22,2,0,0.105,0.105,136,8.57,0.14,0.105,14.95,FLYING,CF1-J,0:/Integrated Flight Computer/aircraft/cf1_j_cfg.ks (inferred preloaded)
15.65,CRUISE,,66.87,80,13.13,1138.56,1138.56,27.42,30.22,8.62,353.45,4.868,1,0,10.166,1,0.6,4.5,0.75,0.35,0.0168,0.4,0,45,0,-193.11,0,358.29,0,0,0,22.28,0,0,-0.04,90,0,0,0,0,0,0,0,0,0,0,0,3,0,0,0,69,0,0,0,0,0,0,,0,NONE,0,0,0,0,0,0,0,0,0,0,0,1138.56,0,0,0,0,0,0,0,0,0,331.78,0,0,0,0,0,0,0,0,0,0,0,0,0,0,0,0,0,VALID,0,0,0,0,0,1,0,0,0,0,0,0,0,0,0,0,0,0,0,0,268.27,392.91,2,0,0.105,0.105,139,8.57,0.14,0.105,15.3,FLYING,CF1-J,0:/Integrated Flight Computer/aircraft/cf1_j_cfg.ks (inferred preloaded)
16,CRUISE,,66.63,80,13.37,1148.26,1148.26,27.59,30.74,8.94,353.7,4.675,1,0,10.014,1,0.6,4.5,0.75,0.35,0.0168,0.4,0,45,0,-193.35,0,358.29,0,0,0,22.47,0,0,-0.04,90,0,0,0,0,0,0,0,0,0,0,0,3,0,0,0,69,0,0,0,0,0,0,,0,NONE,0,0,0,0,0,0,0,0,0,0,0,1148.26,0,0,0,0,0,0,0,0,0,331.78,0,0,0,0,0,0,0,0,0,0,0,0,0,0,0,0,0,VALID,0,0,0,0,0,1,0,0,0,0,0,0,0,0,0,0,0,0,0,0,270.64,392.58,2,0,0.105,0.105,142,8.57,0.14,0.105,15.65,FLYING,CF1-J,0:/Integrated Flight Computer/aircraft/cf1_j_cfg.ks (inferred preloaded)
16.31,CRUISE,,66.42,80,13.58,1157.02,1157.02,27.8,30.97,8.93,353.9,4.509,1,0,9.865,1,0.6,4.5,0.75,0.35,0.0168,0.4,0,45,0,-193.554,0,358.29,0,0,0,22.69,0,0,-0.04,90,0,0,0,0,0,0,0,0,0,0,0,3,0,0,0,69,0,0,0,0,0,0,,0,NONE,0,0,0,0,0,0,0,0,0,0,0,1157.02,0,0,0,0,0,0,0,0,0,331.78,0,0,0,0,0,0,0,0,0,0,0,0,0,0,0,0,0,VALID,0,0,0,0,0,1,0,0,0,0,0,0,0,0,0,0,0,0,0,0,272.71,392.27,2,0,0.105,0.105,145,9.52,0.105,0.105,15.96,FLYING,CF1-J,0:/Integrated Flight Computer/aircraft/cf1_j_cfg.ks (inferred preloaded)
16.66,CRUISE,,66.22,80,13.78,1166.84,1166.84,27.94,31.41,9.2,354.13,4.33,1,0,9.717,1,0.6,4.5,0.75,0.35,0.0168,0.4,0,45,0,-193.763,0,358.29,0,0,0,22.86,0,0,-0.04,90,0,0,0,0,0,0,0,0,0,0,0,3,0,0,0,69,0,0,0,0,0,0,,0,NONE,0,0,0,0,0,0,0,0,0,0,0,1166.84,0,0,0,0,0,0,0,0,0,331.78,0,0,0,0,0,0,0,0,0,0,0,0,0,0,0,0,0,VALID,0,0,0,0,0,1,0,0,0,0,0,0,0,0,0,0,0,0,0,0,274.95,391.91,2,0,0.105,0.105,148,8.57,0.14,0.105,16.31,FLYING,CF1-J,0:/Integrated Flight Computer/aircraft/cf1_j_cfg.ks (inferred preloaded)
16.98,CRUISE,,66.04,80,13.96,1175.72,1175.72,28.14,31.74,9.31,354.32,4.175,1,0,9.572,1,0.6,4.5,0.75,0.35,0.0168,0.4,0,45,0,-193.937,0,358.29,0,0,0,23.06,0,0,-0.04,90,0,0,0,0,0,0,0,0,0,0,0,3,0,0,0,69,0,0,0,0,0,0,,0,NONE,0,0,0,0,0,0,0,0,0,0,0,1175.72,0,0,0,0,0,0,0,0,0,331.78,0,0,0,0,0,0,0,0,0,0,0,0,0,0,0,0,0,VALID,0,0,0,0,0,1,0,0,0,0,0,0,0,0,0,0,0,0,0,0,276.91,391.58,2,0,0.105,0.105,151,9.52,0.105,0.105,16.63,FLYING,CF1-J,0:/Integrated Flight Computer/aircraft/cf1_j_cfg.ks (inferred preloaded)
17.33,CRUISE,,65.87,80,14.13,1185.64,1185.64,28.3,32.06,9.45,354.52,4.008,1,0,9.43,1,0.6,4.5,0.75,0.35,0.0168,0.4,0,45,0,-194.116,0,358.29,0,0,0,23.23,0,0,-0.04,90,0,0,0,0,0,0,0,0,0,0,0,3,0,0,0,69,0,0,0,0,0,0,,0,NONE,0,0,0,0,0,0,0,0,0,0,0,1185.64,0,0,0,0,0,0,0,0,0,331.78,0,0,0,0,0,0,0,0,0,0,0,0,0,0,0,0,0,VALID,0,0,0,0,0,1,0,0,0,0,0,0,0,0,0,0,0,0,0,0,279.03,391.21,2,0,0.105,0.105,154,8.57,0.14,0.105,16.98,FLYING,CF1-J,0:/Integrated Flight Computer/aircraft/cf1_j_cfg.ks (inferred preloaded)
17.64,CRUISE,,65.72,80,14.28,1194.63,1194.63,28.47,32.43,9.64,354.7,3.864,1,0,9.289,1,0.6,4.5,0.75,0.35,0.0168,0.4,0,45,0,-194.263,0,358.29,0,0,0,23.4,0,0,-0.04,90,0,0,0,0,0,0,0,0,0,0,0,3,0,0,0,69,0,0,0,0,0,0,,0,NONE,0,0,0,0,0,0,0,0,0,0,0,1194.63,0,0,0,0,0,0,0,0,0,331.78,0,0,0,0,0,0,0,0,0,0,0,0,0,0,0,0,0,VALID,0,0,0,0,0,1,0,0,0,0,0,0,0,0,0,0,0,0,0,0,280.88,390.86,2,0,0.105,0.105,157,9.52,0.105,0.105,17.29,FLYING,CF1-J,0:/Integrated Flight Computer/aircraft/cf1_j_cfg.ks (inferred preloaded)
17.99,CRUISE,,65.57,80,14.43,1204.67,1204.67,28.64,32.65,9.67,354.87,3.709,1,0,9.15,1,0.6,4.5,0.75,0.35,0.0168,0.4,0,45,0,-194.415,0,358.29,0,0,0,23.58,0,0,-0.04,90,0,0,0,0,0,0,0,0,0,0,0,3,0,0,0,69,0,0,0,0,0,0,,0,NONE,0,0,0,0,0,0,0,0,0,0,0,1204.67,0,0,0,0,0,0,0,0,0,331.78,0,0,0,0,0,0,0,0,0,0,0,0,0,0,0,0,0,VALID,0,0,0,0,0,1,0,0,0,0,0,0,0,0,0,0,0,0,0,0,282.88,390.46,2,0,0.105,0.105,160,8.57,0.14,0.105,17.64,FLYING,CF1-J,0:/Integrated Flight Computer/aircraft/cf1_j_cfg.ks (inferred preloaded)
18.31,CRUISE,,65.45,80,14.55,1213.76,1213.76,28.83,32.98,9.81,355.04,3.573,1,0,9.014,1,0.6,4.5,0.75,0.35,0.0168,0.4,0,45,0,-194.539,0,358.29,0,0,0,23.75,0,0,-0.04,90,0,0,0,0,0,0,0,0,0,0,0,3,0,0,0,69,0,0,0,0,0,0,,0,NONE,0,0,0,0,0,0,0,0,0,0,0,1213.76,0,0,0,0,0,0,0,0,0,331.78,0,0,0,0,0,0,0,0,0,0,0,0,0,0,0,0,0,VALID,0,0,0,0,0,1,0,0,0,0,0,0,0,0,0,0,0,0,0,0,284.63,390.09,2,0,0.105,0.105,163,9.52,0.105,0.105,17.96,FLYING,CF1-J,0:/Integrated Flight Computer/aircraft/cf1_j_cfg.ks (inferred preloaded)
18.66,CRUISE,,65.33,80,14.67,1223.83,1223.83,29.01,32.62,9.26,355.14,3.407,1,0,8.879,1,0.6,4.5,0.75,0.35,0.0168,0.4,0,45,0,-194.659,0,358.29,0,0,0,23.94,0,0,-0.04,90,0,0,0,0,0,0,0,0,0,0,0,3,0,0,0,69,0,0,0,0,0,0,,0,NONE,0,0,0,0,0,0,0,0,0,0,0,1223.83,0,0,0,0,0,0,0,0,0,331.78,0,0,0,0,0,0,0,0,0,0,0,0,0,0,0,0,0,VALID,0,0,0,0,0,1,0,0,0,0,0,0,0,0,0,0,0,0,0,0,286.51,389.66,2,0,0.105,0.105,166,8.57,0.14,0.105,18.31,FLYING,CF1-J,0:/Integrated Flight Computer/aircraft/cf1_j_cfg.ks (inferred preloaded)
19.01,CRUISE,,65.26,80,14.74,1233.95,1233.95,28.9,32.34,9.05,355.25,3.254,1,0,8.747,1,0.6,4.5,0.75,0.35,0.0168,0.4,0,45,0,-194.733,0,358.29,0,0,0,23.9,0,0,-0.04,90,0,0,0,0,0,0,0,0,0,0,0,3,0,0,0,69,0,0,0,0,0,0,,0,NONE,0,0,0,0,0,0,0,0,0,0,0,1233.95,0,0,0,0,0,0,0,0,0,331.78,0,0,0,0,0,0,0,0,0,0,0,0,0,0,0,0,0,VALID,0,0,0,0,0,1,0,0,0,0,0,0,0,0,0,0,0,0,0,0,288.33,389.21,2,0,0.105,0.105,169,8.57,0.14,0.105,18.66,FLYING,CF1-J,0:/Integrated Flight Computer/aircraft/cf1_j_cfg.ks (inferred preloaded)
19.36,CRUISE,,65.22,80,14.78,1244.18,1244.18,28.9,33.26,10,355.45,3.124,1,0,8.616,1,0.6,4.5,0.75,0.35,0.0168,0.4,0,45,0,-194.776,0,358.29,0,0,0,23.88,0,0,-0.04,90,0,0,0,0,0,0,0,0,0,0,0,3,0,0,0,69,0,0,0,0,0,0,,0,NONE,0,0,0,0,0,0,0,0,0,0,0,1244.18,0,0,0,0,0,0,0,0,0,331.78,0,0,0,0,0,0,0,0,0,0,0,0,0,0,0,0,0,VALID,0,0,0,0,0,1,0,0,0,0,0,0,0,0,0,0,0,0,0,0,290.08,388.74,2,0,0.105,0.105,172,8.57,0.14,0.105,19.01,FLYING,CF1-J,0:/Integrated Flight Computer/aircraft/cf1_j_cfg.ks (inferred preloaded)
19.67,CRUISE,,65.17,80,14.83,1253.42,1253.42,29.1,34.09,10.66,355.63,3.013,1,0,8.487,1,0.6,4.5,0.75,0.35,0.0168,0.4,0,45,0,-194.826,0,358.29,0,0,0,24.03,0,0,-0.04,90,0,0,0,0,0,0,0,0,0,0,0,3,0,0,0,69,0,0,0,0,0,0,,0,NONE,0,0,0,0,0,0,0,0,0,0,0,1253.42,0,0,0,0,0,0,0,0,0,331.78,0,0,0,0,0,0,0,0,0,0,0,0,0,0,0,0,0,VALID,0,0,0,0,0,1,0,0,0,0,0,0,0,0,0,0,0,0,0,0,291.62,388.33,2,0,0.105,0.105,175,9.52,0.105,0.105,19.32,FLYING,CF1-J,0:/Integrated Flight Computer/aircraft/cf1_j_cfg.ks (inferred preloaded)
20.02,CRUISE,,65.09,80,14.91,1263.68,1263.68,29.4,34.25,10.54,355.76,2.895,1,0,8.361,1,0.6,4.5,0.75,0.35,0.0168,0.4,0,45,0,-194.906,0,358.29,0,0,0,24.29,0,0,-0.04,90,0,0,0,0,0,0,0,0,0,0,0,3,0,0,0,69,0,0,0,0,0,0,,0,NONE,0,0,0,0,0,0,0,0,0,0,0,1263.68,0,0,0,0,0,0,0,0,0,331.78,0,0,0,0,0,0,0,0,0,0,0,0,0,0,0,0,0,VALID,0,0,0,0,0,1,0,0,0,0,0,0,0,0,0,0,0,0,0,0,293.29,387.88,2,0,0.105,0.105,178,8.57,0.14,0.105,19.67,FLYING,CF1-J,0:/Integrated Flight Computer/aircraft/cf1_j_cfg.ks (inferred preloaded)
20.34,CRUISE,,65.02,80,14.98,1272.97,1272.97,29.5,34.3,10.49,355.87,2.792,1,0,8.236,1,0.6,4.5,0.75,0.35,0.0168,0.4,0,45,0,-194.971,0,358.29,0,0,0,24.39,0,0,-0.04,90,0,0,0,0,0,0,0,0,0,0,0,3,0,0,0,69,0,0,0,0,0,0,,0,NONE,0,0,0,0,0,0,0,0,0,0,0,1272.97,0,0,0,0,0,0,0,0,0,331.78,0,0,0,0,0,0,0,0,0,0,0,0,0,0,0,0,0,VALID,0,0,0,0,0,1,0,0,0,0,0,0,0,0,0,0,0,0,0,0,294.75,387.47,2,0,0.105,0.105,181,9.52,0.105,0.105,19.99,FLYING,CF1-J,0:/Integrated Flight Computer/aircraft/cf1_j_cfg.ks (inferred preloaded)
20.69,CRUISE,,64.97,80,15.03,1283.34,1283.34,29.66,34.36,10.4,355.98,2.681,1,0,8.113,1,0.6,4.5,0.75,0.35,0.0168,0.4,0,45,0,-195.023,0,358.29,0,0,0,24.53,0,0,-0.04,90,0,0,0,0,0,0,0,0,0,0,0,3,0,0,0,69,0,0,0,0,0,0,,0,NONE,0,0,0,0,0,0,0,0,0,0,0,1283.34,0,0,0,0,0,0,0,0,0,331.78,0,0,0,0,0,0,0,0,0,0,0,0,0,0,0,0,0,VALID,0,0,0,0,0,1,0,0,0,0,0,0,0,0,0,0,0,0,0,0,296.32,387,2,0,0.105,0.105,184,8.57,0.14,0.105,20.34,FLYING,CF1-J,0:/Integrated Flight Computer/aircraft/cf1_j_cfg.ks (inferred preloaded)
21,CRUISE,,64.94,80,15.06,1292.75,1292.75,29.71,34.7,10.71,356.09,2.581,1,0,7.992,1,0.6,4.5,0.75,0.35,0.0168,0.4,0,45,0,-195.056,0,358.29,0,0,0,24.57,0,0,-0.04,90,0,0,0,0,0,0,0,0,0,0,0,3,0,0,0,69,0,0,0,0,0,0,,0,NONE,0,0,0,0,0,0,0,0,0,0,0,1292.75,0,0,0,0,0,0,0,0,0,331.78,0,0,0,0,0,0,0,0,0,0,0,0,0,0,0,0,0,VALID,0,0,0,0,0,1,0,0,0,0,0,0,0,0,0,0,0,0,0,0,297.69,386.56,2,0,0.105,0.105,187,9.52,0.105,0.105,20.65,FLYING,CF1-J,0:/Integrated Flight Computer/aircraft/cf1_j_cfg.ks (inferred preloaded)
21.35,CRUISE,,64.9,80,15.1,1303.22,1303.22,29.95,35.03,10.84,356.21,2.448,1,0,7.873,1,0.6,4.5,0.75,0.35,0.0168,0.4,0,45,0,-195.093,0,358.29,0,0,0,24.76,0,0,-0.04,90,0,0,0,0,0,0,0,0,0,0,0,3,0,0,0,69,0,0,0,0,0,0,,0,NONE,0,0,0,0,0,0,0,0,0,0,0,1303.22,0,0,0,0,0,0,0,0,0,331.78,0,0,0,0,0,0,0,0,0,0,0,0,0,0,0,0,0,VALID,0,0,0,0,0,1,0,0,0,0,0,0,0,0,0,0,0,0,0,0,299.16,386.08,2,0,0.105,0.105,190,8.57,0.14,0.105,21,FLYING,CF1-J,0:/Integrated Flight Computer/aircraft/cf1_j_cfg.ks (inferred preloaded)
21.67,CRUISE,,64.87,80,15.13,1312.69,1312.69,30.05,35.06,10.77,356.29,2.336,1,0,7.755,1,0.6,4.5,0.75,0.35,0.0168,0.4,0,45,0,-195.124,0,358.29,0,0,0,24.85,0,0,-0.04,90,0,0,0,0,0,0,0,0,0,0,0,3,0,0,0,69,0,0,0,0,0,0,,0,NONE,0,0,0,0,0,0,0,0,0,0,0,1312.69,0,0,0,0,0,0,0,0,0,331.78,0,0,0,0,0,0,0,0,0,0,0,0,0,0,0,0,0,VALID,0,0,0,0,0,1,0,0,0,0,0,0,0,0,0,0,0,0,0,0,300.45,385.64,2,0,0.105,0.105,193,9.52,0.105,0.105,21.32,FLYING,CF1-J,0:/Integrated Flight Computer/aircraft/cf1_j_cfg.ks (inferred preloaded)
22.02,CRUISE,,64.83,80,15.17,1323.29,1323.29,30.28,35.49,11.03,356.4,2.242,1,0,7.639,1,0.6,4.5,0.75,0.35,0.0168,0.4,0,45,0,-195.162,0,358.29,0,0,0,25,0,0,-0.04,90,0,0,0,0,0,0,0,0,0,0,0,3,0,0,0,69,0,0,0,0,0,0,,0,NONE,0,0,0,0,0,0,0,0,0,0,0,1323.29,0,0,0,0,0,0,0,0,0,331.78,0,0,0,0,0,0,0,0,0,0,0,0,0,0,0,0,0,VALID,0,0,0,0,0,1,0,0,0,0,0,0,0,0,0,0,0,0,0,0,301.85,385.16,2,0,0.105,0.105,196,8.57,0.14,0.105,21.67,FLYING,CF1-J,0:/Integrated Flight Computer/aircraft/cf1_j_cfg.ks (inferred preloaded)
22.37,CRUISE,,64.79,80,15.21,1333.9,1333.9,30.49,35.23,10.57,356.47,2.156,1,0,7.525,1,0.6,4.5,0.75,0.35,0.0168,0.4,0,45,0,-195.209,0,358.29,0,0,0,25.19,0,0,-0.04,90,0,0,0,0,0,0,0,0,0,0,0,3,0,0,0,69,0,0,0,0,0,0,,0,NONE,0,0,0,0,0,0,0,0,0,0,0,1333.9,0,0,0,0,0,0,0,0,0,331.78,0,0,0,0,0,0,0,0,0,0,0,0,0,0,0,0,0,VALID,0,0,0,0,0,1,0,0,0,0,0,0,0,0,0,0,0,0,0,0,303.2,384.68,2,0,0.105,0.105,199,8.57,0.14,0.105,22.02,FLYING,CF1-J,0:/Integrated Flight Computer/aircraft/cf1_j_cfg.ks (inferred preloaded)
22.72,CRUISE,,64.75,80,15.25,1344.6,1344.6,30.63,35.24,10.46,356.55,2.072,1,0,7.413,1,0.6,4.5,0.75,0.35,0.0168,0.4,0,45,0,-195.251,0,358.29,0,0,0,25.3,0,0,-0.04,90,0,0,0,0,0,0,0,0,0,0,0,3,0,0,0,69,0,0,0,0,0,0,,0,NONE,0,0,0,0,0,0,0,0,0,0,0,1344.6,0,0,0,0,0,0,0,0,0,331.78,0,0,0,0,0,0,0,0,0,0,0,0,0,0,0,0,0,VALID,0,0,0,0,0,1,0,0,0,0,0,0,0,0,0,0,0,0,0,0,304.51,384.19,2,0,0.105,0.105,202,8.57,0.14,0.105,22.37,FLYING,CF1-J,0:/Integrated Flight Computer/aircraft/cf1_j_cfg.ks (inferred preloaded)
23.03,CRUISE,,64.71,80,15.29,1354.28,1354.28,30.81,35.23,10.29,356.62,1.998,1,0,7.302,1,0.6,4.5,0.75,0.35,0.0168,0.4,0,45,0,-195.287,0,358.29,0,0,0,25.45,0,0,-0.04,90,0,0,0,0,0,0,0,0,0,0,0,3,0,0,0,69,0,0,0,0,0,0,,0,NONE,0,0,0,0,0,0,0,0,0,0,0,1354.28,0,0,0,0,0,0,0,0,0,331.78,0,0,0,0,0,0,0,0,0,0,0,0,0,0,0,0,0,VALID,0,0,0,0,0,1,0,0,0,0,0,0,0,0,0,0,0,0,0,0,305.66,383.75,2,0,0.105,0.105,205,9.52,0.105,0.105,22.68,FLYING,CF1-J,0:/Integrated Flight Computer/aircraft/cf1_j_cfg.ks (inferred preloaded)
23.38,CRUISE,,64.67,80,15.33,1365.08,1365.08,30.98,35.14,10.05,356.69,1.918,1,0,7.193,1,0.6,4.5,0.75,0.35,0.0168,0.4,0,45,0,-195.328,0,358.29,0,0,0,25.58,0,0,-0.04,90,0,0,0,0,0,0,0,0,0,0,0,3,0,0,0,69,0,0,0,0,0,0,,0,NONE,0,0,0,0,0,0,0,0,0,0,0,1365.08,0,0,0,0,0,0,0,0,0,331.78,0,0,0,0,0,0,0,0,0,0,0,0,0,0,0,0,0,VALID,0,0,0,0,0,1,0,0,0,0,0,0,0,0,0,0,0,0,0,0,306.89,383.26,2,0,0.105,0.105,208,8.57,0.14,0.105,23.03,FLYING,CF1-J,0:/Integrated Flight Computer/aircraft/cf1_j_cfg.ks (inferred preloaded)
23.7,CRUISE,,64.63,80,15.37,1374.86,1374.86,31.11,35.12,9.91,356.76,1.848,1,0,7.086,1,0.6,4.5,0.75,0.35,0.0168,0.4,0,45,0,-195.365,0,358.29,0,0,0,25.69,0,0,-0.04,90,0,0,0,0,0,0,0,0,0,0,0,3,0,0,0,69,0,0,0,0,0,0,,0,NONE,0,0,0,0,0,0,0,0,0,0,0,1374.86,0,0,0,0,0,0,0,0,0,331.78,0,0,0,0,0,0,0,0,0,0,0,0,0,0,0,0,0,VALID,0,0,0,0,0,1,0,0,0,0,0,0,0,0,0,0,0,0,0,0,307.96,382.81,2,0,0.105,0.105,211,9.52,0.105,0.105,23.35,FLYING,CF1-J,0:/Integrated Flight Computer/aircraft/cf1_j_cfg.ks (inferred preloaded)
24.05,CRUISE,,64.59,80,15.41,1385.78,1385.78,31.28,35.09,9.75,356.82,1.773,1,0,6.98,1,0.6,4.5,0.75,0.35,0.0168,0.4,0,45,0,-195.408,0,358.29,0,0,0,25.83,0,0,-0.04,90,0,0,0,0,0,0,0,0,0,0,0,3,0,0,0,69,0,0,0,0,0,0,,0,NONE,0,0,0,0,0,0,0,0,0,0,0,1385.78,0,0,0,0,0,0,0,0,0,331.78,0,0,0,0,0,0,0,0,0,0,0,0,0,0,0,0,0,VALID,0,0,0,0,0,1,0,0,0,0,0,0,0,0,0,0,0,0,0,0,309.12,382.32,2,0,0.105,0.105,214,8.57,0.14,0.105,23.7,FLYING,CF1-J,0:/Integrated Flight Computer/aircraft/cf1_j_cfg.ks (inferred preloaded)
24.36,CRUISE,,64.54,80,15.46,1395.65,1395.65,31.41,35.05,9.58,356.88,1.707,1,0,6.876,1,0.6,4.5,0.75,0.35,0.0168,0.4,0,45,0,-195.451,0,358.29,0,0,0,25.94,0,0,-0.04,90,0,0,0,0,0,0,0,0,0,0,0,3,0,0,0,69,0,0,0,0,0,0,,0,NONE,0,0,0,0,0,0,0,0,0,0,0,1395.65,0,0,0,0,0,0,0,0,0,331.78,0,0,0,0,0,0,0,0,0,0,0,0,0,0,0,0,0,VALID,0,0,0,0,0,1,0,0,0,0,0,0,0,0,0,0,0,0,0,0,310.14,381.88,2,0,0.105,0.105,217,9.52,0.105,0.105,24.01,FLYING,CF1-J,0:/Integrated Flight Computer/aircraft/cf1_j_cfg.ks (inferred preloaded)
24.71,CRUISE,,64.49,80,15.51,1406.66,1406.66,31.55,35,9.4,356.94,1.637,1,0,6.774,1,0.6,4.5,0.75,0.35,0.0168,0.4,0,45,0,-195.501,0,358.29,0,0,0,26.06,0,0,-0.04,90,0,0,0,0,0,0,0,0,0,0,0,3,0,0,0,69,0,0,0,0,0,0,,0,NONE,0,0,0,0,0,0,0,0,0,0,0,1406.66,0,0,0,0,0,0,0,0,0,331.78,0,0,0,0,0,0,0,0,0,0,0,0,0,0,0,0,0,VALID,0,0,0,0,0,1,0,0,0,0,0,0,0,0,0,0,0,0,0,0,311.23,381.39,2,0,0.105,0.105,220,8.57,0.14,0.105,24.36,FLYING,CF1-J,0:/Integrated Flight Computer/aircraft/cf1_j_cfg.ks (inferred preloaded)
25.03,CRUISE,,64.44,80,15.56,1416.62,1416.62,31.68,34.97,9.26,357,1.575,1,0,6.672,1,0.6,4.5,0.75,0.35,0.0168,0.4,0,45,0,-195.55,0,358.29,0,0,0,26.17,0,0,-0.04,90,0,0,0,0,0,0,0,0,0,0,0,3,0,0,0,69,0,0,0,0,0,0,,0,NONE,0,0,0,0,0,0,0,0,0,0,0,1416.62,0,0,0,0,0,0,0,0,0,331.78,0,0,0,0,0,0,0,0,0,0,0,0,0,0,0,0,0,VALID,0,0,0,0,0,1,0,0,0,0,0,0,0,0,0,0,0,0,0,0,312.18,380.95,2,0,0.105,0.105,223,9.52,0.105,0.105,24.68,FLYING,CF1-J,0:/Integrated Flight Computer/aircraft/cf1_j_cfg.ks (inferred preloaded)
25.38,CRUISE,,64.38,80,15.62,1427.73,1427.73,31.79,34.96,9.15,357.06,1.509,1,0,6.573,1,0.6,4.5,0.75,0.35,0.0168,0.4,0,45,0,-195.609,0,358.29,0,0,0,26.27,0,0,-0.04,90,0,0,0,0,0,0,0,0,0,0,0,3,0,0,0,69,0,0,0,0,0,0,,0,NONE,0,0,0,0,0,0,0,0,0,0,0,1427.73,0,0,0,0,0,0,0,0,0,331.78,0,0,0,0,0,0,0,0,0,0,0,0,0,0,0,0,0,VALID,0,0,0,0,0,1,0,0,0,0,0,0,0,0,0,0,0,0,0,0,313.21,380.46,2,0,0.105,0.105,226,8.57,0.14,0.105,25.03,FLYING,CF1-J,0:/Integrated Flight Computer/aircraft/cf1_j_cfg.ks (inferred preloaded)
25.73,CRUISE,,64.33,80,15.67,1438.9,1438.9,31.91,35.1,9.18,357.12,1.446,1,0,6.475,1,0.6,4.5,0.75,0.35,0.0168,0.4,0,45,0,-195.666,0,358.29,0,0,0,26.37,0,0,-0.04,90,0,0,0,0,0,0,0,0,0,0,0,3,0,0,0,69,0,0,0,0,0,0,,0,NONE,0,0,0,0,0,0,0,0,0,0,0,1438.9,0,0,0,0,0,0,0,0,0,331.78,0,0,0,0,0,0,0,0,0,0,0,0,0,0,0,0,0,VALID,0,0,0,0,0,1,0,0,0,0,0,0,0,0,0,0,0,0,0,0,314.21,379.97,2,0,0.105,0.105,229,8.57,0.14,0.105,25.38,FLYING,CF1-J,0:/Integrated Flight Computer/aircraft/cf1_j_cfg.ks (inferred preloaded)
26.08,CRUISE,,64.27,80,15.73,1450.11,1450.11,32.04,35.19,9.15,357.18,1.384,1,0,6.378,1,0.6,4.5,0.75,0.35,0.0168,0.4,0,45,0,-195.722,0,358.29,0,0,0,26.48,0,0,-0.04,90,0,0,0,0,0,0,0,0,0,0,0,3,0,0,0,69,0,0,0,0,0,0,,0,NONE,0,0,0,0,0,0,0,0,0,0,0,1450.11,0,0,0,0,0,0,0,0,0,331.78,0,0,0,0,0,0,0,0,0,0,0,0,0,0,0,0,0,VALID,0,0,0,0,0,1,0,0,0,0,0,0,0,0,0,0,0,0,0,0,315.17,379.47,2,0,0.105,0.105,232,8.57,0.14,0.105,25.73,FLYING,CF1-J,0:/Integrated Flight Computer/aircraft/cf1_j_cfg.ks (inferred preloaded)
26.39,CRUISE,,64.22,80,15.78,1460.23,1460.23,32.14,35.27,9.13,357.23,1.332,1,0,6.283,1,0.6,4.5,0.75,0.35,0.0168,0.4,0,45,0,-195.771,0,358.29,0,0,0,26.58,0,0,-0.04,90,0,0,0,0,0,0,0,0,0,0,0,3,0,0,0,69,0,0,0,0,0,0,,0,NONE,0,0,0,0,0,0,0,0,0,0,0,1460.23,0,0,0,0,0,0,0,0,0,331.78,0,0,0,0,0,0,0,0,0,0,0,0,0,0,0,0,0,VALID,0,0,0,0,0,1,0,0,0,0,0,0,0,0,0,0,0,0,0,0,316,379.03,2,0,0.105,0.105,235,9.52,0.105,0.105,26.04,FLYING,CF1-J,0:/Integrated Flight Computer/aircraft/cf1_j_cfg.ks (inferred preloaded)
26.74,CRUISE,,64.17,80,15.83,1471.51,1471.51,32.26,35.37,9.13,357.28,1.275,1,0,6.189,1,0.6,4.5,0.75,0.35,0.0168,0.4,0,45,0,-195.824,0,358.29,0,0,0,26.68,0,0,-0.04,90,0,0,0,0,0,0,0,0,0,0,0,3,0,0,0,69,0,0,0,0,0,0,,0,NONE,0,0,0,0,0,0,0,0,0,0,0,1471.51,0,0,0,0,0,0,0,0,0,331.78,0,0,0,0,0,0,0,0,0,0,0,0,0,0,0,0,0,VALID,0,0,0,0,0,1,0,0,0,0,0,0,0,0,0,0,0,0,0,0,316.9,378.53,2,0,0.105,0.105,238,8.57,0.14,0.105,26.39,FLYING,CF1-J,0:/Integrated Flight Computer/aircraft/cf1_j_cfg.ks (inferred preloaded)
27.06,CRUISE,,64.12,80,15.88,1481.7,1481.7,32.36,35.44,9.11,357.32,1.227,1,0,6.097,1,0.6,4.5,0.75,0.35,0.0168,0.4,0,45,0,-195.87,0,358.29,0,0,0,26.77,0,0,-0.04,90,0,0,0,0,0,0,0,0,0,0,0,3,0,0,0,69,0,0,0,0,0,0,,0,NONE,0,0,0,0,0,0,0,0,0,0,0,1481.7,0,0,0,0,0,0,0,0,0,331.78,0,0,0,0,0,0,0,0,0,0,0,0,0,0,0,0,0,VALID,0,0,0,0,0,1,0,0,0,0,0,0,0,0,0,0,0,0,0,0,317.68,378.08,2,0,0.105,0.105,241,9.52,0.105,0.105,26.71,FLYING,CF1-J,0:/Integrated Flight Computer/aircraft/cf1_j_cfg.ks (inferred preloaded)
27.41,CRUISE,,64.08,80,15.92,1493.06,1493.06,32.47,35.53,9.1,357.37,1.175,1,0,6.006,1,0.6,4.5,0.75,0.35,0.0168,0.4,0,45,0,-195.92,0,358.29,0,0,0,26.87,0,0,-0.04,90,0,0,0,0,0,0,0,0,0,0,0,3,0,0,0,69,0,0,0,0,0,0,,0,NONE,0,0,0,0,0,0,0,0,0,0,0,1493.06,0,0,0,0,0,0,0,0,0,331.78,0,0,0,0,0,0,0,0,0,0,0,0,0,0,0,0,0,VALID,0,0,0,0,0,1,0,0,0,0,0,0,0,0,0,0,0,0,0,0,318.51,377.58,2,0,0.105,0.105,244,8.57,0.14,0.105,27.06,FLYING,CF1-J,0:/Integrated Flight Computer/aircraft/cf1_j_cfg.ks (inferred preloaded)
27.72,CRUISE,,64.03,80,15.97,1503.31,1503.31,32.57,35.6,9.09,357.41,1.13,1,0,5.916,1,0.6,4.5,0.75,0.35,0.0168,0.4,0,45,0,-195.963,0,358.29,0,0,0,26.95,0,0,-0.04,90,0,0,0,0,0,0,0,0,0,0,0,3,0,0,0,69,0,0,0,0,0,0,,0,NONE,0,0,0,0,0,0,0,0,0,0,0,1503.31,0,0,0,0,0,0,0,0,0,331.78,0,0,0,0,0,0,0,0,0,0,0,0,0,0,0,0,0,VALID,0,0,0,0,0,1,0,0,0,0,0,0,0,0,0,0,0,0,0,0,319.24,377.13,2,0,0.105,0.105,247,9.52,0.105,0.105,27.37,FLYING,CF1-J,0:/Integrated Flight Computer/aircraft/cf1_j_cfg.ks (inferred preloaded)
28.07,CRUISE,,63.99,80,16.01,1514.74,1514.74,32.68,35.68,9.06,357.45,1.081,1,0,5.828,1,0.6,4.5,0.75,0.35,0.0168,0.4,0,45,0,-196.01,0,358.29,0,0,0,27.05,0,0,-0.04,90,0,0,0,0,0,0,0,0,0,0,0,3,0,0,0,69,0,0,0,0,0,0,,0,NONE,0,0,0,0,0,0,0,0,0,0,0,1514.74,0,0,0,0,0,0,0,0,0,331.78,0,0,0,0,0,0,0,0,0,0,0,0,0,0,0,0,0,VALID,0,0,0,0,0,1,0,0,0,0,0,0,0,0,0,0,0,0,0,0,320.02,376.63,2,0,0.105,0.105,250,8.57,0.14,0.105,27.72,FLYING,CF1-J,0:/Integrated Flight Computer/aircraft/cf1_j_cfg.ks (inferred preloaded)
28.39,CRUISE,,63.94,80,16.06,1525.06,1525.06,32.77,35.76,9.06,357.49,1.04,1,0,5.741,1,0.6,4.5,0.75,0.35,0.0168,0.4,0,45,0,-196.051,0,358.29,0,0,0,27.12,0,0,-0.04,90,0,0,0,0,0,0,0,0,0,0,0,3,0,0,0,69,0,0,0,0,0,0,,0,NONE,0,0,0,0,0,0,0,0,0,0,0,1525.06,0,0,0,0,0,0,0,0,0,331.78,0,0,0,0,0,0,0,0,0,0,0,0,0,0,0,0,0,VALID,0,0,0,0,0,1,0,0,0,0,0,0,0,0,0,0,0,0,0,0,320.69,376.17,2,0,0.105,0.105,253,9.52,0.105,0.105,28.04,FLYING,CF1-J,0:/Integrated Flight Computer/aircraft/cf1_j_cfg.ks (inferred preloaded)
28.74,CRUISE,,63.9,80,16.1,1536.56,1536.56,32.87,35.84,9.05,357.53,0.995,1,0,5.655,1,0.6,4.5,0.75,0.35,0.0168,0.4,0,45,0,-196.096,0,358.29,0,0,0,27.21,0,0,-0.04,90,0,0,0,0,0,0,0,0,0,0,0,3,0,0,0,69,0,0,0,0,0,0,,0,NONE,0,0,0,0,0,0,0,0,0,0,0,1536.56,0,0,0,0,0,0,0,0,0,331.78,0,0,0,0,0,0,0,0,0,0,0,0,0,0,0,0,0,VALID,0,0,0,0,0,1,0,0,0,0,0,0,0,0,0,0,0,0,0,0,321.41,375.67,2,0,0.105,0.105,256,8.57,0.14,0.105,28.39,FLYING,CF1-J,0:/Integrated Flight Computer/aircraft/cf1_j_cfg.ks (inferred preloaded)
29.09,CRUISE,,63.86,80,16.14,1548.1,1548.1,32.97,35.91,9.03,357.57,0.953,1,0,5.571,1,0.6,4.5,0.75,0.35,0.0168,0.4,0,45,0,-196.139,0,358.29,0,0,0,27.3,0,0,-0.04,90,0,0,0,0,0,0,0,0,0,0,0,3,0,0,0,69,0,0,0,0,0,0,,0,NONE,0,0,0,0,0,0,0,0,0,0,0,1548.1,0,0,0,0,0,0,0,0,0,331.78,0,0,0,0,0,0,0,0,0,0,0,0,0,0,0,0,0,VALID,0,0,0,0,0,1,0,0,0,0,0,0,0,0,0,0,0,0,0,0,322.11,375.16,2,0,0.105,0.105,259,8.57,0.14,0.105,28.74,FLYING,CF1-J,0:/Integrated Flight Computer/aircraft/cf1_j_cfg.ks (inferred preloaded)
29.44,CRUISE,,63.81,80,16.19,1559.66,1559.66,33.07,35.98,9.02,357.6,0.912,1,0,5.488,1,0.6,4.5,0.75,0.35,0.0168,0.4,0,45,0,-196.181,0,358.29,0,0,0,27.39,0,0,-0.04,90,0,0,0,0,0,0,0,0,0,0,0,3,0,0,0,69,0,0,0,0,0,0,,0,NONE,0,0,0,0,0,0,0,0,0,0,0,1559.66,0,0,0,0,0,0,0,0,0,331.78,0,0,0,0,0,0,0,0,0,0,0,0,0,0,0,0,0,VALID,0,0,0,0,0,1,0,0,0,0,0,0,0,0,0,0,0,0,0,0,322.78,374.65,2,0,0.105,0.105,262,8.57,0.14,0.105,29.09,FLYING,CF1-J,0:/Integrated Flight Computer/aircraft/cf1_j_cfg.ks (inferred preloaded)
29.75,CRUISE,,63.78,80,16.22,1570.1,1570.1,33.16,36.05,9.01,357.63,0.877,1,0,5.406,1,0.6,4.5,0.75,0.35,0.0168,0.4,0,45,0,-196.218,0,358.29,0,0,0,27.46,0,0,-0.04,90,0,0,0,0,0,0,0,0,0,0,0,3,0,0,0,69,0,0,0,0,0,0,,0,NONE,0,0,0,0,0,0,0,0,0,0,0,1570.1,0,0,0,0,0,0,0,0,0,331.78,0,0,0,0,0,0,0,0,0,0,0,0,0,0,0,0,0,VALID,0,0,0,0,0,1,0,0,0,0,0,0,0,0,0,0,0,0,0,0,323.35,374.19,2,0,0.105,0.105,265,9.52,0.105,0.105,29.4,FLYING,CF1-J,0:/Integrated Flight Computer/aircraft/cf1_j_cfg.ks (inferred preloaded)
30.1,CRUISE,,63.74,80,16.26,1581.74,1581.74,33.25,36.11,9,357.66,0.84,1,0,5.325,1,0.6,4.5,0.75,0.35,0.0168,0.4,0,45,0,-196.258,0,358.29,0,0,0,27.54,0,0,-0.04,90,0,0,0,0,0,0,0,0,0,0,0,3,0,0,0,69,0,0,0,0,0,0,,0,NONE,0,0,0,0,0,0,0,0,0,0,0,1581.74,0,0,0,0,0,0,0,0,0,331.78,0,0,0,0,0,0,0,0,0,0,0,0,0,0,0,0,0,VALID,0,0,0,0,0,1,0,0,0,0,0,0,0,0,0,0,0,0,0,0,323.97,373.68,2,0,0.105,0.105,268,8.57,0.14,0.105,29.75,FLYING,CF1-J,0:/Integrated Flight Computer/aircraft/cf1_j_cfg.ks (inferred preloaded)
30.42,CRUISE,,63.7,80,16.3,1592.23,1592.23,33.33,36.18,8.99,357.69,0.808,1,0,5.246,1,0.6,4.5,0.75,0.35,0.0168,0.4,0,45,0,-196.294,0,358.29,0,0,0,27.61,0,0,-0.04,90,0,0,0,0,0,0,0,0,0,0,0,3,0,0,0,69,0,0,0,0,0,0,,0,NONE,0,0,0,0,0,0,0,0,0,0,0,1592.23,0,0,0,0,0,0,0,0,0,331.78,0,0,0,0,0,0,0,0,0,0,0,0,0,0,0,0,0,VALID,0,0,0,0,0,1,0,0,0,0,0,0,0,0,0,0,0,0,0,0,324.5,373.22,2,0,0.105,0.105,271,9.52,0.105,0.105,30.07,FLYING,CF1-J,0:/Integrated Flight Computer/aircraft/cf1_j_cfg.ks (inferred preloaded)
30.77,CRUISE,,63.66,80,16.34,1603.9,1603.9,33.49,36.07,8.76,357.72,0.789,1,0,5.167,1,0.6,4.5,0.75,0.35,0.0168,0.4,0,45,0,-196.333,0,358.29,0,0,0,27.73,0,0,-0.04,90,0,0,0,0,0,0,0,0,0,0,0,3,0,0,0,69,0,0,0,0,0,0,,0,NONE,0,0,0,0,0,0,0,0,0,0,0,1603.9,0,0,0,0,0,0,0,0,0,331.78,0,0,0,0,0,0,0,0,0,0,0,0,0,0,0,0,0,VALID,0,0,0,0,0,1,0,0,0,0,0,0,0,0,0,0,0,0,0,0,325.07,372.71,2,0,0.105,0.105,274,8.57,0.14,0.105,30.42,FLYING,CF1-J,0:/Integrated Flight Computer/aircraft/cf1_j_cfg.ks (inferred preloaded)
31.08,CRUISE,,63.63,80,16.37,1614.23,1614.23,33.59,34.44,7.02,357.71,0.779,1,0,5.09,1,0.6,4.5,0.75,0.35,0.0168,0.4,0,45,0,-196.369,0,358.29,0,0,0,27.84,0,0,-0.04,90,0,0,0,0,0,0,0,0,0,0,0,3,0,0,0,69,0,0,0,0,0,0,,0,NONE,0,0,0,0,0,0,0,0,0,0,0,1614.23,0,0,0,0,0,0,0,0,0,331.78,0,0,0,0,0,0,0,0,0,0,0,0,0,0,0,0,0,VALID,0,0,0,0,0,1,0,0,0,0,0,0,0,0,0,0,0,0,0,0,325.56,372.25,2,0,0.105,0.105,277,9.52,0.105,0.105,30.73,FLYING,CF1-J,0:/Integrated Flight Computer/aircraft/cf1_j_cfg.ks (inferred preloaded)
31.43,CRUISE,,63.68,80,16.32,1625.59,1625.59,33,32.05,5.16,357.7,0.766,1,0,5.014,1,0.6,4.5,0.75,0.35,0.0168,0.4,0,45,0,-196.334,0,358.3,0,0,0,27.46,0,0,-0.04,90,0,0,0,0,0,0,0,0,0,0,0,3,0,0,0,69,0,0,0,0,0,0,,0,NONE,0,0,0,0,0,0,0,0,0,0,0,1625.59,0,0,0,0,0,0,0,0,0,331.78,0,0,0,0,0,0,0,0,0,0,0,0,0,0,0,0,0,VALID,0,0,0,0,0,1,0,0,0,0,0,0,0,0,0,0,0,0,0,0,326.05,371.69,2,0,0.105,0.105,280,8.57,0.14,0.105,31.08,FLYING,CF1-J,0:/Integrated Flight Computer/aircraft/cf1_j_cfg.ks (inferred preloaded)
31.75,CRUISE,,63.83,80,16.17,1635.77,1635.77,32.38,31.23,5,357.71,0.752,1,0,4.939,1,0.6,4.5,0.75,0.35,0.0168,0.4,0,45,0,-196.191,0,358.3,0,0,0,26.95,0,0,-0.04,90,0,0,0,0,0,0,0,0,0,0,0,3,0,0,0,69,0,0,0,0,0,0,,0,NONE,0,0,0,0,0,0,0,0,0,0,0,1635.77,0,0,0,0,0,0,0,0,0,331.78,0,0,0,0,0,0,0,0,0,0,0,0,0,0,0,0,0,VALID,0,0,0,0,0,1,0,0,0,0,0,0,0,0,0,0,0,0,0,0,326.41,371.13,2,0,0.105,0.105,283,9.52,0.105,0.105,31.4,FLYING,CF1-J,0:/Integrated Flight Computer/aircraft/cf1_j_cfg.ks (inferred preloaded)
32.1,CRUISE,,64.04,80,15.96,1647,1647,31.71,31.35,5.82,357.74,0.735,1,0,4.866,1,0.6,4.5,0.75,0.35,0.0168,0.4,0,45,0,-195.982,0,358.3,0,0,0,26.39,0,0,-0.04,90,0,0,0,0,0,0,0,0,0,0,0,3,0,0,0,69,0,0,0,0,0,0,,0,NONE,0,0,0,0,0,0,0,0,0,0,0,1647,0,0,0,0,0,0,0,0,0,331.78,0,0,0,0,0,0,0,0,0,0,0,0,0,0,0,0,0,VALID,0,0,0,0,0,1,0,0,0,0,0,0,0,0,0,0,0,0,0,0,326.78,370.49,2,0,0.105,0.105,286,8.57,0.14,0.105,31.75,FLYING,CF1-J,0:/Integrated Flight Computer/aircraft/cf1_j_cfg.ks (inferred preloaded)
32.45,CRUISE,,64.25,80,15.75,1658.12,1658.12,31.43,31.96,6.8,357.78,0.716,1,0,4.793,1,0.6,4.5,0.75,0.35,0.0168,0.4,0,45,0,-195.772,0,358.3,0,0,0,26.09,0,0,-0.04,90,0,0,0,0,0,0,0,0,0,0,0,3,0,0,0,69,0,0,0,0,0,0,,0,NONE,0,0,0,0,0,0,0,0,0,0,0,1658.12,0,0,0,0,0,0,0,0,0,331.78,0,0,0,0,0,0,0,0,0,0,0,0,0,0,0,0,0,VALID,0,0,0,0,0,1,0,0,0,0,0,0,0,0,0,0,0,0,0,0,327.13,369.86,2,0,0.105,0.105,289,8.57,0.14,0.105,32.1,FLYING,CF1-J,0:/Integrated Flight Computer/aircraft/cf1_j_cfg.ks (inferred preloaded)
32.8,CRUISE,,64.43,80,15.57,1669.06,1669.06,31.25,31.83,6.92,357.81,0.698,1,0,4.721,1,0.6,4.5,0.75,0.35,0.0168,0.4,0,45,0,-195.585,0,358.3,0,0,0,25.89,0,0,-0.04,90,0,0,0,0,0,0,0,0,0,0,0,3,0,0,0,69,0,0,0,0,0,0,,0,NONE,0,0,0,0,0,0,0,0,0,0,0,1669.06,0,0,0,0,0,0,0,0,0,331.78,0,0,0,0,0,0,0,0,0,0,0,0,0,0,0,0,0,VALID,0,0,0,0,0,1,0,0,0,0,0,0,0,0,0,0,0,0,0,0,327.48,369.25,2,0,0.105,0.105,292,8.57,0.14,0.105,32.45,FLYING,CF1-J,0:/Integrated Flight Computer/aircraft/cf1_j_cfg.ks (inferred preloaded)
33.11,CRUISE,,64.6,80,15.4,1678.84,1678.84,31.06,31.6,6.93,357.82,0.68,1,0,4.651,1,0.6,4.5,0.75,0.35,0.0168,0.4,0,45,0,-195.416,0,358.3,0,0,0,25.7,0,0,-0.04,90,0,0,0,0,0,0,0,0,0,0,0,3,0,0,0,69,0,0,0,0,0,0,,0,NONE,0,0,0,0,0,0,0,0,0,0,0,1678.84,0,0,0,0,0,0,0,0,0,331.78,0,0,0,0,0,0,0,0,0,0,0,0,0,0,0,0,0,VALID,0,0,0,0,0,1,0,0,0,0,0,0,0,0,0,0,0,0,0,0,327.78,368.7,2,0,0.105,0.105,295,9.52,0.105,0.105,32.76,FLYING,CF1-J,0:/Integrated Flight Computer/aircraft/cf1_j_cfg.ks (inferred preloaded)
33.46,CRUISE,,64.81,80,15.19,1689.63,1689.63,30.86,31.32,6.93,357.84,0.661,1,0,4.582,1,0.6,4.5,0.75,0.35,0.0168,0.4,0,45,0,-195.216,0,358.3,0,0,0,25.48,0,0,-0.04,90,0,0,0,0,0,0,0,0,0,0,0,3,0,0,0,69,0,0,0,0,0,0,,0,NONE,0,0,0,0,0,0,0,0,0,0,0,1689.63,0,0,0,0,0,0,0,0,0,331.78,0,0,0,0,0,0,0,0,0,0,0,0,0,0,0,0,0,VALID,0,0,0,0,0,1,0,0,0,0,0,0,0,0,0,0,0,0,0,0,328.09,368.09,2,0,0.105,0.105,298,8.57,0.14,0.105,33.11,FLYING,CF1-J,0:/Integrated Flight Computer/aircraft/cf1_j_cfg.ks (inferred preloaded)
33.78,CRUISE,,65,80,15,1699.29,1699.29,30.69,31.08,6.92,357.86,0.643,1,0,4.513,1,0.6,4.5,0.75,0.35,0.0168,0.4,0,45,0,-195.024,0,358.3,0,0,0,25.29,0,0,-0.04,90,0,0,0,0,0,0,0,0,0,0,0,3,0,0,0,69,0,0,0,0,0,0,,0,NONE,0,0,0,0,0,0,0,0,0,0,0,1699.29,0,0,0,0,0,0,0,0,0,331.78,0,0,0,0,0,0,0,0,0,0,0,0,0,0,0,0,0,VALID,0,0,0,0,0,1,0,0,0,0,0,0,0,0,0,0,0,0,0,0,328.34,367.54,2,0,0.105,0.105,301,9.52,0.105,0.105,33.43,FLYING,CF1-J,0:/Integrated Flight Computer/aircraft/cf1_j_cfg.ks (inferred preloaded)
34.13,CRUISE,,65.22,80,14.78,1709.95,1709.95,30.51,30.81,6.9,357.88,0.624,1,0,4.446,1,0.6,4.5,0.75,0.35,0.0168,0.4,0,45,0,-194.8,0,358.3,0,0,0,25.09,0,0,-0.04,90,0,0,0,0,0,0,0,0,0,0,0,3,0,0,0,69,0,0,0,0,0,0,,0,NONE,0,0,0,0,0,0,0,0,0,0,0,1709.95,0,0,0,0,0,0,0,0,0,331.78,0,0,0,0,0,0,0,0,0,0,0,0,0,0,0,0,0,VALID,0,0,0,0,0,1,0,0,0,0,0,0,0,0,0,0,0,0,0,0,328.61,366.92,2,0,0.105,0.105,304,8.57,0.14,0.105,33.78,FLYING,CF1-J,0:/Integrated Flight Computer/aircraft/cf1_j_cfg.ks (inferred preloaded)
34.44,CRUISE,,65.44,80,14.56,1719.5,1719.5,30.36,30.56,6.88,357.89,0.606,1,0,4.379,1,0.6,4.5,0.75,0.35,0.0168,0.4,0,45,0,-194.587,0,358.3,0,0,0,24.91,0,0,-0.04,90,0,0,0,0,0,0,0,0,0,0,0,3,0,0,0,69,0,0,0,0,0,0,,0,NONE,0,0,0,0,0,0,0,0,0,0,0,1719.5,0,0,0,0,0,0,0,0,0,331.78,0,0,0,0,0,0,0,0,0,0,0,0,0,0,0,0,0,VALID,0,0,0,0,0,1,0,0,0,0,0,0,0,0,0,0,0,0,0,0,328.82,366.36,2,0,0.105,0.105,307,9.52,0.105,0.105,34.09,FLYING,CF1-J,0:/Integrated Flight Computer/aircraft/cf1_j_cfg.ks (inferred preloaded)
34.79,CRUISE,,65.69,80,14.31,1730.06,1730.06,30.2,30.29,6.86,357.91,0.587,1,0,4.314,1,0.6,4.5,0.75,0.35,0.0168,0.4,0,45,0,-194.34,0,358.3,0,0,0,24.71,0,0,-0.04,90,0,0,0,0,0,0,0,0,0,0,0,3,0,0,0,69,0,0,0,0,0,0,,0,NONE,0,0,0,0,0,0,0,0,0,0,0,1730.06,0,0,0,0,0,0,0,0,0,331.78,0,0,0,0,0,0,0,0,0,0,0,0,0,0,0,0,0,VALID,0,0,0,0,0,1,0,0,0,0,0,0,0,0,0,0,0,0,0,0,329.04,365.73,2,0,0.105,0.105,310,8.57,0.14,0.105,34.44,FLYING,CF1-J,0:/Integrated Flight Computer/aircraft/cf1_j_cfg.ks (inferred preloaded)
35.11,CRUISE,,65.92,80,14.08,1739.51,1739.51,30.06,30.05,6.83,357.92,0.57,1,0,4.25,1,0.6,4.5,0.75,0.35,0.0168,0.4,0,45,0,-194.107,0,358.3,0,0,0,24.53,0,0,-0.04,90,0,0,0,0,0,0,0,0,0,0,0,3,0,0,0,69,0,0,0,0,0,0,,0,NONE,0,0,0,0,0,0,0,0,0,0,0,1739.51,0,0,0,0,0,0,0,0,0,331.78,0,0,0,0,0,0,0,0,0,0,0,0,0,0,0,0,0,VALID,0,0,0,0,0,1,0,0,0,0,0,0,0,0,0,0,0,0,0,0,329.22,365.16,2,0,0.105,0.105,313,9.52,0.105,0.105,34.76,FLYING,CF1-J,0:/Integrated Flight Computer/aircraft/cf1_j_cfg.ks (inferred preloaded)
35.46,CRUISE,,66.19,80,13.81,1749.97,1749.97,29.92,29.78,6.79,357.94,0.552,1,0,4.186,1,0.6,4.5,0.75,0.35,0.0168,0.4,0,45,0,-193.838,0,358.3,0,0,0,24.34,0,0,-0.04,90,0,0,0,0,0,0,0,0,0,0,0,3,0,0,0,69,0,0,0,0,0,0,,0,NONE,0,0,0,0,0,0,0,0,0,0,0,1749.97,0,0,0,0,0,0,0,0,0,331.78,0,0,0,0,0,0,0,0,0,0,0,0,0,0,0,0,0,VALID,0,0,0,0,0,1,0,0,0,0,0,0,0,0,0,0,0,0,0,0,329.4,364.53,2,0,0.105,0.105,316,8.57,0.14,0.105,35.11,FLYING,CF1-J,0:/Integrated Flight Computer/aircraft/cf1_j_cfg.ks (inferred preloaded)
35.81,CRUISE,,66.47,80,13.53,1760.38,1760.38,29.79,29.51,6.75,357.95,0.533,1,0,4.124,1,0.6,4.5,0.75,0.35,0.0168,0.4,0,45,0,-193.558,0,358.3,0,0,0,24.16,0,0,-0.04,90,0,0,0,0,0,0,0,0,0,0,0,3,0,0,0,69,0,0,0,0,0,0,,0,NONE,0,0,0,0,0,0,0,0,0,0,0,1760.38,0,0,0,0,0,0,0,0,0,331.78,0,0,0,0,0,0,0,0,0,0,0,0,0,0,0,0,0,VALID,0,0,0,0,0,1,0,0,0,0,0,0,0,0,0,0,0,0,0,0,329.55,363.89,2,0,0.105,0.105,319,8.57,0.14,0.105,35.46,FLYING,CF1-J,0:/Integrated Flight Computer/aircraft/cf1_j_cfg.ks (inferred preloaded)
36.16,CRUISE,,66.76,80,13.24,1770.74,1770.74,29.67,29.25,6.71,357.97,0.515,1,0,4.062,1,0.6,4.5,0.75,0.35,0.0168,0.4,0,45,0,-193.267,0,358.3,0,0,0,23.98,0,0,-0.04,90,0,0,0,0,0,0,0,0,0,0,0,3,0,0,0,69,0,0,0,0,0,0,,0,NONE,0,0,0,0,0,0,0,0,0,0,0,1770.74,0,0,0,0,0,0,0,0,0,331.78,0,0,0,0,0,0,0,0,0,0,0,0,0,0,0,0,0,VALID,0,0,0,0,0,1,0,0,0,0,0,0,0,0,0,0,0,0,0,0,329.69,363.25,2,0,0.105,0.105,322,8.57,0.14,0.105,35.81,FLYING,CF1-J,0:/Integrated Flight Computer/aircraft/cf1_j_cfg.ks (inferred preloaded)
36.47,CRUISE,,67.03,80,12.97,1780.04,1780.04,29.56,29.01,6.66,357.98,0.499,1,0,4.002,1,0.6,4.5,0.75,0.35,0.0168,0.4,0,45,0,-192.996,0,358.3,0,0,0,23.81,0,0,-0.05,90,0,0,0,0,0,0,0,0,0,0,0,3,0,0,0,69,0,0,0,0,0,0,,0,NONE,0,0,0,0,0,0,0,0,0,0,0,1780.04,0,0,0,0,0,0,0,0,0,331.78,0,0,0,0,0,0,0,0,0,0,0,0,0,0,0,0,0,VALID,0,0,0,0,0,1,0,0,0,0,0,0,0,0,0,0,0,0,0,0,329.79,362.67,2,0,0.105,0.105,325,9.52,0.105,0.105,36.12,FLYING,CF1-J,0:/Integrated Flight Computer/aircraft/cf1_j_cfg.ks (inferred preloaded)
36.82,CRUISE,,67.35,80,12.65,1790.32,1790.32,29.45,28.75,6.61,357.99,0.483,1,0,3.942,1,0.6,4.5,0.75,0.35,0.0168,0.4,0,45,0,-192.685,0,358.3,0,0,0,23.64,0,0,-0.05,90,0,0,0,0,0,0,0,0,0,0,0,3,0,0,0,69,0,0,0,0,0,0,,0,NONE,0,0,0,0,0,0,0,0,0,0,0,1790.32,0,0,0,0,0,0,0,0,0,331.78,0,0,0,0,0,0,0,0,0,0,0,0,0,0,0,0,0,VALID,0,0,0,0,0,1,0,0,0,0,0,0,0,0,0,0,0,0,0,0,329.88,362.02,2,0,0.105,0.105,328,8.57,0.14,0.105,36.47,FLYING,CF1-J,0:/Integrated Flight Computer/aircraft/cf1_j_cfg.ks (inferred preloaded)
37.14,CRUISE,,67.64,80,12.36,1799.55,1799.55,29.36,28.52,6.56,358,0.468,1,0,3.883,1,0.6,4.5,0.75,0.35,0.0168,0.4,0,45,0,-192.396,0,358.3,0,0,0,23.49,0,0,-0.05,90,0,0,0,0,0,0,0,0,0,0,0,3,0,0,0,69,0,0,0,0,0,0,,0,NONE,0,0,0,0,0,0,0,0,0,0,0,1799.55,0,0,0,0,0,0,0,0,0,331.78,0,0,0,0,0,0,0,0,0,0,0,0,0,0,0,0,0,VALID,0,0,0,0,0,1,0,0,0,0,0,0,0,0,0,0,0,0,0,0,329.95,361.43,2,0,0.105,0.105,331,9.52,0.105,0.105,36.79,FLYING,CF1-J,0:/Integrated Flight Computer/aircraft/cf1_j_cfg.ks (inferred preloaded)
37.49,CRUISE,,67.97,80,12.03,1809.78,1809.78,29.27,28.26,6.5,358.01,0.453,1,0,3.825,1,0.6,4.5,0.75,0.35,0.0168,0.4,0,45,0,-192.067,0,358.3,0,0,0,23.32,0,0,-0.05,90,0,0,0,0,0,0,0,0,0,0,0,3,0,0,0,69,0,0,0,0,0,0,,0,NONE,0,0,0,0,0,0,0,0,0,0,0,1809.78,0,0,0,0,0,0,0,0,0,331.78,0,0,0,0,0,0,0,0,0,0,0,0,0,0,0,0,0,VALID,0,0,0,0,0,1,0,0,0,0,0,0,0,0,0,0,0,0,0,0,330.01,360.78,2,0,0.105,0.105,334,8.57,0.14,0.105,37.14,FLYING,CF1-J,0:/Integrated Flight Computer/aircraft/cf1_j_cfg.ks (inferred preloaded)
37.8,CRUISE,,68.27,80,11.73,1818.95,1818.95,29.2,28.02,6.44,358.02,0.439,1,0,3.768,1,0.6,4.5,0.75,0.35,0.0168,0.4,0,45,0,-191.762,0,358.3,0,0,0,23.17,0,0,-0.05,90,0,0,0,0,0,0,0,0,0,0,0,3,0,0,0,69,0,0,0,0,0,0,,0,NONE,0,0,0,0,0,0,0,0,0,0,0,1818.95,0,0,0,0,0,0,0,0,0,331.78,0,0,0,0,0,0,0,0,0,0,0,0,0,0,0,0,0,VALID,0,0,0,0,0,1,0,0,0,0,0,0,0,0,0,0,0,0,0,0,330.04,360.18,2,0,0.105,0.105,337,9.52,0.105,0.105,37.45,FLYING,CF1-J,0:/Integrated Flight Computer/aircraft/cf1_j_cfg.ks (inferred preloaded)
38.15,CRUISE,,68.62,80,11.38,1829.11,1829.11,29.12,27.77,6.37,358.03,0.425,1,0,3.712,1,0.6,4.5,0.75,0.35,0.0168,0.4,0,45,0,-191.414,0,358.3,0,0,0,23.01,0,0,-0.05,90,0,0,0,0,0,0,0,0,0,0,0,3,0,0,0,69,0,0,0,0,0,0,,0,NONE,0,0,0,0,0,0,0,0,0,0,0,1829.11,0,0,0,0,0,0,0,0,0,331.78,0,0,0,0,0,0,0,0,0,0,0,0,0,0,0,0,0,VALID,0,0,0,0,0,1,0,0,0,0,0,0,0,0,0,0,0,0,0,0,330.06,359.52,2,0,0.105,0.105,340,8.57,0.14,0.105,37.8,FLYING,CF1-J,0:/Integrated Flight Computer/aircraft/cf1_j_cfg.ks (inferred preloaded)
38.47,CRUISE,,68.94,80,11.06,1838.24,1838.24,29.05,27.54,6.31,358.04,0.413,1,0,3.656,1,0.6,4.5,0.75,0.35,0.0168,0.4,0,45,0,-191.093,0,358.3,0,0,0,22.86,0,0,-0.05,90,0,0,0,0,0,0,0,0,0,0,0,3,0,0,0,69,0,0,0,0,0,0,,0,NONE,0,0,0,0,0,0,0,0,0,0,0,1838.24,0,0,0,0,0,0,0,0,0,331.78,0,0,0,0,0,0,0,0,0,0,0,0,0,0,0,0,0,VALID,0,0,0,0,0,1,0,0,0,0,0,0,0,0,0,0,0,0,0,0,330.06,358.92,2,0,0.105,0.105,343,9.52,0.105,0.105,38.12,FLYING,CF1-J,0:/Integrated Flight Computer/aircraft/cf1_j_cfg.ks (inferred preloaded)
38.82,CRUISE,,69.31,80,10.69,1848.36,1848.36,28.98,27.29,6.24,358.05,0.399,1,0,3.602,1,0.6,4.5,0.75,0.35,0.0168,0.4,0,45,0,-190.728,0,358.3,0,0,0,22.71,0,0,-0.05,90,0,0,0,0,0,0,0,0,0,0,0,3,0,0,0,69,0,0,0,0,0,0,,0,NONE,0,0,0,0,0,0,0,0,0,0,0,1848.36,0,0,0,0,0,0,0,0,0,331.78,0,0,0,0,0,0,0,0,0,0,0,0,0,0,0,0,0,VALID,0,0,0,0,0,1,0,0,0,0,0,0,0,0,0,0,0,0,0,0,330.05,358.25,2,0,0.105,0.105,346,8.57,0.14,0.105,38.47,FLYING,CF1-J,0:/Integrated Flight Computer/aircraft/cf1_j_cfg.ks (inferred preloaded)
39.17,CRUISE,,69.68,80,10.32,1858.46,1858.46,28.92,27.04,6.17,358.05,0.387,1,0,3.548,1,0.6,4.5,0.75,0.35,0.0168,0.4,0,45,0,-190.355,0,358.3,0,0,0,22.56,0,0,-0.05,90,0,0,0,0,0,0,0,0,0,0,0,3,0,0,0,69,0,0,0,0,0,0,,0,NONE,0,0,0,0,0,0,0,0,0,0,0,1858.46,0,0,0,0,0,0,0,0,0,331.78,0,0,0,0,0,0,0,0,0,0,0,0,0,0,0,0,0,VALID,0,0,0,0,0,1,0,0,0,0,0,0,0,0,0,0,0,0,0,0,330.02,357.58,2,0,0.105,0.105,349,8.57,0.14,0.105,38.82,FLYING,CF1-J,0:/Integrated Flight Computer/aircraft/cf1_j_cfg.ks (inferred preloaded)
39.52,CRUISE,,70.07,80,9.93,1868.53,1868.53,28.87,26.79,6.1,358.06,0.374,1,0,3.495,1,0.6,4.5,0.75,0.35,0.0168,0.4,0,45,0,-189.973,0,358.3,0,0,0,22.41,0,0,-0.05,90,0,0,0,0,0,0,0,0,0,0,0,3,0,0,0,69,0,0,0,0,0,0,,0,NONE,0,0,0,0,0,0,0,0,0,0,0,1868.53,0,0,0,0,0,0,0,0,0,331.78,0,0,0,0,0,0,0,0,0,0,0,0,0,0,0,0,0,VALID,0,0,0,0,0,1,0,0,0,0,0,0,0,0,0,0,0,0,0,0,329.96,356.9,2,0,0.105,0.105,352,8.57,0.14,0.105,39.17,FLYING,CF1-J,0:/Integrated Flight Computer/aircraft/cf1_j_cfg.ks (inferred preloaded)
