t_s,phase,subphase,ias_ms,vapp_ms,spd_err_ms,agl_m,gear_h_m,vs_ms,pitch_deg,aoa_deg,hdg_deg,bank_deg,thr_cmd,thr_cur,thr_intg,at_gain,at_tau_s,at_a_up,at_a_dn,at_kp_thr,at_ki_spd,at_thr_slew,as_cmd_deg,as_cap_deg,as_raw_deg,as_spd_err_ms,as_active,aa_hdg_cmd_deg,aa_fpa_cmd_deg,aa_fbw,aa_dir,actual_fpa_deg,ftf_hdg_err_deg,ftf_fix_idx,kos_steer_pit_deg,kos_steer_hdg_deg,aa_dir_vx,aa_dir_vy,aa_dir_vz,aa_dir_pitch_deg,aa_dir_hdg_deg,ils_loc_m,ils_gs_m,ils_dist_km,loc_corr_deg,gs_corr_deg,gs_latched,active_gs_ang_deg,ils_intercept_alt_m,d_gs_ms,fpa_preclamped_deg,gs_nom_alt_m,flare_fpa_cmd,flare_tgt_vs,flare_frac,flare_mode,flare_auth_limited,flare_vs_err,flare_fpa_err,flare_pitch_err,flare_req_up_a,flare_thr_floor,flare_tecs_et_err,flare_tecs_eb_err,flare_tecs_h_ref,flare_tecs_v_ref,flare_gamma_ref,flare_gamma_eb_term,flare_gamma_unsat,steer_hdg_deg,steer_blend,ro_loc_corr_deg,ro_hdg_err_deg,ro_yaw_tgt,ro_yaw_scale,ro_yaw_gate,yaw_cmd,roll_cmd,pitch_cmd,ro_pitch_tgt_deg,ro_pitch_err_deg,ro_pitch_ff,ro_roll_assist,flaps_cur,flaps_tgt,asc_j_ab,asc_j_rk,asc_validity,asc_q_pa,asc_q_raw_pa,asc_mach,asc_apo_m,asc_drag_n,asc_w_prop,asc_edot_aero,asc_edot_orb,asc_pitch_bias,asc_blend,asc_spooling,asc_ab_thr_ratio,asc_ab_t_now,asc_ab_t_avail,asc_ab_ign_on,asc_ab_flameouts,asc_rk_t_now,asc_rk_t_avail,asc_rk_ign_on,asc_rk_flameouts,ship_thrust,ship_avail_thrust,ship_ign_on,ship_flameouts,ifc_raw_dt_s,ifc_dt_s,ifc_loop_n,ifc_hz_est,ifc_raw_dt_max_s,ifc_raw_dt_min_s,phase_el_s,status,craft_name,cfg_file
0.16,APPROACH,ILS_TRACK,154.22,152,-2.22,742.97,664.15,-12.41,10.34,14.69,269.81,0.287,0,0,0,0,0,0,0,0,0,0,0,0,0,0,0,0,0,1,0,-4.61,0,0,0,90,0,0,0,0,0,7.11,-488.01,22.071,0,0,0,3,742.97,0,0,1230.98,0,0,0,,0,0,0,0,0,0,0,0,0,0,0,0,0,269.8,0,0,0,0,0,0,0,0,0,0,0,0,0,0,0,0,0,VALID,0,0,0,0,0,1,0,0,0,0,0,0,0,0,0,0,0,0,0,0,298.69,1080.89,2,0,0.14,0.14,1,3.7,0.14,0.02,0.18,FLYING,X10-H,0:/Integrated Flight Computer/aircraft/x10_h_cfg.ks (inferred preloaded)
0.42,APPROACH,ILS_TRACK,154.36,152,-2.36,739.83,660.99,-11.92,10.48,14.6,269.8,0.197,0,0,0,1,0.6,1.461,0.75,0.35,0.0168,0.4,0.984,21.226,0.984,2.358,1,269.91,0,0,1,-4.45,0,0,0,255.09,0.6982,-0.0016,0.7159,0,269.91,6.93,-488.85,22.032,-0.09,0,0,3,742.97,-3.602,0,1228.93,0,0,0,,0,0,0,0,0,0,0,0,0,0,0,0,0,269.8,0,0,0,0,0,0,0,0,0,0,0,0,0,1,3,0,0,VALID,0,0,0,0,0,1,0,0,0,0,0,0,0,0,0,0,0,0,0,0,272.85,1081.74,2,0,0.12,0.12,3,7.69,0.14,0.12,0.44,FLYING,X10-H,0:/Integrated Flight Computer/aircraft/x10_h_cfg.ks (inferred preloaded)
0.68,APPROACH,ILS_TRACK,154.31,152,-2.31,736.49,657.97,-11.39,9.58,13.44,269.77,0.144,0,0,0,1,0.6,2.697,0.75,0.35,0.0168,0.4,0.935,21.239,0.935,2.314,1,269.92,0,0,1,-4.24,0,0,0,269.92,0.6982,-0.0014,0.7159,0,269.92,6.73,-489.95,21.989,-0.077,0,0,3,742.97,-4.507,0,1226.7,0,0,0,,0,0,0,0,0,0,0,0,0,0,0,0,0,269.8,0,0,0,0,0,0,0,0,0,0,0,0,0,1,3,0,0,VALID,0,0,0,0,0,1,0,0,0,0,0,0,0,0,0,0,0,0,0,0,249.06,1081.77,2,0,0.12,0.12,5,7.69,0.14,0.12,0.7,FLYING,X10-H,0:/Integrated Flight Computer/aircraft/x10_h_cfg.ks (inferred preloaded)
0.94,APPROACH,ILS_TRACK,154.38,152,-2.38,732.99,654.97,-11.49,7.76,11.64,269.78,0.302,0,0,0,1,0.6,3.744,0.75,0.35,0.0168,0.4,1.007,21.221,1.007,2.378,1,269.94,0,0,1,-4.25,0,0,0,269.93,0.6983,-0.0011,0.7158,0,269.94,6.53,-491.21,21.947,-0.064,0,0,3,742.97,-4.897,0,1224.48,0,0,0,,0,0,0,0,0,0,0,0,0,0,0,0,0,269.8,0,0,0,0,0,0,0,0,0,0,0,0,0,2,3,0,0,VALID,0,0,0,0,0,1,0,0,0,0,0,0,0,0,0,0,0,0,0,0,227.4,1082.24,2,0,0.12,0.12,7,7.69,0.14,0.12,0.96,FLYING,X10-H,0:/Integrated Flight Computer/aircraft/x10_h_cfg.ks (inferred preloaded)
1.2,APPROACH,ILS_TRACK,154.6,152,-2.6,729.37,651.95,-11.7,5.75,9.46,269.78,0.221,0,0,0,1,0.6,4.5,0.75,0.35,0.0168,0.4,1.256,21.159,1.256,2.598,1,269.94,0,0,1,-4.31,0,0,0,269.93,0.6983,-0.0011,0.7158,0,269.94,6.33,-492.6,21.904,-0.063,0,0,3,742.97,-5.56,0,1222.25,0,0,0,,0,0,0,0,0,0,0,0,0,0,0,0,0,269.8,0,0,0,0,0,0,0,0,0,0,0,0,0,3,3,0,0,VALID,0,0,0,0,0,1,0,0,0,0,0,0,0,0,0,0,0,0,0,0,207.77,1083.37,2,0,0.12,0.12,9,7.69,0.14,0.12,1.22,FLYING,X10-H,0:/Integrated Flight Computer/aircraft/x10_h_cfg.ks (inferred preloaded)
1.46,APPROACH,ILS_TRACK,154.91,152,-2.91,725.52,648.8,-12.56,3.29,7.46,269.75,0.047,0,0,0,1,0.6,4.5,0.75,0.35,0.0168,0.4,1.605,21.071,1.605,2.909,1,269.94,0,0,1,-4.57,0,0,0,269.93,0.6984,-0.0011,0.7157,0,269.94,6.15,-494.21,21.862,-0.063,0,0,3,742.97,-6.344,0,1220.02,0,0,0,,0,0,0,0,0,0,0,0,0,0,0,0,0,269.8,0,0,0,0,0,0,0,0,0,0,0,0,0,3,3,0,0,VALID,0,0,0,0,0,1,0,0,0,0,0,0,0,0,0,0,0,0,0,0,189.89,1084.91,2,0,0.12,0.12,11,7.69,0.14,0.12,1.48,FLYING,X10-H,0:/Integrated Flight Computer/aircraft/x10_h_cfg.ks (inferred preloaded)
1.72,APPROACH,ILS_TRACK,155.32,152,-3.32,721.6,645.35,-13.88,1.52,6.23,269.74,0.002,0,0,0,1,0.6,4.5,0.75,0.35,0.0168,0.4,2.064,20.955,2.064,3.323,1,269.95,0,0,1,-5.03,0,0,0,269.95,0.6984,-0.0009,0.7157,0,269.95,5.95,-495.89,21.819,-0.052,0,0,3,742.97,-6.465,0,1217.79,0,0,0,,0,0,0,0,0,0,0,0,0,0,0,0,0,269.8,0,0,0,0,0,0,0,0,0,0,0,0,0,3,3,0,0,VALID,0,0,0,0,0,1,0,0,0,0,0,0,0,0,0,0,0,0,0,0,173.64,1086.91,2,0,0.12,0.12,13,7.69,0.14,0.12,1.74,FLYING,X10-H,0:/Integrated Flight Computer/aircraft/x10_h_cfg.ks (inferred preloaded)
1.98,APPROACH,ILS_TRACK,155.72,152,-3.72,717.69,641.53,-15.3,0.96,6.25,269.74,0.043,0,0,0,1,0.6,4.5,0.75,0.35,0.0168,0.4,2.497,20.844,2.497,3.716,1,269.95,0,0,1,-5.54,0,0,0,269.96,0.6985,-0.0008,0.7156,0,269.95,5.76,-497.57,21.777,-0.045,0,0,3,742.97,-6.448,0,1215.56,0,0,0,,0,0,0,0,0,0,0,0,0,0,0,0,0,269.8,0,0,0,0,0,0,0,0,0,0,0,0,0,3,3,0,0,VALID,0,0,0,0,0,1,0,0,0,0,0,0,0,0,0,0,0,0,0,0,158.78,1088.88,2,0,0.12,0.12,15,7.69,0.14,0.12,2,FLYING,X10-H,0:/Integrated Flight Computer/aircraft/x10_h_cfg.ks (inferred preloaded)
2.24,APPROACH,ILS_TRACK,156.05,152,-4.05,713.8,637.37,-16.56,1.7,7.53,269.74,0.065,0,0,0,1,0.6,4.5,0.75,0.35,0.0168,0.4,2.859,20.75,2.859,4.049,1,269.96,0,0,1,-6,0,0,0,269.96,0.6985,-0.0007,0.7156,0,269.96,5.56,-499.22,21.734,-0.038,0,0,3,742.97,-6.311,0,1213.32,0,0,0,,0,0,0,0,0,0,0,0,0,0,0,0,0,269.8,0,0,0,0,0,0,0,0,0,0,0,0,0,3,3,0,0,VALID,0,0,0,0,0,1,0,0,0,0,0,0,0,0,0,0,0,0,0,0,145.16,1090.64,2,0,0.12,0.12,17,7.69,0.14,0.12,2.26,FLYING,X10-H,0:/Integrated Flight Computer/aircraft/x10_h_cfg.ks (inferred preloaded)
2.5,APPROACH,ILS_TRACK,156.27,152,-4.27,709.99,632.95,-17.39,3.66,9.88,269.75,0.094,0,0,0,1,0.6,4.5,0.75,0.35,0.0168,0.4,3.102,20.686,3.102,4.274,1,269.97,0,0,1,-6.32,0,0,0,269.97,0.6986,-0.0005,0.7155,0,269.97,5.37,-500.8,21.691,-0.031,0,0,3,742.97,-5.981,0,1211.08,0,0,0,,0,0,0,0,0,0,0,0,0,0,0,0,0,269.8,0,0,0,0,0,0,0,0,0,0,0,0,0,3,3,0,0,VALID,0,0,0,0,0,1,0,0,0,0,0,0,0,0,0,0,0,0,0,0,132.65,1091.98,2,0,0.12,0.12,19,7.69,0.14,0.12,2.52,FLYING,X10-H,0:/Integrated Flight Computer/aircraft/x10_h_cfg.ks (inferred preloaded)
2.76,APPROACH,ILS_TRACK,156.34,152,-4.34,706.17,628.42,-17.43,6.18,12.41,269.77,0.158,0,0,0,1,0.6,4.5,0.75,0.35,0.0168,0.4,3.178,20.666,3.178,4.345,1,269.98,0,0,1,-6.38,0,0,0,269.98,0.6986,-0.0004,0.7155,0,269.98,5.17,-502.37,21.648,-0.025,0,0,3,742.97,-6.113,0,1208.84,0,0,0,,0,0,0,0,0,0,0,0,0,0,0,0,0,269.8,0,0,0,0,0,0,0,0,0,0,0,0,0,3,3,0,0,VALID,0,0,0,0,0,1,0,0,0,0,0,0,0,0,0,0,0,0,0,0,121.16,1092.66,2,0,0.12,0.12,21,7.69,0.14,0.12,2.78,FLYING,X10-H,0:/Integrated Flight Computer/aircraft/x10_h_cfg.ks (inferred preloaded)
3.02,APPROACH,ILS_TRACK,156.17,152,-4.17,702.3,623.95,-17.02,8.33,14.41,269.8,0.255,0,0,0,1,0.6,4.5,0.75,0.35,0.0168,0.4,2.991,20.715,2.991,4.171,1,269.99,0,0,1,-6.25,0,0,0,269.99,0.6987,-0.0002,0.7154,0,269.99,4.98,-504.01,21.606,-0.011,0,0,3,742.97,-6.314,0,1206.6,0,0,0,,0,0,0,0,0,0,0,0,0,0,0,0,0,269.8,0,0,0,0,0,0,0,0,0,0,0,0,0,3,3,0,0,VALID,0,0,0,0,0,1,0,0,0,0,0,0,0,0,0,0,0,0,0,0,110.56,1092.28,2,0,0.12,0.12,23,7.69,0.14,0.12,3.04,FLYING,X10-H,0:/Integrated Flight Computer/aircraft/x10_h_cfg.ks (inferred preloaded)
3.28,APPROACH,ILS_TRACK,155.77,152,-3.77,698.49,619.62,-16.32,10.23,16.07,269.84,0.375,0,0,0,1,0.6,4.5,0.75,0.35,0.0168,0.4,2.551,20.83,2.551,3.766,1,269.99,0,0,1,-6.03,0,0,0,269.99,0.6987,-0.0002,0.7154,0,269.99,4.79,-505.58,21.563,-0.012,0,0,3,742.97,-5.99,0,1204.37,0,0,0,,0,0,0,0,0,0,0,0,0,0,0,0,0,269.8,0,0,0,0,0,0,0,0,0,0,0,0,0,3,3,0,0,VALID,0,0,0,0,0,1,0,0,0,0,0,0,0,0,0,0,0,0,0,0,100.79,1090.9,2,0,0.12,0.12,25,7.69,0.14,0.12,3.3,FLYING,X10-H,0:/Integrated Flight Computer/aircraft/x10_h_cfg.ks (inferred preloaded)
3.54,APPROACH,ILS_TRACK,155.12,152,-3.12,694.77,615.52,-15.32,11.65,17.13,269.88,0.469,0.0539,0,-0.87,1,0.6,4.5,0.75,0.35,0.0168,0.4,1.839,21.012,1.839,3.119,1,269.99,0,0,1,-5.7,0,0,0,270,0.6988,-0.0002,0.7153,0,269.99,4.6,-507.09,21.521,-0.009,0,0,3,742.97,-5.707,0,1202.14,0,0,0,,0,0,0,0,0,0,0,0,0,0,0,0,0,269.8,0,0,0,0,0,0,0,0,0,0,0,0,0,3,3,0,0,VALID,0,0,0,0,0,1,0,0,0,0,0,0,0,0,0,0,0,0,0,0,92.01,1088.45,2,0,0.12,0.12,27,7.69,0.14,0.12,3.56,FLYING,X10-H,0:/Integrated Flight Computer/aircraft/x10_h_cfg.ks (inferred preloaded)
3.8,APPROACH,ILS_TRACK,154.31,152,-2.31,691.16,611.69,-14.24,12.51,17.6,269.92,0.535,0.1579,0,-1.542,1,0.6,4.5,0.75,0.35,0.0168,0.4,0,21.239,0,2.312,0,269.99,0,0,1,-5.33,0,0,0,270,0.6988,-0.0002,0.7153,0,269.99,4.42,-508.5,21.478,-0.013,0,0,3,742.97,-5.285,0,1199.93,0,0,0,,0,0,0,0,0,0,0,0,0,0,0,0,0,269.8,0,0,0,0,0,0,0,0,0,0,0,0,0,3,3,0,0,VALID,0,0,0,0,0,1,0,0,0,0,0,0,0,0,0,0,0,0,0,0,90.18,1085.3,2,0,0.12,0.12,29,7.69,0.14,0.12,3.82,FLYING,X10-H,0:/Integrated Flight Computer/aircraft/x10_h_cfg.ks (inferred preloaded)
4.06,APPROACH,ILS_TRACK,153.45,152,-1.45,687.71,608.14,-13.21,12.94,17.67,269.95,0.579,0.2619,0,-1.992,1,0.6,4.5,0.75,0.35,0.0168,0.4,0,21.482,0,1.45,0,269.99,0,0,1,-4.97,0,0,0,270,0.6989,-0.0002,0.7153,0,269.99,4.25,-509.75,21.436,-0.01,0,0,3,742.97,-4.634,0,1197.72,0,0,0,,0,0,0,0,0,0,0,0,0,0,0,0,0,269.8,0,0,0,0,0,0,0,0,0,0,0,0,0,3,3,0,0,VALID,0,0,0,0,0,1,0,0,0,0,0,0,0,0,0,0,0,0,0,0,95.02,1081.89,2,0,0.12,0.12,31,7.69,0.14,0.12,4.08,FLYING,X10-H,0:/Integrated Flight Computer/aircraft/x10_h_cfg.ks (inferred preloaded)
4.32,APPROACH,ILS_TRACK,152.6,152,-0.6,684.51,604.83,-12.27,13.29,17.71,269.97,0.611,0.3659,0,-2.219,1,0.6,4.5,0.75,0.35,0.0168,0.4,0,21.722,0,0.598,0,269.99,0,0,1,-4.65,0,0,0,269.99,0.6989,-0.0002,0.7152,0,269.99,4.09,-510.78,21.395,-0.013,0,0,3,742.97,-3.688,0,1195.53,0,0,0,,0,0,0,0,0,0,0,0,0,0,0,0,0,269.8,0,0,0,0,0,0,0,0,0,0,0,0,0,3,3,0,0,VALID,0,0,0,0,0,1,0,0,0,0,0,0,0,0,0,0,0,0,0,0,105.26,1078.53,2,0,0.12,0.12,33,7.69,0.14,0.12,4.34,FLYING,X10-H,0:/Integrated Flight Computer/aircraft/x10_h_cfg.ks (inferred preloaded)
4.58,APPROACH,ILS_TRACK,151.74,152,0.26,681.54,601.79,-11.28,13.58,17.66,269.99,0.628,0.4699,0,-2.225,1,0.6,4.5,0.75,0.35,0.0168,0.4,0,21.963,0,-0.256,0,269.99,0,0,1,-4.3,0,0,0,269.98,0.699,-0.0002,0.7152,0,269.99,3.94,-511.59,21.353,-0.01,0,0,3,742.97,-2.906,0,1193.35,0,0,0,,0,0,0,0,0,0,0,0,0,0,0,0,0,269.8,0,0,0,0,0,0,0,0,0,0,0,0,0,3,3,0,0,VALID,0,0,0,0,0,1,0,0,0,0,0,0,0,0,0,0,0,0,0,0,120.58,1075.16,2,0,0.12,0.12,35,7.69,0.14,0.12,4.6,FLYING,X10-H,0:/Integrated Flight Computer/aircraft/x10_h_cfg.ks (inferred preloaded)
4.84,APPROACH,ILS_TRACK,150.93,152,1.07,678.82,598.97,-10.49,13.89,17.71,270.01,0.642,0.5739,0,-2.203,1,0.6,4.5,0.75,0.35,0.0168,0.4,0,22.176,0,-1.011,0,269.97,0,0,1,-4.01,0,0,0,269.98,0.699,-0.0005,0.7151,0,269.97,3.81,-512.16,21.311,-0.029,0,0,3,742.97,-1.919,0,1191.18,0,0,0,,0,0,0,0,0,0,0,0,0,0,0,0,0,269.8,0,0,0,0,0,0,0,0,0,0,0,0,0,3,3,0,0,VALID,0,0,0,0,0,1,0,0,0,0,0,0,0,0,0,0,0,0,0,0,140.69,1071.94,2,0,0.12,0.12,37,7.69,0.14,0.12,4.86,FLYING,X10-H,0:/Integrated Flight Computer/aircraft/x10_h_cfg.ks (inferred preloaded)
5.1,APPROACH,ILS_TRACK,150.14,152,1.86,676.32,596.37,-9.66,14.33,17.86,270.03,0.627,0.6779,0,-2.181,1,0.6,4.5,0.75,0.35,0.0168,0.4,0,22.399,0,-1.802,0,269.98,0,0,1,-3.73,0,0,0,269.98,0.6991,-0.0004,0.7151,0,269.98,3.67,-512.51,21.27,-0.022,0,0,3,742.97,-1.192,0,1189.01,0,0,0,,0,0,0,0,0,0,0,0,0,0,0,0,0,269.8,0,0,0,0,0,0,0,0,0,0,0,0,0,3,3,0,0,VALID,0,0,0,0,0,1,0,0,0,0,0,0,0,0,0,0,0,0,0,0,165.3,1068.83,2,0,0.12,0.12,39,7.69,0.14,0.12,5.12,FLYING,X10-H,0:/Integrated Flight Computer/aircraft/x10_h_cfg.ks (inferred preloaded)
5.36,APPROACH,ILS_TRACK,149.36,152,2.64,673.98,594.01,-8.6,14.46,17.6,270.03,0.605,0.7819,0,-2.159,1,0.6,4.5,0.75,0.35,0.0168,0.4,0,22.618,0,-2.579,0,269.97,0,0,1,-3.35,0,0,0,269.97,0.6991,-0.0005,0.715,0,269.97,3.56,-512.71,21.229,-0.028,0,0,3,742.97,-0.643,0,1186.86,0,0,0,,0,0,0,0,0,0,0,0,0,0,0,0,0,269.8,0,0,0,0,0,0,0,0,0,0,0,0,0,3,3,0,0,VALID,0,0,0,0,0,1,0,0,0,0,0,0,0,0,0,0,0,0,0,0,194.14,1065.77,2,0,0.12,0.12,41,7.69,0.14,0.12,5.38,FLYING,X10-H,0:/Integrated Flight Computer/aircraft/x10_h_cfg.ks (inferred preloaded)
5.62,APPROACH,ILS_TRACK,148.68,152,3.32,671.85,591.89,-7.77,14.38,17.23,270.03,0.597,0.8859,0,-2.138,1,0.6,4.5,0.75,0.35,0.0168,0.4,0,22.813,0,-3.272,0,269.97,0,0,1,-3.03,0,0,0,269.96,0.6992,-0.0006,0.715,0,269.97,3.45,-512.72,21.188,-0.033,0,0,3,742.97,0.215,0,1184.72,0,0,0,,0,0,0,0,0,0,0,0,0,0,0,0,0,269.8,0,0,0,0,0,0,0,0,0,0,0,0,0,3,3,0,0,VALID,0,0,0,0,0,1,0,0,0,0,0,0,0,0,0,0,0,0,0,0,227.01,1063.09,2,0,0.12,0.12,43,7.69,0.14,0.12,5.64,FLYING,X10-H,0:/Integrated Flight Computer/aircraft/x10_h_cfg.ks (inferred preloaded)
5.88,APPROACH,ILS_TRACK,148.12,152,3.88,669.97,589.97,-7.12,14.5,17.14,270.04,0.581,0.9899,0,-2.116,1,0.6,4.5,0.75,0.35,0.0168,0.4,0,22.972,0,-3.837,0,269.96,0,0,1,-2.79,0,0,0,269.96,0.6992,-0.0007,0.7149,0,269.96,3.35,-512.49,21.148,-0.039,0,0,3,742.97,1.151,0,1182.59,0,0,0,,0,0,0,0,0,0,0,0,0,0,0,0,0,269.8,0,0,0,0,0,0,0,0,0,0,0,0,0,3,3,0,0,VALID,0,0,0,0,0,1,0,0,0,0,0,0,0,0,0,0,0,0,0,0,263.75,1060.93,2,0,0.12,0.12,45,7.69,0.14,0.12,5.9,FLYING,X10-H,0:/Integrated Flight Computer/aircraft/x10_h_cfg.ks (inferred preloaded)
6.14,APPROACH,ILS_TRACK,147.64,152,4.36,668.32,588.21,-6.43,14.89,17.32,270.05,0.549,1,0,-2.095,1,0.6,4.5,0.75,0.35,0.0168,0.4,0,23.109,0,-4.322,0,269.95,0,0,1,-2.56,0,0,0,269.96,0.6993,-0.0008,0.7149,0,269.95,3.26,-512.02,21.107,-0.047,0,0,3,742.97,1.992,0,1180.46,0,0,0,,0,0,0,0,0,0,0,0,0,0,0,0,0,269.8,0,0,0,0,0,0,0,0,0,0,0,0,0,3,3,0,0,VALID,0,0,0,0,0,1,0,0,0,0,0,0,0,0,0,0,0,0,0,0,303.17,1059.08,2,0,0.12,0.12,47,7.69,0.14,0.12,6.16,FLYING,X10-H,0:/Integrated Flight Computer/aircraft/x10_h_cfg.ks (inferred preloaded)
6.4,APPROACH,ILS_TRACK,147.15,152,4.85,666.79,586.71,-5.25,14.93,16.86,270.04,0.502,1,0,-2.074,1,0.6,4.5,0.75,0.35,0.0168,0.4,0,23.246,0,-4.809,0,269.95,0,0,1,-2.1,0,0,0,269.95,0.6993,-0.0008,0.7148,0,269.95,3.18,-511.44,21.067,-0.048,0,0,3,742.97,2.308,0,1178.34,0,0,0,,0,0,0,0,0,0,0,0,0,0,0,0,0,269.8,0,0,0,0,0,0,0,0,0,0,0,0,0,3,3,0,0,VALID,0,0,0,0,0,1,0,0,0,0,0,0,0,0,0,0,0,0,0,0,340.95,1057.18,2,0,0.12,0.12,49,7.69,0.14,0.12,6.42,FLYING,X10-H,0:/Integrated Flight Computer/aircraft/x10_h_cfg.ks (inferred preloaded)
6.66,APPROACH,ILS_TRACK,146.81,152,5.19,665.37,585.47,-4.34,14.33,15.9,270.03,0.446,0.9941,0,-1.444,1,0.6,4.5,0.75,0.35,0.0168,0.4,0,23.353,0,-5.189,0,269.95,0,0,1,-1.74,0,0,0,269.94,0.6994,-0.0009,0.7148,0,269.95,3.11,-510.75,21.026,-0.054,0,0,3,742.97,2.786,0,1176.22,0,0,0,,0,0,0,0,0,0,0,0,0,0,0,0,0,269.8,0,0,0,0,0,0,0,0,0,0,0,0,0,3,3,0,0,VALID,0,0,0,0,0,1,0,0,0,0,0,0,0,0,0,0,0,0,0,0,376.82,1055.86,2,0,0.12,0.12,51,7.69,0.14,0.12,6.68,FLYING,X10-H,0:/Integrated Flight Computer/aircraft/x10_h_cfg.ks (inferred preloaded)
6.92,APPROACH,ILS_TRACK,146.67,152,5.33,664.09,584.45,-3.62,13.46,14.74,270.01,0.379,0.8901,0,-0.066,1,0.6,4.5,0.75,0.35,0.0168,0.4,0,23.393,0,-5.329,0,269.95,0,0,1,-1.45,0,0,0,269.94,0.6994,-0.0009,0.7147,0,269.95,3.04,-509.92,20.986,-0.053,0,0,3,742.97,3.336,0,1174.11,0,0,0,,0,0,0,0,0,0,0,0,0,0,0,0,0,269.8,0,0,0,0,0,0,0,0,0,0,0,0,0,3,3,0,0,VALID,0,0,0,0,0,1,0,0,0,0,0,0,0,0,0,0,0,0,0,0,409.61,1055.34,2,0,0.12,0.12,53,7.69,0.14,0.12,6.94,FLYING,X10-H,0:/Integrated Flight Computer/aircraft/x10_h_cfg.ks (inferred preloaded)
7.18,APPROACH,ILS_TRACK,146.71,152,5.29,662.95,583.59,-3.09,12.46,13.53,269.99,0.317,0.7861,0,1.317,1,0.6,4.5,0.75,0.35,0.0168,0.4,0,23.382,0,-5.291,0,269.94,0,0,1,-1.23,0,0,0,269.94,0.6995,-0.0011,0.7147,0,269.94,2.98,-508.96,20.945,-0.063,0,0,3,742.97,3.845,0,1171.99,0,0,0,,0,0,0,0,0,0,0,0,0,0,0,0,0,269.8,0,0,0,0,0,0,0,0,0,0,0,0,0,3,3,0,0,VALID,0,0,0,0,0,1,0,0,0,0,0,0,0,0,0,0,0,0,0,0,435.59,1055.56,2,0,0.12,0.12,55,7.69,0.14,0.12,7.2,FLYING,X10-H,0:/Integrated Flight Computer/aircraft/x10_h_cfg.ks (inferred preloaded)
7.44,APPROACH,ILS_TRACK,146.92,152,5.08,662.02,582.81,-2.89,11.81,12.87,269.98,0.256,0.6821,0,2.658,1,0.6,4.5,0.75,0.35,0.0168,0.4,0,23.324,0,-5.084,0,269.94,0,0,1,-1.14,0,0,0,269.93,0.6995,-0.001,0.7146,0,269.94,2.92,-507.79,20.905,-0.058,0,0,3,742.97,4.753,0,1169.88,0,0,0,,0,0,0,0,0,0,0,0,0,0,0,0,0,269.8,0,0,0,0,0,0,0,0,0,0,0,0,0,3,3,0,0,VALID,0,0,0,0,0,1,0,0,0,0,0,0,0,0,0,0,0,0,0,0,454.99,1056.46,2,0,0.12,0.12,57,7.69,0.14,0.12,7.46,FLYING,X10-H,0:/Integrated Flight Computer/aircraft/x10_h_cfg.ks (inferred preloaded)
7.7,APPROACH,ILS_TRACK,147.19,152,4.81,661.27,582.12,-2.4,11.64,12.52,269.97,0.207,0.5781,0,3.933,1,0.6,4.5,0.75,0.35,0.0168,0.4,0,23.248,0,-4.815,0,269.94,0,0,1,-0.97,0,0,0,269.94,0.6995,-0.0011,0.7146,0,269.94,2.87,-506.43,20.865,-0.062,0,0,3,742.97,5.328,0,1167.76,0,0,0,,0,0,0,0,0,0,0,0,0,0,0,0,0,269.8,0,0,0,0,0,0,0,0,0,0,0,0,0,3,3,0,0,VALID,0,0,0,0,0,1,0,0,0,0,0,0,0,0,0,0,0,0,0,0,468.01,1057.62,2,0,0.12,0.12,59,7.69,0.14,0.12,7.72,FLYING,X10-H,0:/Integrated Flight Computer/aircraft/x10_h_cfg.ks (inferred preloaded)
7.96,APPROACH,ILS_TRACK,147.45,152,4.55,660.51,581.56,-2.02,10.96,11.64,269.96,0.17,0.4741,0,5.14,1,0.6,4.5,0.75,0.35,0.0168,0.4,0,23.172,0,-4.547,0,269.94,0,0,1,-0.79,0,0,0,269.94,0.6996,-0.0011,0.7145,0,269.94,2.81,-505.07,20.824,-0.06,0,0,3,742.97,5.245,0,1165.63,0,0,0,,0,0,0,0,0,0,0,0,0,0,0,0,0,269.8,0,0,0,0,0,0,0,0,0,0,0,0,0,3,3,0,0,VALID,0,0,0,0,0,1,0,0,0,0,0,0,0,0,0,0,0,0,0,0,474.8,1058.77,2,0,0.12,0.12,61,7.69,0.14,0.12,7.98,FLYING,X10-H,0:/Integrated Flight Computer/aircraft/x10_h_cfg.ks (inferred preloaded)
8.22,APPROACH,ILS_TRACK,147.85,152,4.15,659.89,581.03,-2.07,10.52,11.27,269.96,0.142,0.3701,0,6.254,1,0.6,4.5,0.75,0.35,0.0168,0.4,0,23.061,0,-4.151,0,269.93,0,0,1,-0.8,0,0,0,269.93,0.6996,-0.0011,0.7145,0,269.93,2.77,-503.58,20.783,-0.065,0,0,3,742.97,5.956,0,1163.5,0,0,0,,0,0,0,0,0,0,0,0,0,0,0,0,0,269.8,0,0,0,0,0,0,0,0,0,0,0,0,0,3,3,0,0,VALID,0,0,0,0,0,1,0,0,0,0,0,0,0,0,0,0,0,0,0,0,475.45,1060.44,2,0,0.12,0.12,63,7.69,0.14,0.12,8.24,FLYING,X10-H,0:/Integrated Flight Computer/aircraft/x10_h_cfg.ks (inferred preloaded)
8.48,APPROACH,ILS_TRACK,148.24,152,3.76,659.41,580.53,-1.71,10.63,11.25,269.95,0.114,0.2661,0,7.264,1,0.6,4.5,0.75,0.35,0.0168,0.4,0,22.951,0,-3.762,0,269.94,0,0,1,-0.69,0,0,0,269.94,0.6997,-0.0011,0.7144,0,269.94,2.72,-501.92,20.743,-0.065,0,0,3,742.97,6.369,0,1161.37,0,0,0,,0,0,0,0,0,0,0,0,0,0,0,0,0,269.8,0,0,0,0,0,0,0,0,0,0,0,0,0,3,3,0,0,VALID,0,0,0,0,0,1,0,0,0,0,0,0,0,0,0,0,0,0,0,0,467.21,1062.09,2,0,0.12,0.12,65,7.69,0.14,0.12,8.5,FLYING,X10-H,0:/Integrated Flight Computer/aircraft/x10_h_cfg.ks (inferred preloaded)
8.74,APPROACH,ILS_TRACK,148.6,152,3.4,658.93,580.11,-1.57,10.43,11,269.95,0.096,0.1621,0,8.18,1,0.6,4.5,0.75,0.35,0.0168,0.4,0,22.85,0,-3.402,0,269.94,0,0,1,-0.61,0,0,0,269.94,0.6997,-0.001,0.7144,0,269.94,2.67,-500.26,20.702,-0.06,0,0,3,742.97,6.478,0,1159.23,0,0,0,,0,0,0,0,0,0,0,0,0,0,0,0,0,269.8,0,0,0,0,0,0,0,0,0,0,0,0,0,3,3,0,0,VALID,0,0,0,0,0,1,0,0,0,0,0,0,0,0,0,0,0,0,0,0,450.01,1063.62,2,0,0.12,0.12,67,7.69,0.14,0.12,8.76,FLYING,X10-H,0:/Integrated Flight Computer/aircraft/x10_h_cfg.ks (inferred preloaded)
9,APPROACH,ILS_TRACK,148.94,152,3.06,658.52,579.73,-1.38,10.31,10.8,269.95,0.082,0.0581,0,9.002,1,0.6,4.5,0.75,0.35,0.0168,0.4,0,22.752,0,-3.055,0,269.94,0,0,1,-0.54,0,0,0,269.94,0.6998,-0.0011,0.7143,0,269.94,2.62,-498.53,20.661,-0.063,0,0,3,742.97,6.691,0,1157.08,0,0,0,,0,0,0,0,0,0,0,0,0,0,0,0,0,269.8,0,0,0,0,0,0,0,0,0,0,0,0,0,3,3,0,0,VALID,0,0,0,0,0,1,0,0,0,0,0,0,0,0,0,0,0,0,0,0,424.65,1065.09,2,0,0.12,0.12,69,7.69,0.14,0.12,9.02,FLYING,X10-H,0:/Integrated Flight Computer/aircraft/x10_h_cfg.ks (inferred preloaded)
9.26,APPROACH,ILS_TRACK,149.23,152,2.77,658.15,579.39,-1.23,10.22,10.66,269.95,0.07,0,0,9.744,1,0.6,4.5,0.75,0.35,0.0168,0.4,0,22.671,0,-2.767,0,269.94,0,0,1,-0.48,0,0,0,269.94,0.6998,-0.001,0.7143,0,269.94,2.58,-496.75,20.62,-0.059,0,0,3,742.97,6.893,0,1154.93,0,0,0,,0,0,0,0,0,0,0,0,0,0,0,0,0,269.8,0,0,0,0,0,0,0,0,0,0,0,0,0,3,3,0,0,VALID,0,0,0,0,0,1,0,0,0,0,0,0,0,0,0,0,0,0,0,0,391.71,1066.32,2,0,0.12,0.12,71,7.69,0.14,0.12,9.28,FLYING,X10-H,0:/Integrated Flight Computer/aircraft/x10_h_cfg.ks (inferred preloaded)
9.52,APPROACH,ILS_TRACK,149.44,152,2.56,657.84,579.08,-1.16,10.19,10.62,269.95,0.064,0,0,10.426,1,0.6,4.5,0.75,0.35,0.0168,0.4,0,22.613,0,-2.562,0,269.94,0,0,1,-0.46,0,0,0,269.94,0.6999,-0.001,0.7143,0,269.94,2.53,-494.92,20.579,-0.058,0,0,3,742.97,7.139,0,1152.78,0,0,0,,0,0,0,0,0,0,0,0,0,0,0,0,0,269.8,0,0,0,0,0,0,0,0,0,0,0,0,0,3,3,0,0,VALID,0,0,0,0,0,1,0,0,0,0,0,0,0,0,0,0,0,0,0,0,357.85,1067.19,2,0,0.12,0.12,73,7.69,0.14,0.12,9.54,FLYING,X10-H,0:/Integrated Flight Computer/aircraft/x10_h_cfg.ks (inferred preloaded)
9.78,APPROACH,ILS_TRACK,149.55,152,2.45,657.53,578.8,-1.04,10.1,10.47,269.95,0.059,0.0683,0,11.072,1,0.6,4.5,0.75,0.35,0.0168,0.4,0,22.583,0,-2.455,0,269.95,0,0,1,-0.4,0,0,0,269.95,0.6999,-0.0009,0.7142,0,269.95,2.48,-493.08,20.538,-0.053,0,0,3,742.97,7.11,0,1150.63,0,0,0,,0,0,0,0,0,0,0,0,0,0,0,0,0,269.8,0,0,0,0,0,0,0,0,0,0,0,0,0,3,3,0,0,VALID,0,0,0,0,0,1,0,0,0,0,0,0,0,0,0,0,0,0,0,0,327.68,1067.66,2,0,0.12,0.12,75,7.69,0.14,0.12,9.8,FLYING,X10-H,0:/Integrated Flight Computer/aircraft/x10_h_cfg.ks (inferred preloaded)
10.04,APPROACH,ILS_TRACK,149.59,152,2.41,657.29,578.52,-1.05,10.21,10.61,269.95,0.054,0.156,0,11.7,1,0.6,4.5,0.75,0.35,0.0168,0.4,0,22.57,0,-2.408,0,269.95,0,0,1,-0.41,0,0,0,269.93,0.7,-0.0009,0.7142,0,269.95,2.44,-491.16,20.497,-0.05,0,0,3,742.97,7.484,0,1148.47,0,0,0,,0,0,0,0,0,0,0,0,0,0,0,0,0,269.8,0,0,0,0,0,0,0,0,0,0,0,0,0,3,3,0,0,VALID,0,0,0,0,0,1,0,0,0,0,0,0,0,0,0,0,0,0,0,0,306.77,1067.88,2,0,0.12,0.12,77,7.69,0.14,0.12,10.06,FLYING,X10-H,0:/Integrated Flight Computer/aircraft/x10_h_cfg.ks (inferred preloaded)
10.3,APPROACH,ILS_TRACK,149.55,152,2.45,657.04,578.29,-0.8,10.21,10.48,269.95,0.049,0.2554,0,12.331,1,0.6,4.5,0.75,0.35,0.0168,0.4,0,22.581,0,-2.447,0,269.95,0,0,1,-0.31,0,0,0,269.94,0.7,-0.0009,0.7141,0,269.95,2.4,-489.26,20.456,-0.051,0,0,3,742.97,7.213,0,1146.32,0,0,0,,0,0,0,0,0,0,0,0,0,0,0,0,0,269.8,0,0,0,0,0,0,0,0,0,0,0,0,0,3,3,0,0,VALID,0,0,0,0,0,1,0,0,0,0,0,0,0,0,0,0,0,0,0,0,296.08,1067.74,2,0,0.12,0.12,79,7.69,0.14,0.12,10.32,FLYING,X10-H,0:/Integrated Flight Computer/aircraft/x10_h_cfg.ks (inferred preloaded)
10.56,APPROACH,ILS_TRACK,149.51,152,2.49,656.8,578.07,-0.91,10.07,10.41,269.95,0.049,0.3364,0,12.975,1,0.6,4.5,0.75,0.35,0.0168,0.4,0,22.591,0,-2.485,0,269.95,0,0,1,-0.34,0,0,0,269.94,0.7001,-0.0008,0.7141,0,269.95,2.35,-487.35,20.414,-0.045,0,0,3,742.97,7.439,0,1144.17,0,0,0,,0,0,0,0,0,0,0,0,0,0,0,0,0,269.8,0,0,0,0,0,0,0,0,0,0,0,0,0,3,3,0,0,VALID,0,0,0,0,0,1,0,0,0,0,0,0,0,0,0,0,0,0,0,0,295.07,1067.59,2,0,0.12,0.12,81,7.69,0.14,0.12,10.58,FLYING,X10-H,0:/Integrated Flight Computer/aircraft/x10_h_cfg.ks (inferred preloaded)
10.82,APPROACH,ILS_TRACK,149.47,152,2.53,656.61,577.85,-0.71,10.21,10.46,269.95,0.046,0.3929,0,13.629,1,0.6,4.5,0.75,0.35,0.0168,0.4,0,22.605,0,-2.532,0,269.96,0,0,1,-0.28,0,0,0,269.94,0.7001,-0.0007,0.714,0,269.96,2.31,-485.38,20.373,-0.043,0,0,3,742.97,7.488,0,1142.01,0,0,0,,0,0,0,0,0,0,0,0,0,0,0,0,0,269.8,0,0,0,0,0,0,0,0,0,0,0,0,0,3,3,0,0,VALID,0,0,0,0,0,1,0,0,0,0,0,0,0,0,0,0,0,0,0,0,298.76,1067.42,2,0,0.12,0.12,83,7.69,0.14,0.12,10.84,FLYING,X10-H,0:/Integrated Flight Computer/aircraft/x10_h_cfg.ks (inferred preloaded)
11.08,APPROACH,ILS_TRACK,149.44,152,2.56,656.39,577.67,-0.75,10.08,10.35,269.95,0.046,0.4278,0,14.294,1,0.6,4.5,0.75,0.35,0.0168,0.4,0,22.614,0,-2.565,0,269.95,0,0,1,-0.28,0,0,0,269.95,0.7002,-0.0009,0.714,0,269.95,2.27,-483.45,20.332,-0.05,0,0,3,742.97,7.494,0,1139.86,0,0,0,,0,0,0,0,0,0,0,0,0,0,0,0,0,269.8,0,0,0,0,0,0,0,0,0,0,0,0,0,3,3,0,0,VALID,0,0,0,0,0,1,0,0,0,0,0,0,0,0,0,0,0,0,0,0,305.26,1067.29,2,0,0.12,0.12,85,7.69,0.14,0.12,11.1,FLYING,X10-H,0:/Integrated Flight Computer/aircraft/x10_h_cfg.ks (inferred preloaded)
11.34,APPROACH,ILS_TRACK,149.43,152,2.57,656.21,577.49,-0.62,10.1,10.31,269.95,0.044,0.4394,0,14.962,1,0.6,4.5,0.75,0.35,0.0168,0.4,0,22.615,0,-2.571,0,269.95,0,0,1,-0.24,0,0,0,269.95,0.7002,-0.0008,0.7139,0,269.95,2.22,-481.48,20.291,-0.048,0,0,3,742.97,7.532,0,1137.71,0,0,0,,0,0,0,0,0,0,0,0,0,0,0,0,0,269.8,0,0,0,0,0,0,0,0,0,0,0,0,0,3,3,0,0,VALID,0,0,0,0,0,1,0,0,0,0,0,0,0,0,0,0,0,0,0,0,313.02,1067.28,2,0,0.12,0.12,87,7.69,0.14,0.12,11.36,FLYING,X10-H,0:/Integrated Flight Computer/aircraft/x10_h_cfg.ks (inferred preloaded)
11.6,APPROACH,ILS_TRACK,149.45,152,2.55,656.04,577.32,-0.63,10.03,10.26,269.95,0.043,0.4364,0,15.628,1,0.6,4.5,0.75,0.35,0.0168,0.4,0,22.609,0,-2.549,0,269.96,0,0,1,-0.25,0,0,0,269.94,0.7003,-0.0008,0.7139,0,269.96,2.18,-479.51,20.25,-0.044,0,0,3,742.97,7.638,0,1135.56,0,0,0,,0,0,0,0,0,0,0,0,0,0,0,0,0,269.8,0,0,0,0,0,0,0,0,0,0,0,0,0,3,3,0,0,VALID,0,0,0,0,0,1,0,0,0,0,0,0,0,0,0,0,0,0,0,0,321,1067.38,2,0,0.12,0.12,89,7.69,0.14,0.12,11.62,FLYING,X10-H,0:/Integrated Flight Computer/aircraft/x10_h_cfg.ks (inferred preloaded)
11.86,APPROACH,ILS_TRACK,149.5,152,2.5,655.87,577.17,-0.62,10,10.23,269.95,0.043,0.4238,0,16.283,1,0.6,4.5,0.75,0.35,0.0168,0.4,0,22.596,0,-2.503,0,269.96,0,0,1,-0.24,0,0,0,269.95,0.7003,-0.0008,0.7138,0,269.96,2.14,-477.52,20.209,-0.045,0,0,3,742.97,7.681,0,1133.4,0,0,0,,0,0,0,0,0,0,0,0,0,0,0,0,0,269.8,0,0,0,0,0,0,0,0,0,0,0,0,0,3,3,0,0,VALID,0,0,0,0,0,1,0,0,0,0,0,0,0,0,0,0,0,0,0,0,328.32,1067.59,2,0,0.12,0.12,91,7.69,0.14,0.12,11.88,FLYING,X10-H,0:/Integrated Flight Computer/aircraft/x10_h_cfg.ks (inferred preloaded)
12.12,APPROACH,ILS_TRACK,149.56,152,2.44,655.71,577.03,-0.54,9.96,10.14,269.95,0.042,0.4093,0,16.923,1,0.6,4.5,0.75,0.35,0.0168,0.4,0,22.579,0,-2.44,0,269.95,0,0,1,-0.2,0,0,0,269.96,0.7004,-0.0008,0.7138,0,269.95,2.1,-475.52,20.168,-0.048,0,0,3,742.97,7.641,0,1131.25,0,0,0,,0,0,0,0,0,0,0,0,0,0,0,0,0,269.8,0,0,0,0,0,0,0,0,0,0,0,0,0,3,3,0,0,VALID,0,0,0,0,0,1,0,0,0,0,0,0,0,0,0,0,0,0,0,0,334.57,1067.86,2,0,0.12,0.12,93,7.69,0.14,0.12,12.14,FLYING,X10-H,0:/Integrated Flight Computer/aircraft/x10_h_cfg.ks (inferred preloaded)
12.38,APPROACH,ILS_TRACK,149.65,152,2.35,655.57,576.89,-0.48,9.94,10.11,269.95,0.043,0.3888,0,17.542,1,0.6,4.5,0.75,0.35,0.0168,0.4,0,22.554,0,-2.353,0,269.95,0,0,1,-0.18,0,0,0,269.96,0.7004,-0.0008,0.7137,0,269.95,2.06,-473.51,20.127,-0.045,0,0,3,742.97,7.716,0,1129.1,0,0,0,,0,0,0,0,0,0,0,0,0,0,0,0,0,269.8,0,0,0,0,0,0,0,0,0,0,0,0,0,3,3,0,0,VALID,0,0,0,0,0,1,0,0,0,0,0,0,0,0,0,0,0,0,0,0,339.68,1068.23,2,0,0.12,0.12,95,7.69,0.14,0.12,12.4,FLYING,X10-H,0:/Integrated Flight Computer/aircraft/x10_h_cfg.ks (inferred preloaded)
12.64,APPROACH,ILS_TRACK,149.75,152,2.25,655.44,576.76,-0.44,9.93,10.09,269.95,0.043,0.3693,0,18.137,1,0.6,4.5,0.75,0.35,0.0168,0.4,0,22.526,0,-2.254,0,269.95,0,0,1,-0.18,0,0,0,269.96,0.7005,-0.0008,0.7137,0,269.95,2.02,-471.49,20.086,-0.047,0,0,3,742.97,7.801,0,1126.94,0,0,0,,0,0,0,0,0,0,0,0,0,0,0,0,0,269.8,0,0,0,0,0,0,0,0,0,0,0,0,0,3,3,0,0,VALID,0,0,0,0,0,1,0,0,0,0,0,0,0,0,0,0,0,0,0,0,343.5,1068.66,2,0,0.12,0.12,97,7.69,0.14,0.12,12.66,FLYING,X10-H,0:/Integrated Flight Computer/aircraft/x10_h_cfg.ks (inferred preloaded)
12.9,APPROACH,ILS_TRACK,149.86,152,2.14,655.31,576.64,-0.43,9.9,10.06,269.95,0.044,0.3519,0,18.704,1,0.6,4.5,0.75,0.35,0.0168,0.4,0,22.495,0,-2.145,0,269.95,0,0,1,-0.18,0,0,0,269.97,0.7005,-0.0008,0.7136,0,269.95,1.98,-469.46,20.045,-0.047,0,0,3,742.97,7.867,0,1124.78,0,0,0,,0,0,0,0,0,0,0,0,0,0,0,0,0,269.8,0,0,0,0,0,0,0,0,0,0,0,0,0,3,3,0,0,VALID,0,0,0,0,0,1,0,0,0,0,0,0,0,0,0,0,0,0,0,0,346.14,1069.12,2,0,0.12,0.12,99,7.69,0.14,0.12,12.92,FLYING,X10-H,0:/Integrated Flight Computer/aircraft/x10_h_cfg.ks (inferred preloaded)
13.16,APPROACH,ILS_TRACK,149.97,152,2.03,655.18,576.53,-0.44,9.82,9.97,269.95,0.044,0.337,0,19.242,1,0.6,4.5,0.75,0.35,0.0168,0.4,0,22.462,0,-2.028,0,269.96,0,0,1,-0.16,0,0,0,269.96,0.7006,-0.0007,0.7136,0,269.96,1.94,-467.43,20.003,-0.041,0,0,3,742.97,7.82,0,1122.62,0,0,0,,0,0,0,0,0,0,0,0,0,0,0,0,0,269.8,0,0,0,0,0,0,0,0,0,0,0,0,0,3,3,0,0,VALID,0,0,0,0,0,1,0,0,0,0,0,0,0,0,0,0,0,0,0,0,347.73,1069.62,2,0,0.12,0.12,101,7.69,0.14,0.12,13.18,FLYING,X10-H,0:/Integrated Flight Computer/aircraft/x10_h_cfg.ks (inferred preloaded)
13.42,APPROACH,ILS_TRACK,150.1,152,1.9,655.08,576.43,-0.4,9.81,9.95,269.95,0.043,0.3224,0,19.747,1,0.6,4.5,0.75,0.35,0.0168,0.4,0,22.427,0,-1.902,0,269.97,0,0,1,-0.15,0,0,0,269.96,0.7006,-0.0006,0.7135,0,269.97,1.9,-465.38,19.962,-0.032,0,0,3,742.97,7.858,0,1120.46,0,0,0,,0,0,0,0,0,0,0,0,0,0,0,0,0,269.8,0,0,0,0,0,0,0,0,0,0,0,0,0,3,3,0,0,VALID,0,0,0,0,0,1,0,0,0,0,0,0,0,0,0,0,0,0,0,0,348.38,1070.15,2,0,0.12,0.12,103,7.69,0.14,0.12,13.44,FLYING,X10-H,0:/Integrated Flight Computer/aircraft/x10_h_cfg.ks (inferred preloaded)
13.68,APPROACH,ILS_TRACK,150.22,152,1.78,654.97,576.33,-0.36,9.79,9.91,269.95,0.043,0.3085,0,20,1,0.6,4.5,0.75,0.35,0.0168,0.4,0,22.392,0,-1.776,0,269.96,0,0,1,-0.13,0,0,0,269.96,0.7007,-0.0008,0.7135,0,269.96,1.86,-463.32,19.921,-0.043,0,0,3,742.97,7.877,0,1118.3,0,0,0,,0,0,0,0,0,0,0,0,0,0,0,0,0,269.8,0,0,0,0,0,0,0,0,0,0,0,0,0,3,3,0,0,VALID,0,0,0,0,0,1,0,0,0,0,0,0,0,0,0,0,0,0,0,0,348.05,1070.69,2,0,0.12,0.12,105,7.69,0.14,0.12,13.7,FLYING,X10-H,0:/Integrated Flight Computer/aircraft/x10_h_cfg.ks (inferred preloaded)
13.94,APPROACH,ILS_TRACK,150.35,152,1.65,654.87,576.23,-0.32,9.79,9.9,269.95,0.041,0.2941,0,20,1,0.6,4.5,0.75,0.35,0.0168,0.4,0,22.356,0,-1.651,0,269.96,0,0,1,-0.12,0,0,0,269.97,0.7007,-0.0007,0.7134,0,269.96,1.82,-461.25,19.88,-0.04,0,0,3,742.97,7.929,0,1116.13,0,0,0,,0,0,0,0,0,0,0,0,0,0,0,0,0,269.8,0,0,0,0,0,0,0,0,0,0,0,0,0,3,3,0,0,VALID,0,0,0,0,0,1,0,0,0,0,0,0,0,0,0,0,0,0,0,0,346.41,1071.22,2,0,0.12,0.12,107,7.69,0.14,0.12,13.96,FLYING,X10-H,0:/Integrated Flight Computer/aircraft/x10_h_cfg.ks (inferred preloaded)
14.2,APPROACH,ILS_TRACK,150.47,152,1.53,654.78,576.15,-0.32,9.75,9.86,269.95,0.041,0.2832,0,20,1,0.6,4.5,0.75,0.35,0.0168,0.4,0,22.322,0,-1.529,0,269.96,0,0,1,-0.12,0,0,0,269.97,0.7008,-0.0006,0.7134,0,269.96,1.79,-459.18,19.838,-0.036,0,0,3,742.97,7.969,0,1113.97,0,0,0,,0,0,0,0,0,0,0,0,0,0,0,0,0,269.8,0,0,0,0,0,0,0,0,0,0,0,0,0,3,3,0,0,VALID,0,0,0,0,0,1,0,0,0,0,0,0,0,0,0,0,0,0,0,0,343.7,1071.74,2,0,0.12,0.12,109,7.69,0.14,0.12,14.22,FLYING,X10-H,0:/Integrated Flight Computer/aircraft/x10_h_cfg.ks (inferred preloaded)
14.46,APPROACH,ILS_TRACK,150.59,152,1.41,654.7,576.06,-0.3,9.75,9.86,269.95,0.041,0.2747,0,20,1,0.6,4.5,0.75,0.35,0.0168,0.4,0,22.288,0,-1.41,0,269.97,0,0,1,-0.12,0,0,0,269.97,0.7008,-0.0005,0.7133,0,269.97,1.74,-457.1,19.797,-0.026,0,0,3,742.97,8.044,0,1111.8,0,0,0,,0,0,0,0,0,0,0,0,0,0,0,0,0,269.8,0,0,0,0,0,0,0,0,0,0,0,0,0,3,3,0,0,VALID,0,0,0,0,0,1,0,0,0,0,0,0,0,0,0,0,0,0,0,0,340.22,1072.24,2,0,0.12,0.12,111,7.69,0.14,0.12,14.48,FLYING,X10-H,0:/Integrated Flight Computer/aircraft/x10_h_cfg.ks (inferred preloaded)
14.72,APPROACH,ILS_TRACK,150.7,152,1.3,654.62,575.99,-0.27,9.74,9.84,269.95,0.042,0.2726,0,20,1,0.6,4.5,0.75,0.35,0.0168,0.4,0,22.258,0,-1.303,0,269.96,0,0,1,-0.11,0,0,0,269.97,0.7009,-0.0006,0.7133,0,269.96,1.71,-455.01,19.756,-0.036,0,0,3,742.97,8.055,0,1109.63,0,0,0,,0,0,0,0,0,0,0,0,0,0,0,0,0,269.8,0,0,0,0,0,0,0,0,0,0,0,0,0,3,3,0,0,VALID,0,0,0,0,0,1,0,0,0,0,0,0,0,0,0,0,0,0,0,0,336.33,1072.7,2,0,0.12,0.12,113,7.69,0.14,0.12,14.74,FLYING,X10-H,0:/Integrated Flight Computer/aircraft/x10_h_cfg.ks (inferred preloaded)
14.98,APPROACH,ILS_TRACK,150.79,152,1.21,654.54,575.92,-0.26,9.72,9.8,269.95,0.041,0.2743,0,20,1,0.6,4.5,0.75,0.35,0.0168,0.4,0,22.231,0,-1.205,0,269.97,0,0,1,-0.09,0,0,0,269.97,0.7009,-0.0005,0.7132,0,269.97,1.67,-452.92,19.714,-0.027,0,0,3,742.97,8.035,0,1107.46,0,0,0,,0,0,0,0,0,0,0,0,0,0,0,0,0,269.8,0,0,0,0,0,0,0,0,0,0,0,0,0,3,3,0,0,VALID,0,0,0,0,0,1,0,0,0,0,0,0,0,0,0,0,0,0,0,0,332.63,1073.12,2,0,0.12,0.12,115,7.69,0.14,0.12,15,FLYING,X10-H,0:/Integrated Flight Computer/aircraft/x10_h_cfg.ks (inferred preloaded)
15.24,APPROACH,ILS_TRACK,150.88,152,1.12,654.47,575.85,-0.23,9.72,9.8,269.95,0.042,0.2774,0,20,1,0.6,4.5,0.75,0.35,0.0168,0.4,0,22.206,0,-1.117,0,269.97,0,0,1,-0.09,0,0,0,269.97,0.701,-0.0005,0.7132,0,269.97,1.63,-450.81,19.673,-0.029,0,0,3,742.97,8.096,0,1105.29,0,0,0,,0,0,0,0,0,0,0,0,0,0,0,0,0,269.8,0,0,0,0,0,0,0,0,0,0,0,0,0,3,3,0,0,VALID,0,0,0,0,0,1,0,0,0,0,0,0,0,0,0,0,0,0,0,0,329.45,1073.49,2,0,0.12,0.12,117,7.69,0.14,0.12,15.26,FLYING,X10-H,0:/Integrated Flight Computer/aircraft/x10_h_cfg.ks (inferred preloaded)
15.5,APPROACH,ILS_TRACK,150.96,152,1.04,654.41,575.79,-0.22,9.71,9.78,269.96,0.042,0.282,0,20,1,0.6,4.5,0.75,0.35,0.0168,0.4,0,22.183,0,-1.036,0,269.97,0,0,1,-0.09,0,0,0,269.97,0.701,-0.0006,0.7131,0,269.97,1.6,-448.71,19.631,-0.034,0,0,3,742.97,8.115,0,1103.12,0,0,0,,0,0,0,0,0,0,0,0,0,0,0,0,0,269.8,0,0,0,0,0,0,0,0,0,0,0,0,0,3,3,0,0,VALID,0,0,0,0,0,1,0,0,0,0,0,0,0,0,0,0,0,0,0,0,326.89,1073.84,2,0,0.12,0.12,119,7.69,0.14,0.12,15.52,FLYING,X10-H,0:/Integrated Flight Computer/aircraft/x10_h_cfg.ks (inferred preloaded)
15.76,APPROACH,ILS_TRACK,151.04,152,0.96,654.35,575.73,-0.22,9.7,9.78,269.96,0.041,0.2854,0,20,1,0.6,4.5,0.75,0.35,0.0168,0.4,0,22.161,0,-0.96,0,269.98,0,0,1,-0.09,0,0,0,269.97,0.7011,-0.0004,0.7131,0,269.98,1.56,-446.59,19.59,-0.025,0,0,3,742.97,8.142,0,1100.94,0,0,0,,0,0,0,0,0,0,0,0,0,0,0,0,0,269.8,0,0,0,0,0,0,0,0,0,0,0,0,0,3,3,0,0,VALID,0,0,0,0,0,1,0,0,0,0,0,0,0,0,0,0,0,0,0,0,324.94,1074.16,2,0,0.12,0.12,121,7.69,0.14,0.12,15.78,FLYING,X10-H,0:/Integrated Flight Computer/aircraft/x10_h_cfg.ks (inferred preloaded)
16.02,APPROACH,ILS_TRACK,151.11,152,0.89,654.29,575.67,-0.21,9.7,9.77,269.96,0.043,0.2887,0,20,1,0.6,4.5,0.75,0.35,0.0168,0.4,0,22.142,0,-0.889,0,269.97,0,0,1,-0.07,0,0,0,269.97,0.7011,-0.0005,0.713,0,269.97,1.53,-444.47,19.548,-0.03,0,0,3,742.97,8.144,0,1098.77,0,0,0,,0,0,0,0,0,0,0,0,0,0,0,0,0,269.8,0,0,0,0,0,0,0,0,0,0,0,0,0,3,3,0,0,VALID,0,0,0,0,0,1,0,0,0,0,0,0,0,0,0,0,0,0,0,0,323.47,1074.46,2,0,0.12,0.12,123,7.69,0.14,0.12,16.04,FLYING,X10-H,0:/Integrated Flight Computer/aircraft/x10_h_cfg.ks (inferred preloaded)
16.28,APPROACH,ILS_TRACK,151.18,152,0.82,654.24,575.62,-0.18,9.69,9.76,269.96,0.044,0.292,0,20,1,0.6,4.5,0.75,0.35,0.0168,0.4,0,22.123,0,-0.824,0,269.97,0,0,1,-0.07,0,0,0,269.98,0.7012,-0.0005,0.713,0,269.97,1.49,-442.35,19.507,-0.027,0,0,3,742.97,8.17,0,1096.59,0,0,0,,0,0,0,0,0,0,0,0,0,0,0,0,0,269.8,0,0,0,0,0,0,0,0,0,0,0,0,0,3,3,0,0,VALID,0,0,0,0,0,1,0,0,0,0,0,0,0,0,0,0,0,0,0,0,322.44,1074.74,2,0,0.12,0.12,125,7.69,0.14,0.12,16.3,FLYING,X10-H,0:/Integrated Flight Computer/aircraft/x10_h_cfg.ks (inferred preloaded)
16.54,APPROACH,ILS_TRACK,151.24,152,0.76,654.19,575.58,-0.16,9.69,9.74,269.96,0.044,0.2946,0,20,1,0.6,4.5,0.75,0.35,0.0168,0.4,0,22.106,0,-0.763,0,269.98,0,0,1,-0.06,0,0,0,269.98,0.7012,-0.0004,0.713,0,269.98,1.45,-440.22,19.465,-0.024,0,0,3,742.97,8.17,0,1094.42,0,0,0,,0,0,0,0,0,0,0,0,0,0,0,0,0,269.8,0,0,0,0,0,0,0,0,0,0,0,0,0,3,3,0,0,VALID,0,0,0,0,0,1,0,0,0,0,0,0,0,0,0,0,0,0,0,0,321.79,1075,2,0,0.12,0.12,127,7.69,0.14,0.12,16.56,FLYING,X10-H,0:/Integrated Flight Computer/aircraft/x10_h_cfg.ks (inferred preloaded)
16.8,APPROACH,ILS_TRACK,151.3,152,0.7,654.15,575.53,-0.15,9.67,9.73,269.96,0.044,0.2961,0,20,1,0.6,4.5,0.75,0.35,0.0168,0.4,0,22.089,0,-0.704,0,269.97,0,0,1,-0.06,0,0,0,269.98,0.7013,-0.0005,0.7129,0,269.97,1.42,-438.09,19.424,-0.026,0,0,3,742.97,8.185,0,1092.24,0,0,0,,0,0,0,0,0,0,0,0,0,0,0,0,0,269.8,0,0,0,0,0,0,0,0,0,0,0,0,0,3,3,0,0,VALID,0,0,0,0,0,1,0,0,0,0,0,0,0,0,0,0,0,0,0,0,321.45,1075.26,2,0,0.12,0.12,129,7.69,0.14,0.12,16.82,FLYING,X10-H,0:/Integrated Flight Computer/aircraft/x10_h_cfg.ks (inferred preloaded)
17.06,APPROACH,ILS_TRACK,151.36,152,0.64,654.11,575.5,-0.12,9.67,9.71,269.96,0.043,0.295,0,20,1,0.6,4.5,0.75,0.35,0.0168,0.4,0,22.072,0,-0.644,0,269.97,0,0,1,-0.05,0,0,0,269.98,0.7013,-0.0005,0.7129,0,269.97,1.38,-435.95,19.382,-0.026,0,0,3,742.97,8.224,0,1090.06,0,0,0,,0,0,0,0,0,0,0,0,0,0,0,0,0,269.8,0,0,0,0,0,0,0,0,0,0,0,0,0,3,3,0,0,VALID,0,0,0,0,0,1,0,0,0,0,0,0,0,0,0,0,0,0,0,0,321.24,1075.51,2,0,0.12,0.12,131,7.69,0.14,0.12,17.08,FLYING,X10-H,0:/Integrated Flight Computer/aircraft/x10_h_cfg.ks (inferred preloaded)
17.32,APPROACH,ILS_TRACK,151.42,152,0.58,654.07,575.46,-0.13,9.67,9.72,269.96,0.043,0.2931,0,20,1,0.6,4.5,0.75,0.35,0.0168,0.4,0,22.056,0,-0.585,0,269.98,0,0,1,-0.06,0,0,0,269.98,0.7014,-0.0003,0.7128,0,269.98,1.35,-433.81,19.34,-0.016,0,0,3,742.97,8.293,0,1087.88,0,0,0,,0,0,0,0,0,0,0,0,0,0,0,0,0,269.8,0,0,0,0,0,0,0,0,0,0,0,0,0,3,3,0,0,VALID,0,0,0,0,0,1,0,0,0,0,0,0,0,0,0,0,0,0,0,0,320.97,1075.76,2,0,0.12,0.12,133,7.69,0.14,0.12,17.34,FLYING,X10-H,0:/Integrated Flight Computer/aircraft/x10_h_cfg.ks (inferred preloaded)
17.58,APPROACH,ILS_TRACK,151.47,152,0.53,654.03,575.43,-0.15,9.62,9.68,269.96,0.042,0.2938,0,20,1,0.6,4.5,0.75,0.35,0.0168,0.4,0,22.041,0,-0.531,0,269.98,0,0,1,-0.05,0,0,0,269.98,0.7014,-0.0003,0.7128,0,269.98,1.31,-431.67,19.299,-0.019,0,0,3,742.97,8.251,0,1085.7,0,0,0,,0,0,0,0,0,0,0,0,0,0,0,0,0,269.8,0,0,0,0,0,0,0,0,0,0,0,0,0,3,3,0,0,VALID,0,0,0,0,0,1,0,0,0,0,0,0,0,0,0,0,0,0,0,0,320.59,1075.99,2,0,0.12,0.12,135,7.69,0.14,0.12,17.6,FLYING,X10-H,0:/Integrated Flight Computer/aircraft/x10_h_cfg.ks (inferred preloaded)
17.84,APPROACH,ILS_TRACK,151.52,152,0.48,654,575.4,-0.11,9.64,9.68,269.96,0.042,0.2918,0,20,1,0.6,4.5,0.75,0.35,0.0168,0.4,0,22.025,0,-0.476,0,269.98,0,0,1,-0.04,0,0,0,269.98,0.7015,-0.0003,0.7127,0,269.98,1.28,-429.52,19.257,-0.017,0,0,3,742.97,8.25,0,1083.52,0,0,0,,0,0,0,0,0,0,0,0,0,0,0,0,0,269.8,0,0,0,0,0,0,0,0,0,0,0,0,0,3,3,0,0,VALID,0,0,0,0,0,1,0,0,0,0,0,0,0,0,0,0,0,0,0,0,320.17,1076.23,2,0,0.12,0.12,137,7.69,0.14,0.12,17.86,FLYING,X10-H,0:/Integrated Flight Computer/aircraft/x10_h_cfg.ks (inferred preloaded)
18.1,APPROACH,ILS_TRACK,151.58,152,0.42,653.98,575.37,-0.11,9.63,9.68,269.96,0.042,0.2879,0,20,1,0.6,4.5,0.75,0.35,0.0168,0.4,0,22.009,0,-0.418,0,269.97,0,0,1,-0.04,0,0,0,269.98,0.7015,-0.0004,0.7127,0,269.97,1.25,-427.36,19.216,-0.026,0,0,3,742.97,8.285,0,1081.34,0,0,0,,0,0,0,0,0,0,0,0,0,0,0,0,0,269.8,0,0,0,0,0,0,0,0,0,0,0,0,0,3,3,0,0,VALID,0,0,0,0,0,1,0,0,0,0,0,0,0,0,0,0,0,0,0,0,319.63,1076.47,2,0,0.12,0.12,139,7.69,0.14,0.12,18.12,FLYING,X10-H,0:/Integrated Flight Computer/aircraft/x10_h_cfg.ks (inferred preloaded)
18.36,APPROACH,ILS_TRACK,151.63,152,0.37,653.94,575.36,-0.09,9.57,9.6,269.96,0.042,0.2872,0,20,1,0.6,4.5,0.75,0.35,0.0168,0.4,0,21.994,0,-0.366,0,269.98,0,0,1,-0.03,0,0,0,269.99,0.7016,-0.0004,0.7126,0,269.98,1.22,-425.22,19.174,-0.024,0,0,3,742.97,8.225,0,1079.16,0,0,0,,0,0,0,0,0,0,0,0,0,0,0,0,0,269.8,0,0,0,0,0,0,0,0,0,0,0,0,0,3,3,0,0,VALID,0,0,0,0,0,1,0,0,0,0,0,0,0,0,0,0,0,0,0,0,318.82,1076.69,2,0,0.12,0.12,141,7.69,0.14,0.12,18.38,FLYING,X10-H,0:/Integrated Flight Computer/aircraft/x10_h_cfg.ks (inferred preloaded)
18.62,APPROACH,ILS_TRACK,151.69,152,0.31,653.93,575.33,-0.08,9.63,9.66,269.96,0.042,0.2846,0,20,1,0.6,4.5,0.75,0.35,0.0168,0.4,0,21.979,0,-0.313,0,269.99,0,0,1,-0.03,0,0,0,269.99,0.7016,-0.0002,0.7126,0,269.99,1.18,-423.04,19.132,-0.013,0,0,3,742.97,8.341,0,1076.98,0,0,0,,0,0,0,0,0,0,0,0,0,0,0,0,0,269.8,0,0,0,0,0,0,0,0,0,0,0,0,0,3,3,0,0,VALID,0,0,0,0,0,1,0,0,0,0,0,0,0,0,0,0,0,0,0,0,317.94,1076.92,2,0,0.12,0.12,143,7.69,0.14,0.12,18.64,FLYING,X10-H,0:/Integrated Flight Computer/aircraft/x10_h_cfg.ks (inferred preloaded)
18.88,APPROACH,ILS_TRACK,151.74,152,0.26,653.91,575.31,-0.06,9.63,9.64,269.96,0.041,0.283,0,20,1,0.6,4.5,0.75,0.35,0.0168,0.4,0,21.965,0,-0.262,0,269.99,0,0,1,-0.02,0,0,0,269.98,0.7017,-0.0002,0.7125,0,269.99,1.15,-420.88,19.091,-0.012,0,0,3,742.97,8.316,0,1074.79,0,0,0,,0,0,0,0,0,0,0,0,0,0,0,0,0,269.8,0,0,0,0,0,0,0,0,0,0,0,0,0,3,3,0,0,VALID,0,0,0,0,0,1,0,0,0,0,0,0,0,0,0,0,0,0,0,0,317,1077.13,2,0,0.12,0.12,145,7.69,0.14,0.12,18.9,FLYING,X10-H,0:/Integrated Flight Computer/aircraft/x10_h_cfg.ks (inferred preloaded)
19.14,APPROACH,ILS_TRACK,151.79,152,0.21,653.9,575.3,-0.06,9.62,9.65,269.96,0.042,0.282,0,20,1,0.6,4.5,0.75,0.35,0.0168,0.4,0,21.951,0,-0.214,0,269.99,0,0,1,-0.02,0,0,0,269.99,0.7017,-0.0002,0.7125,0,269.99,1.12,-418.71,19.049,-0.009,0,0,3,742.97,8.335,0,1072.61,0,0,0,,0,0,0,0,0,0,0,0,0,0,0,0,0,269.8,0,0,0,0,0,0,0,0,0,0,0,0,0,3,3,0,0,VALID,0,0,0,0,0,1,0,0,0,0,0,0,0,0,0,0,0,0,0,0,315.96,1077.34,2,0,0.12,0.12,147,7.69,0.14,0.12,19.16,FLYING,X10-H,0:/Integrated Flight Computer/aircraft/x10_h_cfg.ks (inferred preloaded)
19.4,APPROACH,ILS_TRACK,151.83,152,0.17,653.88,575.29,-0.05,9.61,9.63,269.96,0.042,0.2816,0,20,1,0.6,4.5,0.75,0.35,0.0168,0.4,0,21.938,0,-0.168,0,269.99,0,0,1,-0.02,0,0,0,269.98,0.7018,-0.0002,0.7124,0,269.99,1.09,-416.54,19.007,-0.01,0,0,3,742.97,8.361,0,1070.42,0,0,0,,0,0,0,0,0,0,0,0,0,0,0,0,0,269.8,0,0,0,0,0,0,0,0,0,0,0,0,0,3,3,0,0,VALID,0,0,0,0,0,1,0,0,0,0,0,0,0,0,0,0,0,0,0,0,314.95,1077.53,2,0,0.12,0.12,149,7.69,0.14,0.12,19.42,FLYING,X10-H,0:/Integrated Flight Computer/aircraft/x10_h_cfg.ks (inferred preloaded)
19.66,APPROACH,ILS_TRACK,151.87,152,0.13,653.87,575.28,-0.04,9.6,9.62,269.96,0.042,0.282,0,20,1,0.6,4.5,0.75,0.35,0.0168,0.4,0,21.926,0,-0.126,0,269.98,0,0,1,-0.01,0,0,0,269.99,0.7018,-0.0003,0.7124,0,269.98,1.06,-414.37,18.966,-0.019,0,0,3,742.97,8.35,0,1068.24,0,0,0,,0,0,0,0,0,0,0,0,0,0,0,0,0,269.8,0,0,0,0,0,0,0,0,0,0,0,0,0,3,3,0,0,VALID,0,0,0,0,0,1,0,0,0,0,0,0,0,0,0,0,0,0,0,0,313.97,1077.71,2,0,0.12,0.12,151,7.69,0.14,0.12,19.68,FLYING,X10-H,0:/Integrated Flight Computer/aircraft/x10_h_cfg.ks (inferred preloaded)
19.92,APPROACH,ILS_TRACK,151.91,152,0.09,653.87,575.27,-0.02,9.6,9.61,269.96,0.041,0.2823,0,20,1,0.6,4.5,0.75,0.35,0.0168,0.4,0,21.915,0,-0.085,0,269.99,0,0,1,-0.01,0,0,0,269.99,0.7019,-0.0002,0.7123,0,269.99,1.03,-412.19,18.924,-0.011,0,0,3,742.97,8.384,0,1066.05,0,0,0,,0,0,0,0,0,0,0,0,0,0,0,0,0,269.8,0,0,0,0,0,0,0,0,0,0,0,0,0,3,3,0,0,VALID,0,0,0,0,0,1,0,0,0,0,0,0,0,0,0,0,0,0,0,0,313.13,1077.88,2,0,0.12,0.12,153,7.69,0.14,0.12,19.94,FLYING,X10-H,0:/Integrated Flight Computer/aircraft/x10_h_cfg.ks (inferred preloaded)
20.18,APPROACH,ILS_TRACK,151.95,152,0.05,653.86,575.27,-0.03,9.59,9.6,269.96,0.041,0.2824,0,20,1,0.6,4.5,0.75,0.35,0.0168,0.4,0,21.904,0,-0.047,0,269.99,0,0,1,-0.01,0,0,0,269.99,0.7019,-0.0002,0.7123,0,269.99,0.99,-410.01,18.882,-0.012,0,0,3,742.97,8.384,0,1063.87,0,0,0,,0,0,0,0,0,0,0,0,0,0,0,0,0,269.8,0,0,0,0,0,0,0,0,0,0,0,0,0,3,3,0,0,VALID,0,0,0,0,0,1,0,0,0,0,0,0,0,0,0,0,0,0,0,0,312.39,1078.05,2,0,0.12,0.12,155,7.69,0.14,0.12,20.2,FLYING,X10-H,0:/Integrated Flight Computer/aircraft/x10_h_cfg.ks (inferred preloaded)
20.44,APPROACH,ILS_TRACK,151.99,152,0.01,653.86,575.27,-0.01,9.6,9.6,269.96,0.041,0.2832,0,20,1,0.6,4.5,0.75,0.35,0.0168,0.4,0,21.894,0,-0.011,0,269.99,0,0,1,0,0,0,0,269.99,0.702,-0.0001,0.7122,0,269.99,0.96,-407.82,18.841,-0.007,0,0,3,742.97,8.405,0,1061.68,0,0,0,,0,0,0,0,0,0,0,0,0,0,0,0,0,269.8,0,0,0,0,0,0,0,0,0,0,0,0,0,3,3,0,0,VALID,0,0,0,0,0,1,0,0,0,0,0,0,0,0,0,0,0,0,0,0,311.74,1078.2,2,0,0.12,0.12,157,7.69,0.14,0.12,20.46,FLYING,X10-H,0:/Integrated Flight Computer/aircraft/x10_h_cfg.ks (inferred preloaded)
20.7,APPROACH,ILS_TRACK,152.02,152,-0.02,653.87,575.27,0.02,9.6,9.6,269.96,0.041,0.2832,0,19.997,1,0.6,4.5,0.75,0.35,0.0168,0.4,0,21.884,0,0.024,0,269.99,0,0,1,0,0,0,0,269.99,0.702,-0.0002,0.7122,0,269.99,0.94,-405.63,18.799,-0.01,0,0,3,742.97,8.431,0,1059.49,0,0,0,,0,0,0,0,0,0,0,0,0,0,0,0,0,269.8,0,0,0,0,0,0,0,0,0,0,0,0,0,3,3,0,0,VALID,0,0,0,0,0,1,0,0,0,0,0,0,0,0,0,0,0,0,0,0,311.21,1078.34,2,0,0.12,0.12,159,7.69,0.14,0.12,20.72,FLYING,X10-H,0:/Integrated Flight Computer/aircraft/x10_h_cfg.ks (inferred preloaded)
20.96,APPROACH,ILS_TRACK,152.06,152,-0.06,653.87,575.28,0.03,9.6,9.59,269.97,0.041,0.2831,0,19.985,1,0.6,4.5,0.75,0.35,0.0168,0.4,0,21.875,0,0.057,0,269.99,0,0,1,0.01,0,0,0,270,0.7021,-0.0002,0.7121,0,269.99,0.91,-403.44,18.757,-0.011,0,0,3,742.97,8.446,0,1057.3,0,0,0,,0,0,0,0,0,0,0,0,0,0,0,0,0,269.8,0,0,0,0,0,0,0,0,0,0,0,0,0,3,3,0,0,VALID,0,0,0,0,0,1,0,0,0,0,0,0,0,0,0,0,0,0,0,0,310.75,1078.48,2,0,0.12,0.12,161,7.69,0.14,0.12,20.98,FLYING,X10-H,0:/Integrated Flight Computer/aircraft/x10_h_cfg.ks (inferred preloaded)
21.22,APPROACH,ILS_TRACK,152.09,152,-0.09,653.88,575.29,0.04,9.6,9.58,269.97,0.042,0.2819,0,19.964,1,0.6,4.5,0.75,0.35,0.0168,0.4,0,21.866,0,0.09,0,269.99,0,0,1,0.01,0,0,0,269.99,0.7021,-0.0003,0.7121,0,269.99,0.88,-401.24,18.715,-0.015,0,0,3,742.97,8.462,0,1055.12,0,0,0,,0,0,0,0,0,0,0,0,0,0,0,0,0,269.8,0,0,0,0,0,0,0,0,0,0,0,0,0,3,3,0,0,VALID,0,0,0,0,0,1,0,0,0,0,0,0,0,0,0,0,0,0,0,0,310.29,1078.62,2,0,0.12,0.12,163,7.69,0.14,0.12,21.24,FLYING,X10-H,0:/Integrated Flight Computer/aircraft/x10_h_cfg.ks (inferred preloaded)
21.48,APPROACH,ILS_TRACK,152.12,152,-0.12,653.89,575.3,0.06,9.6,9.59,269.97,0.041,0.2809,0,19.935,1,0.6,4.5,0.75,0.35,0.0168,0.4,0,21.857,0,0.121,0,269.99,0,0,1,0.02,0,0,0,269.99,0.7022,-0.0001,0.712,0,269.99,0.85,-399.04,18.674,-0.006,0,0,3,742.97,8.477,0,1052.93,0,0,0,,0,0,0,0,0,0,0,0,0,0,0,0,0,269.8,0,0,0,0,0,0,0,0,0,0,0,0,0,3,3,0,0,VALID,0,0,0,0,0,1,0,0,0,0,0,0,0,0,0,0,0,0,0,0,309.77,1078.76,2,0,0.12,0.12,165,7.69,0.14,0.12,21.5,FLYING,X10-H,0:/Integrated Flight Computer/aircraft/x10_h_cfg.ks (inferred preloaded)
21.74,APPROACH,ILS_TRACK,152.15,152,-0.15,653.9,575.31,0.07,9.61,9.58,269.97,0.041,0.2809,0,19.899,1,0.6,4.5,0.75,0.35,0.0168,0.4,0,21.849,0,0.15,0,269.99,0,0,1,0.02,0,0,0,270,0.7022,-0.0001,0.712,0,269.99,0.82,-396.84,18.632,-0.006,0,0,3,742.97,8.502,0,1050.74,0,0,0,,0,0,0,0,0,0,0,0,0,0,0,0,0,269.8,0,0,0,0,0,0,0,0,0,0,0,0,0,3,3,0,0,VALID,0,0,0,0,0,1,0,0,0,0,0,0,0,0,0,0,0,0,0,0,309.23,1078.87,2,0,0.12,0.12,167,7.69,0.14,0.12,21.76,FLYING,X10-H,0:/Integrated Flight Computer/aircraft/x10_h_cfg.ks (inferred preloaded)
22,APPROACH,ILS_TRACK,152.17,152,-0.17,653.92,575.32,0.07,9.6,9.57,269.97,0.042,0.2815,0,19.855,1,0.6,4.5,0.75,0.35,0.0168,0.4,0,21.842,0,0.175,0,270,0,0,1,0.03,0,0,0,270,0.7023,-0.0001,0.7119,0,270,0.79,-394.64,18.59,-0.004,0,0,3,742.97,8.48,0,1048.55,0,0,0,,0,0,0,0,0,0,0,0,0,0,0,0,0,269.8,0,0,0,0,0,0,0,0,0,0,0,0,0,3,3,0,0,VALID,0,0,0,0,0,1,0,0,0,0,0,0,0,0,0,0,0,0,0,0,308.74,1078.98,2,0,0.12,0.12,169,7.69,0.14,0.12,22.02,FLYING,X10-H,0:/Integrated Flight Computer/aircraft/x10_h_cfg.ks (inferred preloaded)
22.26,APPROACH,ILS_TRACK,152.2,152,-0.2,653.93,575.34,0.08,9.6,9.57,269.97,0.043,0.2807,0,19.805,1,0.6,4.5,0.75,0.35,0.0168,0.4,0,21.834,0,0.201,0,269.99,0,0,1,0.02,0,0,0,269.99,0.7023,-0.0002,0.7119,0,269.99,0.77,-392.43,18.548,-0.01,0,0,3,742.97,8.497,0,1046.36,0,0,0,,0,0,0,0,0,0,0,0,0,0,0,0,0,269.8,0,0,0,0,0,0,0,0,0,0,0,0,0,3,3,0,0,VALID,0,0,0,0,0,1,0,0,0,0,0,0,0,0,0,0,0,0,0,0,308.33,1079.09,2,0,0.12,0.12,171,7.69,0.14,0.12,22.28,FLYING,X10-H,0:/Integrated Flight Computer/aircraft/x10_h_cfg.ks (inferred preloaded)
22.52,APPROACH,ILS_TRACK,152.23,152,-0.23,653.95,575.36,0.1,9.59,9.55,269.97,0.044,0.2798,0,19.749,1,0.6,4.5,0.75,0.35,0.0168,0.4,0,21.827,0,0.225,0,270,0,0,1,0.04,0,0,0,270,0.7024,-0.0001,0.7118,0,270,0.74,-390.22,18.506,-0.004,0,0,3,742.97,8.507,0,1044.17,0,0,0,,0,0,0,0,0,0,0,0,0,0,0,0,0,269.8,0,0,0,0,0,0,0,0,0,0,0,0,0,3,3,0,0,VALID,0,0,0,0,0,1,0,0,0,0,0,0,0,0,0,0,0,0,0,0,307.87,1079.19,2,0,0.12,0.12,173,7.69,0.14,0.12,22.54,FLYING,X10-H,0:/Integrated Flight Computer/aircraft/x10_h_cfg.ks (inferred preloaded)
22.78,APPROACH,ILS_TRACK,152.25,152,-0.25,653.98,575.38,0.12,9.62,9.58,269.97,0.044,0.279,0,19.686,1,0.6,4.5,0.75,0.35,0.0168,0.4,0,21.821,0,0.248,0,270,0,0,1,0.03,0,0,0,269.99,0.7024,0.0001,0.7118,0,270,0.71,-388,18.465,0.003,0,0,3,742.97,8.571,0,1041.98,0,0,0,,0,0,0,0,0,0,0,0,0,0,0,0,0,269.8,0,0,0,0,0,0,0,0,0,0,0,0,0,3,3,0,0,VALID,0,0,0,0,0,1,0,0,0,0,0,0,0,0,0,0,0,0,0,0,307.37,1079.28,2,0,0.12,0.12,175,7.69,0.14,0.12,22.8,FLYING,X10-H,0:/Integrated Flight Computer/aircraft/x10_h_cfg.ks (inferred preloaded)
23.04,APPROACH,ILS_TRACK,152.26,152,-0.26,654,575.41,0.06,9.56,9.55,269.97,0.045,0.2819,0,19.62,1,0.6,4.5,0.75,0.35,0.0168,0.4,0,21.817,0,0.263,0,270,0,0,1,0.02,0,0,0,270,0.7025,0,0.7117,0,270,0.68,-385.79,18.423,0.001,0,0,3,742.97,8.536,0,1039.79,0,0,0,,0,0,0,0,0,0,0,0,0,0,0,0,0,269.8,0,0,0,0,0,0,0,0,0,0,0,0,0,3,3,0,0,VALID,0,0,0,0,0,1,0,0,0,0,0,0,0,0,0,0,0,0,0,0,306.96,1079.35,2,0,0.12,0.12,177,7.69,0.14,0.12,23.06,FLYING,X10-H,0:/Integrated Flight Computer/aircraft/x10_h_cfg.ks (inferred preloaded)
23.3,APPROACH,ILS_TRACK,152.28,152,-0.28,654.03,575.44,0.1,9.59,9.55,269.97,0.045,0.2818,0,19.548,1,0.6,4.5,0.75,0.35,0.0168,0.4,0,21.812,0,0.28,0,270,0,0,1,0.04,0,0,0,269.99,0.7025,-0.0001,0.7117,0,270,0.66,-383.57,18.381,-0.004,0,0,3,742.97,8.523,0,1037.6,0,0,0,,0,0,0,0,0,0,0,0,0,0,0,0,0,269.8,0,0,0,0,0,0,0,0,0,0,0,0,0,3,3,0,0,VALID,0,0,0,0,0,1,0,0,0,0,0,0,0,0,0,0,0,0,0,0,306.72,1079.42,2,0,0.12,0.12,179,7.69,0.14,0.12,23.32,FLYING,X10-H,0:/Integrated Flight Computer/aircraft/x10_h_cfg.ks (inferred preloaded)
23.56,APPROACH,ILS_TRACK,152.3,152,-0.3,654.06,575.47,0.13,9.59,9.55,269.97,0.045,0.2784,0,19.472,1,0.6,4.5,0.75,0.35,0.0168,0.4,0,21.806,0,0.302,0,270,0,0,1,0.04,0,0,0,270,0.7026,0,0.7116,0,270,0.63,-381.35,18.339,-0.001,0,0,3,742.97,8.55,0,1035.41,0,0,0,,0,0,0,0,0,0,0,0,0,0,0,0,0,269.8,0,0,0,0,0,0,0,0,0,0,0,0,0,3,3,0,0,VALID,0,0,0,0,0,1,0,0,0,0,0,0,0,0,0,0,0,0,0,0,306.44,1079.51,2,0,0.12,0.12,181,7.69,0.14,0.12,23.58,FLYING,X10-H,0:/Integrated Flight Computer/aircraft/x10_h_cfg.ks (inferred preloaded)
23.82,APPROACH,ILS_TRACK,152.32,152,-0.32,654.09,575.5,0.12,9.59,9.54,269.97,0.045,0.2759,0,19.39,1,0.6,4.5,0.75,0.35,0.0168,0.4,0,21.8,0,0.322,0,270,0,0,1,0.05,0,0,0,270,0.7026,0.0001,0.7116,0,270,0.6,-379.13,18.297,0.005,0,0,3,742.97,8.546,0,1033.21,0,0,0,,0,0,0,0,0,0,0,0,0,0,0,0,0,269.8,0,0,0,0,0,0,0,0,0,0,0,0,0,3,3,0,0,VALID,0,0,0,0,0,1,0,0,0,0,0,0,0,0,0,0,0,0,0,0,305.9,1079.59,2,0,0.12,0.12,183,7.69,0.14,0.12,23.84,FLYING,X10-H,0:/Integrated Flight Computer/aircraft/x10_h_cfg.ks (inferred preloaded)
24.08,APPROACH,ILS_TRACK,152.34,152,-0.34,654.12,575.53,0.14,9.59,9.53,269.97,0.046,0.2738,0,19.303,1,0.6,4.5,0.75,0.35,0.0168,0.4,0,21.795,0,0.34,0,270,0,0,1,0.05,0,0,0,270,0.7027,0,0.7115,0,270,0.58,-376.9,18.256,0.003,0,0,3,742.97,8.569,0,1031.02,0,0,0,,0,0,0,0,0,0,0,0,0,0,0,0,0,269.8,0,0,0,0,0,0,0,0,0,0,0,0,0,3,3,0,0,VALID,0,0,0,0,0,1,0,0,0,0,0,0,0,0,0,0,0,0,0,0,305.18,1079.66,2,0,0.12,0.12,185,7.69,0.14,0.12,24.1,FLYING,X10-H,0:/Integrated Flight Computer/aircraft/x10_h_cfg.ks (inferred preloaded)
24.34,APPROACH,ILS_TRACK,152.36,152,-0.36,654.16,575.57,0.14,9.59,9.54,269.97,0.047,0.273,0,19.211,1,0.6,4.5,0.75,0.35,0.0168,0.4,0,21.79,0,0.357,0,270,0,0,1,0.05,0,0,0,270,0.7027,-0.0001,0.7115,0,270,0.56,-374.68,18.214,-0.004,0,0,3,742.97,8.566,0,1028.83,0,0,0,,0,0,0,0,0,0,0,0,0,0,0,0,0,269.8,0,0,0,0,0,0,0,0,0,0,0,0,0,3,3,0,0,VALID,0,0,0,0,0,1,0,0,0,0,0,0,0,0,0,0,0,0,0,0,304.35,1079.73,2,0,0.12,0.12,187,7.69,0.14,0.12,24.36,FLYING,X10-H,0:/Integrated Flight Computer/aircraft/x10_h_cfg.ks (inferred preloaded)
24.6,APPROACH,ILS_TRACK,152.37,152,-0.37,654.19,575.61,0.16,9.58,9.52,269.97,0.047,0.2726,0,19.116,1,0.6,4.5,0.75,0.35,0.0168,0.4,0,21.787,0,0.37,0,270,0,0,1,0.06,0,0,0,270.01,0.7028,0,0.7114,0,270,0.53,-372.45,18.172,0.002,0,0,3,742.97,8.554,0,1026.64,0,0,0,,0,0,0,0,0,0,0,0,0,0,0,0,0,269.8,0,0,0,0,0,0,0,0,0,0,0,0,0,3,3,0,0,VALID,0,0,0,0,0,1,0,0,0,0,0,0,0,0,0,0,0,0,0,0,303.51,1079.78,2,0,0.12,0.12,189,7.69,0.14,0.12,24.62,FLYING,X10-H,0:/Integrated Flight Computer/aircraft/x10_h_cfg.ks (inferred preloaded)
24.86,APPROACH,ILS_TRACK,152.38,152,-0.38,654.23,575.65,0.16,9.58,9.52,269.97,0.048,0.2734,0,19.018,1,0.6,4.5,0.75,0.35,0.0168,0.4,0,21.784,0,0.381,0,270,0,0,1,0.06,0,0,0,270,0.7028,0.0001,0.7114,0,270,0.51,-370.22,18.13,0.004,0,0,3,742.97,8.571,0,1024.45,0,0,0,,0,0,0,0,0,0,0,0,0,0,0,0,0,269.8,0,0,0,0,0,0,0,0,0,0,0,0,0,3,3,0,0,VALID,0,0,0,0,0,1,0,0,0,0,0,0,0,0,0,0,0,0,0,0,302.73,1079.83,2,0,0.12,0.12,191,7.69,0.14,0.12,24.88,FLYING,X10-H,0:/Integrated Flight Computer/aircraft/x10_h_cfg.ks (inferred preloaded)
25.12,APPROACH,ILS_TRACK,152.39,152,-0.39,654.28,575.69,0.17,9.59,9.53,269.97,0.048,0.2734,0,18.917,1,0.6,4.5,0.75,0.35,0.0168,0.4,0,21.781,0,0.39,0,270.01,0,0,1,0.06,0,0,0,270,0.7028,0.0002,0.7113,0,270.01,0.48,-367.98,18.088,0.013,0,0,3,742.97,8.591,0,1022.25,0,0,0,,0,0,0,0,0,0,0,0,0,0,0,0,0,269.8,0,0,0,0,0,0,0,0,0,0,0,0,0,3,3,0,0,VALID,0,0,0,0,0,1,0,0,0,0,0,0,0,0,0,0,0,0,0,0,302.09,1079.86,2,0,0.12,0.12,193,7.69,0.14,0.12,25.14,FLYING,X10-H,0:/Integrated Flight Computer/aircraft/x10_h_cfg.ks (inferred preloaded)
25.38,APPROACH,ILS_TRACK,152.4,152,-0.4,654.32,575.73,0.18,9.59,9.52,269.98,0.049,0.2728,0,18.814,1,0.6,4.5,0.75,0.35,0.0168,0.4,0,21.778,0,0.399,0,270,0,0,1,0.07,0,0,0,270,0.7029,0,0.7113,0,270,0.46,-365.75,18.046,0.001,0,0,3,742.97,8.598,0,1020.06,0,0,0,,0,0,0,0,0,0,0,0,0,0,0,0,0,269.8,0,0,0,0,0,0,0,0,0,0,0,0,0,3,3,0,0,VALID,0,0,0,0,0,1,0,0,0,0,0,0,0,0,0,0,0,0,0,0,301.48,1079.9,2,0,0.12,0.12,195,7.69,0.14,0.12,25.4,FLYING,X10-H,0:/Integrated Flight Computer/aircraft/x10_h_cfg.ks (inferred preloaded)
25.64,APPROACH,ILS_TRACK,152.41,152,-0.41,654.36,575.78,0.17,9.58,9.52,269.98,0.049,0.2731,0,18.709,1,0.6,4.5,0.75,0.35,0.0168,0.4,0,21.777,0,0.405,0,270,0,0,1,0.07,0,0,0,270,0.7029,0,0.7112,0,270,0.44,-363.51,18.005,0.001,0,0,3,742.97,8.598,0,1017.87,0,0,0,,0,0,0,0,0,0,0,0,0,0,0,0,0,269.8,0,0,0,0,0,0,0,0,0,0,0,0,0,3,3,0,0,VALID,0,0,0,0,0,1,0,0,0,0,0,0,0,0,0,0,0,0,0,0,300.88,1079.92,2,0,0.12,0.12,197,7.69,0.14,0.12,25.66,FLYING,X10-H,0:/Integrated Flight Computer/aircraft/x10_h_cfg.ks (inferred preloaded)
25.9,APPROACH,ILS_TRACK,152.41,152,-0.41,654.41,575.82,0.19,9.59,9.52,269.98,0.05,0.2736,0,18.603,1,0.6,4.5,0.75,0.35,0.0168,0.4,0,21.775,0,0.41,0,270.01,0,0,1,0.07,0,0,0,270,0.703,0.0002,0.7112,0,270.01,0.42,-361.27,17.963,0.011,0,0,3,742.97,8.61,0,1015.68,0,0,0,,0,0,0,0,0,0,0,0,0,0,0,0,0,269.8,0,0,0,0,0,0,0,0,0,0,0,0,0,3,3,0,0,VALID,0,0,0,0,0,1,0,0,0,0,0,0,0,0,0,0,0,0,0,0,300.37,1079.93,2,0,0.12,0.12,199,7.69,0.14,0.12,25.92,FLYING,X10-H,0:/Integrated Flight Computer/aircraft/x10_h_cfg.ks (inferred preloaded)
26.16,APPROACH,ILS_TRACK,152.41,152,-0.41,654.46,575.87,0.2,9.59,9.51,269.98,0.051,0.2746,0,18.496,1,0.6,4.5,0.75,0.35,0.0168,0.4,0,21.775,0,0.411,0,270.01,0,0,1,0.08,0,0,0,270,0.703,0.0001,0.7111,0,270.01,0.39,-359.03,17.921,0.006,0,0,3,742.97,8.589,0,1013.48,0,0,0,,0,0,0,0,0,0,0,0,0,0,0,0,0,269.8,0,0,0,0,0,0,0,0,0,0,0,0,0,3,3,0,0,VALID,0,0,0,0,0,1,0,0,0,0,0,0,0,0,0,0,0,0,0,0,299.93,1079.94,2,0,0.12,0.12,201,7.69,0.14,0.12,26.18,FLYING,X10-H,0:/Integrated Flight Computer/aircraft/x10_h_cfg.ks (inferred preloaded)
26.42,APPROACH,ILS_TRACK,152.41,152,-0.41,654.51,575.92,0.2,9.59,9.51,269.98,0.053,0.2758,0,18.389,1,0.6,4.5,0.75,0.35,0.0168,0.4,0,21.775,0,0.411,0,270,0,0,1,0.08,0,0,0,270.01,0.7031,0,0.7111,0,270,0.37,-356.78,17.879,0,0,0,3,742.97,8.603,0,1011.29,0,0,0,,0,0,0,0,0,0,0,0,0,0,0,0,0,269.8,0,0,0,0,0,0,0,0,0,0,0,0,0,3,3,0,0,VALID,0,0,0,0,0,1,0,0,0,0,0,0,0,0,0,0,0,0,0,0,299.64,1079.93,2,0,0.12,0.12,203,7.69,0.14,0.12,26.44,FLYING,X10-H,0:/Integrated Flight Computer/aircraft/x10_h_cfg.ks (inferred preloaded)
26.68,APPROACH,ILS_TRACK,152.41,152,-0.41,654.56,575.97,0.2,9.59,9.52,269.98,0.054,0.2756,0,18.282,1,0.6,4.5,0.75,0.35,0.0168,0.4,0,21.775,0,0.411,0,270.01,0,0,1,0.08,0,0,0,270,0.7031,0.0002,0.711,0,270.01,0.35,-354.54,17.837,0.013,0,0,3,742.97,8.618,0,1009.1,0,0,0,,0,0,0,0,0,0,0,0,0,0,0,0,0,269.8,0,0,0,0,0,0,0,0,0,0,0,0,0,3,3,0,0,VALID,0,0,0,0,0,1,0,0,0,0,0,0,0,0,0,0,0,0,0,0,299.48,1079.93,2,0,0.12,0.12,205,7.69,0.14,0.12,26.7,FLYING,X10-H,0:/Integrated Flight Computer/aircraft/x10_h_cfg.ks (inferred preloaded)
26.94,APPROACH,ILS_TRACK,152.41,152,-0.41,654.61,576.03,0.21,9.58,9.5,269.98,0.056,0.2741,0,18.175,1,0.6,4.5,0.75,0.35,0.0168,0.4,0,21.775,0,0.412,0,270,0,0,1,0.08,0,0,0,270,0.7032,0.0001,0.711,0,270,0.33,-352.29,17.795,0.005,0,0,3,742.97,8.623,0,1006.9,0,0,0,,0,0,0,0,0,0,0,0,0,0,0,0,0,269.8,0,0,0,0,0,0,0,0,0,0,0,0,0,3,3,0,0,VALID,0,0,0,0,0,1,0,0,0,0,0,0,0,0,0,0,0,0,0,0,299.3,1079.93,2,0,0.12,0.12,207,7.69,0.14,0.12,26.96,FLYING,X10-H,0:/Integrated Flight Computer/aircraft/x10_h_cfg.ks (inferred preloaded)
27.2,APPROACH,ILS_TRACK,152.41,152,-0.41,654.67,576.08,0.2,9.59,9.52,269.98,0.056,0.2732,0,18.068,1,0.6,4.5,0.75,0.35,0.0168,0.4,0,21.775,0,0.412,0,270,0,0,1,0.08,0,0,0,270.01,0.7032,0,0.7109,0,270,0.31,-350.04,17.753,0.001,0,0,3,742.97,8.639,0,1004.71,0,0,0,,0,0,0,0,0,0,0,0,0,0,0,0,0,269.8,0,0,0,0,0,0,0,0,0,0,0,0,0,3,3,0,0,VALID,0,0,0,0,0,1,0,0,0,0,0,0,0,0,0,0,0,0,0,0,298.98,1079.92,2,0,0.12,0.12,209,7.69,0.14,0.12,27.22,FLYING,X10-H,0:/Integrated Flight Computer/aircraft/x10_h_cfg.ks (inferred preloaded)
27.46,APPROACH,ILS_TRACK,152.41,152,-0.41,654.73,576.14,0.23,9.6,9.53,269.98,0.058,0.2724,0,17.961,1,0.6,4.5,0.75,0.35,0.0168,0.4,0,21.775,0,0.411,0,270.01,0,0,1,0.08,0,0,0,270.01,0.7033,0.0001,0.7109,0,270.01,0.29,-347.79,17.712,0.005,0,0,3,742.97,8.671,0,1002.52,0,0,0,,0,0,0,0,0,0,0,0,0,0,0,0,0,269.8,0,0,0,0,0,0,0,0,0,0,0,0,0,3,3,0,0,VALID,0,0,0,0,0,1,0,0,0,0,0,0,0,0,0,0,0,0,0,0,298.62,1079.92,2,0,0.12,0.12,211,7.69,0.14,0.12,27.48,FLYING,X10-H,0:/Integrated Flight Computer/aircraft/x10_h_cfg.ks (inferred preloaded)
27.72,APPROACH,ILS_TRACK,152.41,152,-0.41,654.79,576.19,0.21,9.61,9.54,269.98,0.058,0.2722,0,17.855,1,0.6,4.5,0.75,0.35,0.0168,0.4,0,21.776,0,0.408,0,270.01,0,0,1,0.07,0,0,0,270.01,0.7033,0.0002,0.7108,0,270.01,0.27,-345.54,17.67,0.009,0,0,3,742.97,8.709,0,1000.32,0,0,0,,0,0,0,0,0,0,0,0,0,0,0,0,0,269.8,0,0,0,0,0,0,0,0,0,0,0,0,0,3,3,0,0,VALID,0,0,0,0,0,1,0,0,0,0,0,0,0,0,0,0,0,0,0,0,298.23,1079.9,2,0,0.12,0.12,213,7.69,0.14,0.12,27.74,FLYING,X10-H,0:/Integrated Flight Computer/aircraft/x10_h_cfg.ks (inferred preloaded)
27.98,APPROACH,ILS_TRACK,152.4,152,-0.4,654.85,576.25,0.23,9.61,9.54,269.98,0.058,0.2736,0,17.75,1,0.6,4.5,0.75,0.35,0.0168,0.4,0,21.778,0,0.402,0,270.01,0,0,1,0.08,0,0,0,270.01,0.7034,0.0001,0.7108,0,270.01,0.25,-343.29,17.628,0.007,0,0,3,742.97,8.677,0,998.13,0,0,0,,0,0,0,0,0,0,0,0,0,0,0,0,0,269.8,0,0,0,0,0,0,0,0,0,0,0,0,0,3,3,0,0,VALID,0,0,0,0,0,1,0,0,0,0,0,0,0,0,0,0,0,0,0,0,297.89,1079.87,2,0,0.12,0.12,215,7.69,0.14,0.12,28,FLYING,X10-H,0:/Integrated Flight Computer/aircraft/x10_h_cfg.ks (inferred preloaded)
28.24,APPROACH,ILS_TRACK,152.4,152,-0.4,654.9,576.31,0.25,9.61,9.52,269.98,0.058,0.2733,0,17.646,1,0.6,4.5,0.75,0.35,0.0168,0.4,0,21.779,0,0.397,0,270.01,0,0,1,0.09,0,0,0,270.01,0.7034,0.0001,0.7107,0,270.01,0.24,-341.04,17.586,0.006,0,0,3,742.97,8.673,0,995.94,0,0,0,,0,0,0,0,0,0,0,0,0,0,0,0,0,269.8,0,0,0,0,0,0,0,0,0,0,0,0,0,3,3,0,0,VALID,0,0,0,0,0,1,0,0,0,0,0,0,0,0,0,0,0,0,0,0,297.66,1079.84,2,0,0.12,0.12,217,7.69,0.14,0.12,28.26,FLYING,X10-H,0:/Integrated Flight Computer/aircraft/x10_h_cfg.ks (inferred preloaded)
28.5,APPROACH,ILS_TRACK,152.39,152,-0.39,654.96,576.37,0.24,9.61,9.52,269.99,0.058,0.2722,0,17.544,1,0.6,4.5,0.75,0.35,0.0168,0.4,0,21.78,0,0.393,0,270.01,0,0,1,0.09,0,0,0,270.01,0.7035,0.0001,0.7107,0,270.01,0.22,-338.79,17.544,0.006,0,0,3,742.97,8.687,0,993.75,0,0,0,,0,0,0,0,0,0,0,0,0,0,0,0,0,269.8,0,0,0,0,0,0,0,0,0,0,0,0,0,3,3,0,0,VALID,0,0,0,0,0,1,0,0,0,0,0,0,0,0,0,0,0,0,0,0,297.43,1079.82,2,0,0.12,0.12,219,7.69,0.14,0.12,28.52,FLYING,X10-H,0:/Integrated Flight Computer/aircraft/x10_h_cfg.ks (inferred preloaded)
28.76,APPROACH,ILS_TRACK,152.39,152,-0.39,655.03,576.43,0.26,9.61,9.52,269.99,0.058,0.2712,0,17.442,1,0.6,4.5,0.75,0.35,0.0168,0.4,0,21.782,0,0.388,0,270.01,0,0,1,0.09,0,0,0,270.01,0.7035,0.0002,0.7107,0,270.01,0.2,-336.53,17.502,0.011,0,0,3,742.97,8.681,0,991.55,0,0,0,,0,0,0,0,0,0,0,0,0,0,0,0,0,269.8,0,0,0,0,0,0,0,0,0,0,0,0,0,3,3,0,0,VALID,0,0,0,0,0,1,0,0,0,0,0,0,0,0,0,0,0,0,0,0,297.11,1079.8,2,0,0.12,0.12,221,7.69,0.14,0.12,28.78,FLYING,X10-H,0:/Integrated Flight Computer/aircraft/x10_h_cfg.ks (inferred preloaded)
29.02,APPROACH,ILS_TRACK,152.38,152,-0.38,655.09,576.49,0.25,9.61,9.52,269.99,0.058,0.271,0,17.343,1,0.6,4.5,0.75,0.35,0.0168,0.4,0,21.783,0,0.382,0,270.01,0,0,1,0.09,0,0,0,270.01,0.7036,0.0001,0.7106,0,270.01,0.19,-334.28,17.461,0.006,0,0,3,742.97,8.685,0,989.36,0,0,0,,0,0,0,0,0,0,0,0,0,0,0,0,0,269.8,0,0,0,0,0,0,0,0,0,0,0,0,0,3,3,0,0,VALID,0,0,0,0,0,1,0,0,0,0,0,0,0,0,0,0,0,0,0,0,296.74,1079.76,2,0,0.12,0.12,223,7.69,0.14,0.12,29.04,FLYING,X10-H,0:/Integrated Flight Computer/aircraft/x10_h_cfg.ks (inferred preloaded)
